% program   : RTKLIB ver.demo5 b34j
% inp file  : E:\GAMPII-GOOD\dataset_Win\obs\2021\351\MGEX\daily\kir83510.21o
% inp file  : E:\Navigation_Learn\GNSS\RTKLIB-b34k\data\data_IGM-A1_Vehicle_open_20211217-nsh\brdm3510.21p
% inp file  : E:\Navigation_Learn\GNSS\RTKLIB-b34k\data\data_IGM-A1_Vehicle_open_20211217-nsh\wum21885.sp3
% inp file  : E:\Navigation_Learn\GNSS\RTKLIB-b34k\data\data_IGM-A1_Vehicle_open_20211217-nsh\wum21885.clk
% inp file  : E:\Navigation_Learn\GNSS\RTKLIB-b34k\data\data_IGM-A1_Vehicle_open_20211217-nsh\CAS0MGXRAP_20213510000_01D_01D_DCB.BSX
% obs start : 2021/12/17 00:00:00.0 GPST (week2188 432000.0s)
% obs end   : 2021/12/17 23:59:30.0 GPST (week2188 518370.0s)
% pos mode  : PPP Kinematic
% solution  : Forward
% elev mask : 7.0 deg
% dynamics  : off
% tidecorr  : on
% tropo opt : Estimate ZTD
% ephemeris : Precise
% navi sys  : GPS
% antenna1  : LEIAR25.R3      LEIT  ( 0.0000  0.0000  0.0030)
%
% (x/y/z-ecef=WGS84,Q=1:fix,2:float,3:sbas,4:dgps,5:single,6:ppp,ns=# of satellites)
%  GPST              x-ecef(m)      y-ecef(m)      z-ecef(m)   Q  ns   sdx(m)   sdy(m)   sdz(m)  sdxy(m)  sdyz(m)  sdzx(m) age(s)  ratio
2188 432000.000   2248125.3650    865685.6806   5886421.3175   6   7   1.7149   1.1235   5.2592   0.4180   0.7720   2.5164   0.00    0.0
2188 432030.000   2248126.4688    865685.9319   5886423.8196   6   8   1.1743   0.7943   3.4303   0.3128   0.5812   1.6509   0.00    0.0
2188 432060.000   2248126.9023    865685.9461   5886424.6208   6   8   0.8922   0.6465   2.3150   0.2524   0.4668   1.1229   0.00    0.0
2188 432090.000   2248126.8817    865685.7338   5886424.5461   6   7   0.7314   0.5610   1.6409   0.2174   0.3932   0.8091   0.00    0.0
2188 432120.000   2248126.8446    865685.6440   5886424.6741   6   7   0.6309   0.5029   1.2248   0.1949   0.3456   0.6173   0.00    0.0
2188 432150.000   2248126.8155    865685.7396   5886424.5985   6   7   0.5722   0.4609   1.0278   0.1714   0.2959   0.5324   0.00    0.0
2188 432180.000   2248126.8458    865685.7032   5886424.6009   6   8   0.5164   0.4265   0.7945   0.1691   0.2914   0.4242   0.00    0.0
2188 432210.000   2248126.8351    865685.7155   5886424.5829   6   8   0.4803   0.3993   0.6796   0.1607   0.2741   0.3743   0.00    0.0
2188 432240.000   2248126.8649    865685.7772   5886424.6422   6   8   0.4575   0.3779   0.6512   0.1467   0.2448   0.3657   0.00    0.0
2188 432270.000   2248126.8051    865685.7276   5886424.4768   6   8   0.4294   0.3575   0.5457   0.1496   0.2513   0.3183   0.00    0.0
2188 432300.000   2248126.8073    865685.6982   5886424.4797   6   8   0.4100   0.3407   0.5013   0.1445   0.2412   0.3000   0.00    0.0
2188 432330.000   2248126.8059    865685.7021   5886424.5137   6   7   0.3980   0.3271   0.5143   0.1342   0.2194   0.3077   0.00    0.0
2188 432360.000   2248126.8251    865685.7043   5886424.5367   6   9   0.3797   0.3128   0.4463   0.1372   0.2270   0.2781   0.00    0.0
2188 432390.000   2248126.8818    865685.7115   5886424.5605   6   9   0.3670   0.3006   0.4229   0.1332   0.2192   0.2687   0.00    0.0
2188 432420.000   2248126.8928    865685.7011   5886424.5863   6   8   0.3557   0.2894   0.4056   0.1292   0.2116   0.2612   0.00    0.0
2188 432450.000   2248126.8662    865685.6936   5886424.6341   6   9   0.3456   0.2789   0.3886   0.1254   0.2059   0.2549   0.00    0.0
2188 432480.000   2248126.9141    865685.6714   5886424.6452   6   9   0.3361   0.2687   0.3743   0.1209   0.1992   0.2488   0.00    0.0
2188 432510.000   2248126.9287    865685.6295   5886424.6932   6   8   0.3274   0.2595   0.3630   0.1165   0.1913   0.2430   0.00    0.0
2188 432540.000   2248126.9369    865685.6401   5886424.7251   6   9   0.3195   0.2504   0.3495   0.1125   0.1870   0.2382   0.00    0.0
2188 432570.000   2248126.9624    865685.6511   5886424.7868   6   8   0.3118   0.2420   0.3395   0.1076   0.1786   0.2324   0.00    0.0
2188 432600.000   2248126.9732    865685.6385   5886424.8293   6   9   0.3048   0.2335   0.3269   0.1031   0.1750   0.2280   0.00    0.0
2188 432630.000   2248127.0003    865685.6465   5886424.8681   6   9   0.2975   0.2245   0.3157   0.0971   0.1686   0.2224   0.00    0.0
2188 432660.000   2248127.0195    865685.6280   5886424.8777   6   8   0.2908   0.2172   0.3067   0.0922   0.1603   0.2163   0.00    0.0
2188 432690.000   2248127.0164    865685.6549   5886424.9135   6   8   0.2873   0.2112   0.3220   0.0877   0.1519   0.2221   0.00    0.0
2188 432720.000   2248127.0224    865685.6814   5886424.9087   6   8   0.2796   0.2053   0.2994   0.0839   0.1456   0.2102   0.00    0.0
2188 432750.000   2248127.0530    865685.6709   5886424.8776   6  10   0.2697   0.1968   0.2644   0.0758   0.1428   0.1936   0.00    0.0
2188 432780.000   2248127.0660    865685.6703   5886424.8731   6   9   0.2612   0.1902   0.2451   0.0687   0.1332   0.1798   0.00    0.0
2188 432810.000   2248127.0530    865685.6759   5886424.8730   6   9   0.2533   0.1852   0.2261   0.0646   0.1275   0.1674   0.00    0.0
2188 432840.000   2248127.0407    865685.6705   5886424.8563   6   8   0.2465   0.1804   0.2234   0.0597   0.1206   0.1608   0.00    0.0
2188 432870.000   2248127.0213    865685.6899   5886424.8298   6  10   0.2357   0.1725   0.1936   0.0451   0.1168   0.1444   0.00    0.0
2188 432900.000   2248126.9810    865685.6855   5886424.7770   6   9   0.2279   0.1669   0.1770   0.0364   0.1085   0.1303   0.00    0.0
2188 432930.000   2248126.9840    865685.6907   5886424.7548   6  10   0.2197   0.1603   0.1646   0.0165   0.1056   0.1219   0.00    0.0
2188 432960.000   2248126.9759    865685.6747   5886424.7193   6   9   0.2133   0.1552   0.1524  -0.0142   0.0987   0.1103   0.00    0.0
2188 432990.000   2248126.9601    865685.6756   5886424.6820   6   8   0.2100   0.1516   0.1638  -0.0156   0.0957   0.1131   0.00    0.0
2188 433020.000   2248126.9782    865685.6688   5886424.6887   6  10   0.2016   0.1463   0.1371  -0.0318   0.0938   0.0995   0.00    0.0
2188 433050.000   2248126.9674    865685.6783   5886424.6746   6   9   0.1965   0.1417   0.1286  -0.0366   0.0879   0.0901   0.00    0.0
2188 433080.000   2248126.9792    865685.6783   5886424.6704   6   9   0.1928   0.1385   0.1230  -0.0354   0.0864   0.0864   0.00    0.0
2188 433110.000   2248126.9924    865685.6784   5886424.6866   6   9   0.1893   0.1354   0.1181  -0.0345   0.0848   0.0832   0.00    0.0
2188 433140.000   2248127.0227    865685.6987   5886424.6807   6  10   0.1832   0.1307   0.1137  -0.0426   0.0835   0.0809   0.00    0.0
2188 433170.000   2248127.0142    865685.7085   5886424.6751   6   9   0.1791   0.1267   0.1081  -0.0456   0.0784   0.0729   0.00    0.0
2188 433200.000   2248127.0023    865685.7206   5886424.6654   6   9   0.1763   0.1240   0.1048  -0.0444   0.0771   0.0709   0.00    0.0
2188 433230.000   2248126.9942    865685.7236   5886424.6910   6   7   0.2148   0.1219   0.3707  -0.0227   0.0978   0.2234   0.00    0.0
2188 433260.000   2248126.9899    865685.7376   5886424.6626   6   9   0.1715   0.1195   0.0994  -0.0436   0.0739   0.0675   0.00    0.0
2188 433290.000   2248126.9958    865685.7396   5886424.6710   6  10   0.1657   0.1156   0.0967  -0.0486   0.0731   0.0668   0.00    0.0
2188 433320.000   2248126.9876    865685.7406   5886424.6771   6  10   0.1599   0.1114   0.0926  -0.0539   0.0693   0.0608   0.00    0.0
2188 433350.000   2248126.9861    865685.7364   5886424.6691   6  10   0.1551   0.1077   0.0891  -0.0570   0.0661   0.0559   0.00    0.0
2188 433380.000   2248126.9917    865685.7266   5886424.6481   6   9   0.1523   0.1048   0.0869  -0.0577   0.0631   0.0500   0.00    0.0
2188 433410.000   2248127.0053    865685.7235   5886424.6508   6   9   0.1503   0.1027   0.0852  -0.0564   0.0621   0.0495   0.00    0.0
2188 433440.000   2248127.0050    865685.7273   5886424.6546   6   8   0.1503   0.1007   0.1053  -0.0556   0.0602   0.0626   0.00    0.0
2188 433470.000   2248126.9076    865685.7226   5886424.4257   6   7   0.2096   0.1006   0.3935  -0.0164   0.1017   0.2447   0.00    0.0
2188 433500.000   2248126.9971    865685.7298   5886424.6491   6   9   0.1453   0.0979   0.0810  -0.0537   0.0591   0.0471   0.00    0.0
2188 433530.000   2248126.9566    865685.7293   5886424.5477   6   8   0.2028   0.0976   0.3723  -0.0215   0.0971   0.2328   0.00    0.0
2188 433560.000   2248126.9816    865685.7345   5886424.6349   6   8   0.1423   0.0953   0.0797  -0.0526   0.0583   0.0455   0.00    0.0
2188 433590.000   2248126.9859    865685.7447   5886424.6502   6   8   0.1422   0.0934   0.0987  -0.0521   0.0578   0.0571   0.00    0.0
2188 433620.000   2248126.9784    865685.7568   5886424.6594   6   8   0.1394   0.0924   0.0810  -0.0508   0.0584   0.0456   0.00    0.0
2188 433650.000   2248126.9210    865685.7635   5886424.5266   6   7   0.1997   0.0927   0.3645   0.0085   0.0987   0.2310   0.00    0.0
2188 433680.000   2248126.9668    865685.7656   5886424.6689   6   8   0.1364   0.0902   0.0786  -0.0503   0.0567   0.0423   0.00    0.0
2188 433710.000   2248126.8934    865685.7562   5886424.4972   6   7   0.1935   0.0908   0.3463   0.0074   0.0967   0.2202   0.00    0.0
2188 433740.000   2248126.9452    865685.7622   5886424.6411   6   8   0.1358   0.0881   0.0941  -0.0497   0.0556   0.0536   0.00    0.0
2188 433770.000   2248126.9524    865685.7591   5886424.6504   6   9   0.1322   0.0871   0.0744  -0.0495   0.0545   0.0374   0.00    0.0
2188 433800.000   2248126.9454    865685.7578   5886424.6336   6   9   0.1329   0.0855   0.0923  -0.0498   0.0544   0.0518   0.00    0.0
2188 433830.000   2248126.9477    865685.7595   5886424.6516   6   8   0.1296   0.0847   0.0753  -0.0492   0.0542   0.0372   0.00    0.0
2188 433860.000   2248126.9343    865685.7583   5886424.6371   6   8   0.1283   0.0836   0.0748  -0.0490   0.0537   0.0360   0.00    0.0
2188 433890.000   2248126.9359    865685.7665   5886424.6523   6   9   0.1270   0.0825   0.0722  -0.0489   0.0526   0.0337   0.00    0.0
2188 433920.000   2248126.9398    865685.7676   5886424.6463   6   9   0.1255   0.0811   0.0717  -0.0494   0.0523   0.0330   0.00    0.0
2188 433950.000   2248126.9418    865685.7713   5886424.6419   6  10   0.1241   0.0798   0.0702  -0.0497   0.0517   0.0330   0.00    0.0
2188 433980.000   2248126.8960    865685.7614   5886424.5376   6   7   0.1700   0.0814   0.2855  -0.0103   0.0913   0.1832   0.00    0.0
2188 434010.000   2248126.8993    865685.7611   5886424.5729   6   7   0.1677   0.0810   0.2799  -0.0061   0.0915   0.1796   0.00    0.0
2188 434040.000   2248126.8777    865685.7573   5886424.5558   6   7   0.1655   0.0806   0.2744   0.0049   0.0916   0.1760   0.00    0.0
2188 434070.000   2248126.9404    865685.7602   5886424.7028   6   7   0.1633   0.0803   0.2690   0.0091   0.0917   0.1725   0.00    0.0
2188 434100.000   2248126.9192    865685.7565   5886424.6451   6   8   0.1186   0.0766   0.0714  -0.0483   0.0517   0.0294   0.00    0.0
2188 434130.000   2248126.9239    865685.7668   5886424.6745   6   8   0.1587   0.0790   0.2577   0.0097   0.0906   0.1651   0.00    0.0
2188 434160.000   2248126.9562    865685.7794   5886424.7455   6   7   0.1567   0.0787   0.2528   0.0121   0.0907   0.1619   0.00    0.0
2188 434190.000   2248126.9182    865685.7806   5886424.6421   6   9   0.1154   0.0745   0.0704  -0.0474   0.0506   0.0268   0.00    0.0
2188 434220.000   2248126.9012    865685.7765   5886424.6397   6   9   0.1143   0.0729   0.0684  -0.0480   0.0483   0.0239   0.00    0.0
2188 434250.000   2248126.9000    865685.7735   5886424.6476   6   8   0.1134   0.0726   0.0695  -0.0473   0.0490   0.0244   0.00    0.0
2188 434280.000   2248126.8978    865685.7751   5886424.6342   6   8   0.1124   0.0717   0.0691  -0.0470   0.0485   0.0235   0.00    0.0
2188 434310.000   2248126.8967    865685.7737   5886424.6349   6   7   0.1456   0.0745   0.2259  -0.0068   0.0850   0.1438   0.00    0.0
2188 434340.000   2248126.8542    865685.7574   5886424.5742   6   7   0.1438   0.0741   0.2221   0.0013   0.0849   0.1412   0.00    0.0
2188 434370.000   2248126.8876    865685.7771   5886424.6622   6   8   0.1135   0.0689   0.0875  -0.0470   0.0437   0.0463   0.00    0.0
2188 434400.000   2248126.8750    865685.7755   5886424.6444   6   8   0.1085   0.0691   0.0681  -0.0456   0.0468   0.0208   0.00    0.0
2188 434430.000   2248126.8808    865685.7870   5886424.6876   6   8   0.1120   0.0674   0.0870  -0.0461   0.0428   0.0469   0.00    0.0
2188 434460.000   2248126.9099    865685.7926   5886424.7435   6   7   0.1444   0.0727   0.2262   0.0242   0.0886   0.1463   0.00    0.0
2188 434490.000   2248126.8609    865685.7759   5886424.6341   6   8   0.1059   0.0671   0.0673  -0.0447   0.0454   0.0190   0.00    0.0
2188 434520.000   2248126.8636    865685.7720   5886424.6637   6   8   0.1355   0.0704   0.2016  -0.0008   0.0803   0.1290   0.00    0.0
2188 434550.000   2248126.8601    865685.7690   5886424.6384   6   9   0.1040   0.0661   0.0671  -0.0444   0.0449   0.0164   0.00    0.0
2188 434580.000   2248126.8926    865685.7821   5886424.6915   6   8   0.1276   0.0685   0.1813  -0.0214   0.0734   0.1136   0.00    0.0
2188 434610.000   2248126.8772    865685.7709   5886424.6146   6   9   0.1022   0.0652   0.0673  -0.0442   0.0446   0.0139   0.00    0.0
2188 434640.000   2248126.9115    865685.7713   5886424.7037   6   7   0.1402   0.0730   0.2654   0.0358   0.1032   0.1571   0.00    0.0
2188 434670.000   2248126.9073    865685.7694   5886424.6885   6   7   0.1323   0.0698   0.2275   0.0199   0.0884   0.1362   0.00    0.0
2188 434700.000   2248126.8986    865685.7708   5886424.6430   6   9   0.1003   0.0631   0.0660  -0.0433   0.0420   0.0037   0.00    0.0
2188 434730.000   2248126.9118    865685.7713   5886424.6563   6   7   0.1230   0.0670   0.1876  -0.0177   0.0746   0.1127   0.00    0.0
2188 434760.000   2248126.9017    865685.7760   5886424.6399   6   8   0.1022   0.0622   0.0853  -0.0436   0.0389   0.0377   0.00    0.0
2188 434790.000   2248126.8984    865685.7831   5886424.6338   6   8   0.1017   0.0619   0.0854  -0.0432   0.0388   0.0382   0.00    0.0
2188 434820.000   2248126.9227    865685.7969   5886424.6931   6   7   0.1177   0.0657   0.1705  -0.0210   0.0698   0.1019   0.00    0.0
2188 434850.000   2248126.9097    865685.7841   5886424.6414   6   9   0.0962   0.0613   0.0661  -0.0411   0.0405  -0.0084   0.00    0.0
2188 434880.000   2248126.8995    865685.7758   5886424.6482   6   8   0.0989   0.0609   0.0829  -0.0424   0.0372   0.0350   0.00    0.0
2188 434910.000   2248126.9045    865685.7790   5886424.6643   6   8   0.0984   0.0606   0.0832  -0.0418   0.0371   0.0357   0.00    0.0
2188 434940.000   2248126.9100    865685.7791   5886424.6434   6   8   0.0937   0.0618   0.0680  -0.0401   0.0421  -0.0121   0.00    0.0
2188 434970.000   2248126.9040    865685.7750   5886424.6600   6   8   0.0972   0.0600   0.0835  -0.0408   0.0369   0.0362   0.00    0.0
2188 435000.000   2248126.8966    865685.7810   5886424.6400   6   8   0.0967   0.0598   0.0838  -0.0402   0.0367   0.0369   0.00    0.0
2188 435030.000   2248126.8941    865685.7865   5886424.6235   6   8   0.0963   0.0595   0.0841  -0.0397   0.0366   0.0375   0.00    0.0
2188 435060.000   2248126.8895    865685.7846   5886424.6163   6   9   0.0906   0.0591   0.0672  -0.0377   0.0388  -0.0119   0.00    0.0
2188 435090.000   2248126.8868    865685.7880   5886424.6153   6   9   0.0893   0.0587   0.0672  -0.0376   0.0384  -0.0139   0.00    0.0
2188 435120.000   2248126.8857    865685.7962   5886424.6085   6   9   0.0881   0.0583   0.0673  -0.0374   0.0379  -0.0152   0.00    0.0
2188 435150.000   2248126.8817    865685.7928   5886424.6187   6   8   0.0910   0.0582   0.0819  -0.0388   0.0345   0.0311   0.00    0.0
2188 435180.000   2248126.8758    865685.7904   5886424.6292   6   8   0.0906   0.0579   0.0823  -0.0382   0.0344   0.0319   0.00    0.0
2188 435210.000   2248126.8812    865685.7935   5886424.6391   6   8   0.0901   0.0576   0.0828  -0.0376   0.0341   0.0328   0.00    0.0
2188 435240.000   2248126.8752    865685.7968   5886424.6574   6   7   0.1006   0.0627   0.1460  -0.0144   0.0649   0.0812   0.00    0.0
2188 435270.000   2248126.8582    865685.7992   5886424.6230   6   9   0.0844   0.0569   0.0689  -0.0347   0.0366  -0.0150   0.00    0.0
2188 435300.000   2248126.8479    865685.8000   5886424.6272   6   9   0.0831   0.0566   0.0691  -0.0345   0.0362  -0.0159   0.00    0.0
2188 435330.000   2248126.8500    865685.7990   5886424.6551   6   8   0.0863   0.0565   0.0836  -0.0359   0.0328   0.0315   0.00    0.0
2188 435360.000   2248126.8488    865685.7959   5886424.6392   6   7   0.0960   0.0622   0.1442  -0.0102   0.0647   0.0778   0.00    0.0
2188 435390.000   2248126.8409    865685.8045   5886424.6340   6   9   0.0806   0.0558   0.0704  -0.0330   0.0353  -0.0160   0.00    0.0
2188 435420.000   2248126.8409    865685.8021   5886424.6697   6   8   0.0841   0.0556   0.0850  -0.0344   0.0319   0.0320   0.00    0.0
2188 435450.000   2248126.8261    865685.8039   5886424.6492   6   8   0.0837   0.0554   0.0857  -0.0338   0.0317   0.0328   0.00    0.0
2188 435480.000   2248126.8213    865685.8019   5886424.6584   6   8   0.0784   0.0553   0.0776  -0.0308   0.0317  -0.0209   0.00    0.0
2188 435510.000   2248126.8079    865685.8095   5886424.6572   6   8   0.0819   0.0560   0.0946  -0.0324   0.0262   0.0319   0.00    0.0
2188 435540.000   2248126.8117    865685.8162   5886424.6453   6   7   0.0815   0.0554   0.0954  -0.0322   0.0260   0.0327   0.00    0.0
2188 435570.000   2248126.8146    865685.8227   5886424.6438   6   7   0.0807   0.0558   0.1116  -0.0313   0.0346   0.0383   0.00    0.0
2188 435600.000   2248126.8095    865685.8336   5886424.6515   6   7   0.0810   0.0548   0.0969  -0.0312   0.0253   0.0343   0.00    0.0
2188 435630.000   2248126.8084    865685.8359   5886424.6503   6   7   0.0807   0.0545   0.0977  -0.0306   0.0249   0.0351   0.00    0.0
2188 435660.000   2248126.8095    865685.8398   5886424.6678   6   6   0.0898   0.0625   0.1751   0.0183   0.0713   0.0840   0.00    0.0
2188 435690.000   2248126.8033    865685.8384   5886424.6679   6   8   0.0790   0.0539   0.0986  -0.0303   0.0229   0.0341   0.00    0.0
2188 435720.000   2248126.8040    865685.8383   5886424.6768   6   7   0.0799   0.0538   0.1004  -0.0287   0.0238   0.0373   0.00    0.0
2188 435750.000   2248126.8167    865685.8490   5886424.7309   6   6   0.0882   0.0623   0.1750   0.0202   0.0712   0.0827   0.00    0.0
2188 435780.000   2248126.8032    865685.8446   5886424.6854   6   7   0.0794   0.0535   0.1024  -0.0275   0.0231   0.0387   0.00    0.0
2188 435810.000   2248126.7960    865685.8519   5886424.6541   6   8   0.0791   0.0533   0.1035  -0.0268   0.0226   0.0393   0.00    0.0
2188 435840.000   2248126.7907    865685.8516   5886424.6483   6   9   0.0770   0.0525   0.0974  -0.0269   0.0250   0.0331   0.00    0.0
2188 435870.000   2248126.7908    865685.8499   5886424.6282   6   7   0.0786   0.0529   0.1058  -0.0255   0.0218   0.0406   0.00    0.0
2188 435900.000   2248126.7819    865685.8500   5886424.6272   6   8   0.0766   0.0524   0.1054  -0.0267   0.0185   0.0373   0.00    0.0
2188 435930.000   2248126.7924    865685.8448   5886424.6451   6   7   0.0781   0.0526   0.1083  -0.0242   0.0208   0.0419   0.00    0.0
2188 435960.000   2248126.7923    865685.8392   5886424.6854   6   7   0.0778   0.0525   0.1096  -0.0234   0.0203   0.0425   0.00    0.0
2188 435990.000   2248126.7890    865685.8467   5886424.6750   6   7   0.0776   0.0523   0.1110  -0.0227   0.0198   0.0431   0.00    0.0
2188 436020.000   2248126.7799    865685.8391   5886424.6724   6   8   0.0776   0.0526   0.1127  -0.0210   0.0206   0.0443   0.00    0.0
2188 436050.000   2248126.7905    865685.8332   5886424.6878   6   7   0.0773   0.0523   0.1141  -0.0208   0.0193   0.0446   0.00    0.0
2188 436080.000   2248126.7793    865685.8280   5886424.6444   6   6   0.0849   0.0651   0.1886   0.0315   0.0786   0.0858   0.00    0.0
2188 436110.000   2248126.7888    865685.8422   5886424.6718   6   7   0.0768   0.0519   0.1173  -0.0195   0.0178   0.0458   0.00    0.0
2188 436140.000   2248126.7830    865685.8394   5886424.6312   6   7   0.0765   0.0518   0.1189  -0.0189   0.0170   0.0463   0.00    0.0
2188 436170.000   2248126.7806    865685.8395   5886424.6578   6   7   0.0762   0.0517   0.1207  -0.0182   0.0161   0.0468   0.00    0.0
2188 436200.000   2248126.7866    865685.8512   5886424.6330   6   8   0.0760   0.0516   0.1226  -0.0175   0.0152   0.0473   0.00    0.0
2188 436230.000   2248126.7746    865685.8571   5886424.5992   6   7   0.0757   0.0515   0.1245  -0.0168   0.0141   0.0478   0.00    0.0
2188 436260.000   2248126.7755    865685.8564   5886424.6167   6   7   0.0755   0.0514   0.1265  -0.0161   0.0130   0.0483   0.00    0.0
2188 436290.000   2248126.7789    865685.8590   5886424.6315   6   7   0.0752   0.0513   0.1286  -0.0153   0.0116   0.0488   0.00    0.0
2188 436320.000   2248126.7817    865685.8616   5886424.6368   6   7   0.0750   0.0512   0.1308  -0.0146   0.0100   0.0493   0.00    0.0
2188 436350.000   2248126.7705    865685.8830   5886424.4526   6   6   0.0748   0.0692   0.3064  -0.0172  -0.1132   0.0557   0.00    0.0
2188 436380.000   2248126.7845    865685.8627   5886424.6115   6   6   0.0748   0.0682   0.3025  -0.0155  -0.1104   0.0542   0.00    0.0
2188 436410.000   2248126.7922    865685.8702   5886424.5870   6   7   0.0748   0.0671   0.2987  -0.0139  -0.1076   0.0528   0.00    0.0
2188 436440.000   2248126.7922    865685.8833   5886424.5378   6   7   0.0747   0.0589   0.2305  -0.0038  -0.0738   0.0431   0.00    0.0
2188 436470.000   2248126.7953    865685.8859   5886424.5223   6   7   0.0747   0.0558   0.2024   0.0075  -0.0580   0.0392   0.00    0.0
2188 436500.000   2248126.7912    865685.9107   5886424.5375   6   7   0.0793   0.0701   0.2284   0.0359   0.0598   0.0698   0.00    0.0
2188 436530.000   2248126.8007    865685.9144   5886424.5397   6   7   0.0792   0.0700   0.2194   0.0366   0.0653   0.0686   0.00    0.0
2188 436560.000   2248126.7802    865685.8914   5886424.4718   6   8   0.0748   0.0523   0.1698   0.0130  -0.0349   0.0351   0.00    0.0
2188 436590.000   2248126.7832    865685.8826   5886424.4683   6   8   0.0749   0.0518   0.1639   0.0134  -0.0304   0.0353   0.00    0.0
2188 436620.000   2248126.7851    865685.8744   5886424.4720   6   7   0.0755   0.0514   0.1584   0.0144  -0.0261   0.0351   0.00    0.0
2188 436650.000   2248126.7846    865685.8733   5886424.4831   6   8   0.0737   0.0512   0.1521   0.0148  -0.0223   0.0273   0.00    0.0
2188 436680.000   2248126.8016    865685.8682   5886424.5330   6   7   0.0754   0.0509   0.1507   0.0158  -0.0178   0.0331   0.00    0.0
2188 436710.000   2248126.7992    865685.8617   5886424.5454   6   7   0.0755   0.0507   0.1478   0.0164  -0.0131   0.0322   0.00    0.0
2188 436740.000   2248126.7899    865685.8659   5886424.5391   6   7   0.0754   0.0506   0.1454   0.0170  -0.0067   0.0314   0.00    0.0
2188 436770.000   2248126.7821    865685.8569   5886424.5440   6   6   0.0757   0.0505   0.1453   0.0181   0.0117   0.0330   0.00    0.0
2188 436800.000   2248126.7845    865685.8543   5886424.5558   6   6   0.0757   0.0504   0.1436   0.0186   0.0148   0.0320   0.00    0.0
2188 436830.000   2248126.7905    865685.8560   5886424.5665   6   6   0.0757   0.0503   0.1420   0.0191   0.0169   0.0310   0.00    0.0
2188 436860.000   2248126.7952    865685.8540   5886424.5443   6   7   0.0756   0.0502   0.1407   0.0195   0.0187   0.0300   0.00    0.0
2188 436890.000   2248126.7919    865685.8567   5886424.5151   6   6   0.0756   0.0501   0.1395   0.0199   0.0203   0.0290   0.00    0.0
2188 436920.000   2248126.8009    865685.8571   5886424.5154   6   6   0.0756   0.0501   0.1384   0.0203   0.0216   0.0280   0.00    0.0
2188 436950.000   2248126.7940    865685.8584   5886424.5178   6   7   0.0755   0.0500   0.1374   0.0207   0.0227   0.0270   0.00    0.0
2188 436980.000   2248126.7942    865685.8607   5886424.5147   6   7   0.0753   0.0499   0.1356   0.0212   0.0239   0.0243   0.00    0.0
2188 437010.000   2248126.7914    865685.8578   5886424.5205   6   7   0.0751   0.0498   0.1346   0.0215   0.0249   0.0225   0.00    0.0
2188 437040.000   2248126.7993    865685.8628   5886424.5348   6   8   0.0750   0.0498   0.1337   0.0219   0.0257   0.0210   0.00    0.0
2188 437070.000   2248126.8011    865685.8621   5886424.5457   6   7   0.0749   0.0497   0.1330   0.0222   0.0264   0.0194   0.00    0.0
2188 437100.000   2248126.7958    865685.8601   5886424.5378   6   7   0.0748   0.0497   0.1323   0.0225   0.0270   0.0178   0.00    0.0
2188 437130.000   2248126.7951    865685.8560   5886424.5304   6   7   0.0747   0.0496   0.1318   0.0227   0.0276   0.0162   0.00    0.0
2188 437160.000   2248126.7836    865685.8536   5886424.5098   6   7   0.0746   0.0496   0.1313   0.0230   0.0281   0.0143   0.00    0.0
2188 437190.000   2248126.7831    865685.8422   5886424.5313   6   7   0.0744   0.0495   0.1308   0.0232   0.0285   0.0122   0.00    0.0
2188 437220.000   2248126.7930    865685.8459   5886424.5572   6   7   0.0743   0.0495   0.1304   0.0235   0.0290   0.0099   0.00    0.0
2188 437250.000   2248126.7979    865685.8498   5886424.5698   6   7   0.0742   0.0494   0.1300   0.0237   0.0293   0.0066   0.00    0.0
2188 437280.000   2248126.7895    865685.8492   5886424.5364   6   7   0.0740   0.0493   0.1297   0.0239   0.0297  -0.0036   0.00    0.0
2188 437310.000   2248126.7872    865685.8552   5886424.5321   6   8   0.0739   0.0493   0.1294   0.0241   0.0301  -0.0081   0.00    0.0
2188 437340.000   2248126.7946    865685.8611   5886424.5424   6   7   0.0737   0.0493   0.1292   0.0243   0.0303  -0.0109   0.00    0.0
2188 437370.000   2248126.8020    865685.8610   5886424.5428   6   7   0.0735   0.0492   0.1289   0.0245   0.0306  -0.0131   0.00    0.0
2188 437400.000   2248126.8023    865685.8584   5886424.5388   6   7   0.0733   0.0492   0.1287   0.0247   0.0309  -0.0150   0.00    0.0
2188 437430.000   2248126.8055    865685.8539   5886424.5530   6   8   0.0715   0.0489   0.1272   0.0233   0.0297  -0.0237   0.00    0.0
2188 437460.000   2248126.8051    865685.8568   5886424.5509   6   7   0.0729   0.0490   0.1283   0.0250   0.0312  -0.0178   0.00    0.0
2188 437490.000   2248126.8071    865685.8574   5886424.5531   6   7   0.0727   0.0490   0.1281   0.0251   0.0315  -0.0192   0.00    0.0
2188 437520.000   2248126.8046    865685.8531   5886424.5396   6   8   0.0701   0.0486   0.1265   0.0230   0.0299  -0.0280   0.00    0.0
2188 437550.000   2248126.8039    865685.8561   5886424.5387   6   7   0.0722   0.0489   0.1277   0.0254   0.0317  -0.0213   0.00    0.0
2188 437580.000   2248126.7979    865685.8473   5886424.5230   6   8   0.0692   0.0485   0.1260   0.0229   0.0300  -0.0300   0.00    0.0
2188 437610.000   2248126.8044    865685.8482   5886424.5467   6   7   0.0717   0.0488   0.1272   0.0256   0.0319  -0.0229   0.00    0.0
2188 437640.000   2248126.8038    865685.8505   5886424.5616   6   7   0.0714   0.0487   0.1271   0.0257   0.0321  -0.0240   0.00    0.0
2188 437670.000   2248126.7995    865685.8457   5886424.5389   6   8   0.0679   0.0482   0.1258   0.0231   0.0303  -0.0316   0.00    0.0
2188 437700.000   2248126.8059    865685.8489   5886424.5243   6   7   0.0727   0.0487   0.1276   0.0268   0.0329  -0.0184   0.00    0.0
2188 437730.000   2248126.8069    865685.8452   5886424.5254   6   7   0.0717   0.0485   0.1271   0.0262   0.0324  -0.0223   0.00    0.0
2188 437760.000   2248126.8081    865685.8488   5886424.5395   6   7   0.0713   0.0485   0.1268   0.0260   0.0323  -0.0241   0.00    0.0
2188 437790.000   2248126.8027    865685.8499   5886424.5141   6   7   0.0709   0.0484   0.1266   0.0259   0.0323  -0.0255   0.00    0.0
2188 437820.000   2248126.8030    865685.8512   5886424.5189   6   7   0.0706   0.0484   0.1265   0.0258   0.0322  -0.0266   0.00    0.0
2188 437850.000   2248126.8055    865685.8543   5886424.5149   6   8   0.0703   0.0483   0.1263   0.0257   0.0322  -0.0275   0.00    0.0
2188 437880.000   2248126.8071    865685.8490   5886424.5060   6   8   0.0687   0.0480   0.1245   0.0241   0.0303  -0.0329   0.00    0.0
2188 437910.000   2248126.8048    865685.8469   5886424.4755   6   7   0.0696   0.0483   0.1260   0.0256   0.0322  -0.0292   0.00    0.0
2188 437940.000   2248126.8089    865685.8463   5886424.4716   6   8   0.0674   0.0478   0.1241   0.0234   0.0299  -0.0353   0.00    0.0
2188 437970.000   2248126.8007    865685.8419   5886424.4702   6   8   0.0668   0.0477   0.1237   0.0229   0.0297  -0.0364   0.00    0.0
2188 438000.000   2248126.7986    865685.8352   5886424.4470   6   7   0.0687   0.0482   0.1254   0.0254   0.0322  -0.0312   0.00    0.0
2188 438030.000   2248126.7958    865685.8277   5886424.4353   6   7   0.0684   0.0481   0.1252   0.0254   0.0322  -0.0319   0.00    0.0
2188 438060.000   2248126.8032    865685.8312   5886424.4564   6   7   0.0680   0.0481   0.1250   0.0253   0.0322  -0.0325   0.00    0.0
2188 438090.000   2248126.8015    865685.8314   5886424.4547   6   7   0.0677   0.0481   0.1248   0.0253   0.0322  -0.0330   0.00    0.0
2188 438120.000   2248126.7962    865685.8310   5886424.4558   6   7   0.0674   0.0481   0.1246   0.0252   0.0322  -0.0336   0.00    0.0
2188 438150.000   2248126.8004    865685.8340   5886424.4600   6   7   0.0670   0.0480   0.1244   0.0252   0.0322  -0.0340   0.00    0.0
2188 438180.000   2248126.7973    865685.8316   5886424.4429   6   7   0.0667   0.0479   0.1241   0.0252   0.0323  -0.0345   0.00    0.0
2188 438210.000   2248126.7957    865685.8322   5886424.4501   6   7   0.0663   0.0479   0.1238   0.0251   0.0322  -0.0349   0.00    0.0
2188 438240.000   2248126.8089    865685.8437   5886424.4488   6   7   0.0660   0.0478   0.1236   0.0251   0.0323  -0.0353   0.00    0.0
2188 438270.000   2248126.8127    865685.8365   5886424.4505   6   8   0.0656   0.0478   0.1232   0.0250   0.0323  -0.0356   0.00    0.0
2188 438300.000   2248126.8006    865685.8262   5886424.4281   6   7   0.0653   0.0478   0.1229   0.0250   0.0323  -0.0359   0.00    0.0
2188 438330.000   2248126.8235    865685.8351   5886424.4610   6   8   0.0636   0.0473   0.1213   0.0233   0.0305  -0.0392   0.00    0.0
2188 438360.000   2248126.8187    865685.8301   5886424.4575   6   8   0.0628   0.0471   0.1205   0.0227   0.0300  -0.0404   0.00    0.0
2188 438390.000   2248126.8210    865685.8302   5886424.4603   6   8   0.0621   0.0470   0.1200   0.0224   0.0298  -0.0408   0.00    0.0
2188 438420.000   2248126.8262    865685.8325   5886424.4682   6   8   0.0615   0.0469   0.1196   0.0221   0.0297  -0.0411   0.00    0.0
2188 438450.000   2248126.8291    865685.8308   5886424.4507   6   8   0.0633   0.0474   0.1208   0.0249   0.0322  -0.0367   0.00    0.0
2188 438480.000   2248126.8243    865685.8354   5886424.4623   6   7   0.0630   0.0474   0.1204   0.0249   0.0322  -0.0368   0.00    0.0
2188 438510.000   2248126.8199    865685.8293   5886424.4682   6   9   0.0598   0.0460   0.1153   0.0215   0.0262  -0.0414   0.00    0.0
2188 438540.000   2248126.8164    865685.8290   5886424.4547   6   8   0.0594   0.0457   0.1134   0.0213   0.0246  -0.0410   0.00    0.0
2188 438570.000   2248126.8225    865685.8294   5886424.4665   6   7   0.0589   0.0466   0.1174   0.0217   0.0302  -0.0396   0.00    0.0
2188 438600.000   2248126.8140    865685.8294   5886424.4924   6   7   0.0583   0.0465   0.1167   0.0216   0.0302  -0.0391   0.00    0.0
2188 438630.000   2248126.8245    865685.8344   5886424.5053   6   7   0.0602   0.0455   0.1094   0.0223   0.0230  -0.0401   0.00    0.0
2188 438660.000   2248126.8249    865685.8289   5886424.5083   6   6   0.0607   0.0471   0.1165   0.0250   0.0324  -0.0344   0.00    0.0
2188 438690.000   2248126.8067    865685.8226   5886424.4848   6   6   0.0603   0.0471   0.1160   0.0249   0.0325  -0.0344   0.00    0.0
2188 438720.000   2248126.8043    865685.8226   5886424.5043   6   6   0.0599   0.0471   0.1155   0.0249   0.0325  -0.0345   0.00    0.0
2188 438750.000   2248126.8133    865685.8241   5886424.5032   6   7   0.0587   0.0453   0.1064   0.0223   0.0225  -0.0400   0.00    0.0
2188 438780.000   2248126.8231    865685.8281   5886424.5036   6   7   0.0583   0.0451   0.1054   0.0222   0.0221  -0.0400   0.00    0.0
2188 438810.000   2248126.8266    865685.8316   5886424.5106   6   7   0.0586   0.0469   0.1141   0.0247   0.0328  -0.0343   0.00    0.0
2188 438840.000   2248126.8229    865685.8236   5886424.5250   6   6   0.0581   0.0469   0.1136   0.0246   0.0329  -0.0343   0.00    0.0
2188 438870.000   2248126.8318    865685.8222   5886424.5247   6   8   0.0562   0.0449   0.1031   0.0216   0.0219  -0.0395   0.00    0.0
2188 438900.000   2248126.8302    865685.8224   5886424.5220   6   8   0.0555   0.0447   0.1023   0.0216   0.0218  -0.0393   0.00    0.0
2188 438930.000   2248126.8320    865685.8253   5886424.5246   6   8   0.0548   0.0447   0.1014   0.0215   0.0218  -0.0388   0.00    0.0
2188 438960.000   2248126.8345    865685.8182   5886424.5078   6   6   0.0564   0.0467   0.1113   0.0244   0.0334  -0.0335   0.00    0.0
2188 438990.000   2248126.8310    865685.8217   5886424.5318   6   8   0.0538   0.0446   0.0998   0.0215   0.0219  -0.0376   0.00    0.0
2188 439020.000   2248126.8261    865685.8256   5886424.5489   6   8   0.0532   0.0446   0.0988   0.0213   0.0219  -0.0370   0.00    0.0
2188 439050.000   2248126.8337    865685.8221   5886424.5631   6   6   0.0550   0.0465   0.1094   0.0241   0.0336  -0.0324   0.00    0.0
2188 439080.000   2248126.8288    865685.8162   5886424.5628   6   8   0.0521   0.0445   0.0969   0.0214   0.0221  -0.0355   0.00    0.0
2188 439110.000   2248126.8255    865685.8187   5886424.5734   6   7   0.0536   0.0444   0.0961   0.0221   0.0217  -0.0364   0.00    0.0
2188 439140.000   2248126.8198    865685.8166   5886424.5668   6   7   0.0532   0.0443   0.0955   0.0220   0.0217  -0.0361   0.00    0.0
2188 439170.000   2248126.8264    865685.8144   5886424.5748   6   8   0.0504   0.0442   0.0940   0.0215   0.0222  -0.0330   0.00    0.0
2188 439200.000   2248126.8194    865685.8172   5886424.5654   6   7   0.0499   0.0458   0.1058   0.0217   0.0337  -0.0311   0.00    0.0
2188 439230.000   2248126.8261    865685.8165   5886424.5649   6   6   0.0521   0.0462   0.1050   0.0239   0.0340  -0.0291   0.00    0.0
2188 439260.000   2248126.8208    865685.8128   5886424.5761   6   8   0.0489   0.0440   0.0905   0.0217   0.0223  -0.0297   0.00    0.0
2188 439290.000   2248126.8133    865685.8082   5886424.5222   6   5   0.1041   0.0677   0.3257   0.0712   0.1284   0.1651   0.00    0.0
2188 439320.000   2248126.8100    865685.7937   5886424.4942   6   5   0.1055   0.0693   0.3371   0.0732   0.1333   0.1699   0.00    0.0
2188 439350.000   2248126.8179    865685.8104   5886424.5843   6   8   0.0476   0.0439   0.0888   0.0220   0.0224  -0.0279   0.00    0.0
2188 439380.000   2248126.8180    865685.8115   5886424.5860   6   7   0.0497   0.0438   0.0887   0.0225   0.0218  -0.0308   0.00    0.0
2188 439410.000   2248126.8143    865685.8109   5886424.5935   6   8   0.0464   0.0436   0.0862   0.0222   0.0223  -0.0251   0.00    0.0
2188 439440.000   2248126.8020    865685.8035   5886424.5681   6   7   0.0458   0.0455   0.1003   0.0222   0.0347  -0.0227   0.00    0.0
2188 439470.000   2248126.7978    865685.8017   5886424.5545   6   6   0.0468   0.0473   0.1454   0.0255   0.0507   0.0278   0.00    0.0
2188 439500.000   2248126.8019    865685.8121   5886424.6000   6   8   0.0451   0.0435   0.0826   0.0224   0.0221  -0.0205   0.00    0.0
2188 439530.000   2248126.8044    865685.8132   5886424.6104   6   8   0.0445   0.0434   0.0811   0.0224   0.0220  -0.0184   0.00    0.0
2188 439560.000   2248126.8258    865685.8197   5886424.6620   6   5   0.1212   0.0864   0.4420   0.0938   0.1814   0.2187   0.00    0.0
2188 439590.000   2248126.7981    865685.7969   5886424.5644   6   6   0.0457   0.0481   0.1575   0.0272   0.0572   0.0378   0.00    0.0
2188 439620.000   2248126.8074    865685.8058   5886424.6089   6   6   0.0502   0.0432   0.0890   0.0236   0.0231   0.0106   0.00    0.0
2188 439650.000   2248126.7874    865685.7931   5886424.5620   6   6   0.0455   0.0490   0.1675   0.0282   0.0620   0.0426   0.00    0.0
2188 439680.000   2248126.8025    865685.8085   5886424.6324   6   6   0.0498   0.0431   0.0893   0.0238   0.0239   0.0127   0.00    0.0
2188 439710.000   2248126.8094    865685.8056   5886424.6268   6   6   0.0495   0.0431   0.0893   0.0239   0.0244   0.0142   0.00    0.0
2188 439740.000   2248126.8101    865685.8063   5886424.6231   6   6   0.0493   0.0430   0.0893   0.0240   0.0247   0.0155   0.00    0.0
2188 439770.000   2248126.8086    865685.8033   5886424.6118   6   6   0.1410   0.1109   0.5842   0.1187   0.2442   0.2767   0.00    0.0
2188 439800.000   2248126.7976    865685.8071   5886424.6346   6   8   0.0425   0.0429   0.0894   0.0237   0.0257   0.0210   0.00    0.0
2188 439830.000   2248126.7982    865685.8054   5886424.6475   6   7   0.0422   0.0429   0.0885   0.0238   0.0260   0.0238   0.00    0.0
2188 439860.000   2248126.7927    865685.8058   5886424.6451   6   7   0.0419   0.0428   0.0878   0.0240   0.0264   0.0257   0.00    0.0
2188 439890.000   2248126.7896    865685.8060   5886424.6542   6   7   0.0416   0.0428   0.0873   0.0242   0.0267   0.0272   0.00    0.0
2188 439920.000   2248126.7831    865685.8048   5886424.6349   6   8   0.0406   0.0427   0.0825   0.0243   0.0270   0.0244   0.00    0.0
2188 439950.000   2248126.7872    865685.8092   5886424.6563   6   8   0.0401   0.0427   0.0806   0.0244   0.0271   0.0244   0.00    0.0
2188 439980.000   2248126.7848    865685.8122   5886424.6591   6   7   0.0409   0.0426   0.0865   0.0247   0.0275   0.0309   0.00    0.0
2188 440010.000   2248126.7805    865685.8106   5886424.6652   6   8   0.0395   0.0426   0.0787   0.0247   0.0274   0.0257   0.00    0.0
2188 440040.000   2248126.7849    865685.8059   5886424.6737   6   7   0.0416   0.0426   0.0805   0.0249   0.0274   0.0201   0.00    0.0
2188 440070.000   2248126.7851    865685.8069   5886424.6868   6   8   0.0391   0.0425   0.0772   0.0250   0.0278   0.0264   0.00    0.0
2188 440100.000   2248126.7790    865685.8077   5886424.6803   6   7   0.0405   0.0424   0.0867   0.0253   0.0285   0.0343   0.00    0.0
2188 440130.000   2248126.7681    865685.8029   5886424.6741   6   8   0.0387   0.0425   0.0760   0.0252   0.0277   0.0275   0.00    0.0
2188 440160.000   2248126.7729    865685.8035   5886424.6665   6   8   0.0385   0.0424   0.0754   0.0253   0.0278   0.0278   0.00    0.0
2188 440190.000   2248126.7720    865685.8046   5886424.6771   6   8   0.0383   0.0423   0.0748   0.0255   0.0278   0.0282   0.00    0.0
2188 440220.000   2248126.7720    865685.8042   5886424.6892   6   7   0.0402   0.0422   0.0871   0.0261   0.0292   0.0372   0.00    0.0
2188 440250.000   2248126.7717    865685.8046   5886424.6905   6   6   0.0437   0.0422   0.0879   0.0262   0.0293   0.0354   0.00    0.0
2188 440280.000   2248126.7663    865685.8020   5886424.6766   6   8   0.0379   0.0422   0.0738   0.0258   0.0276   0.0291   0.00    0.0
2188 440310.000   2248126.7701    865685.8065   5886424.6902   6   8   0.0378   0.0420   0.0733   0.0258   0.0276   0.0295   0.00    0.0
2188 440340.000   2248126.7625    865685.7995   5886424.6782   6   8   0.0377   0.0420   0.0729   0.0259   0.0274   0.0297   0.00    0.0
2188 440370.000   2248126.7684    865685.8039   5886424.6800   6   8   0.0377   0.0419   0.0725   0.0260   0.0273   0.0300   0.00    0.0
2188 440400.000   2248126.7760    865685.8066   5886424.6895   6   7   0.0401   0.0419   0.0885   0.0269   0.0300   0.0406   0.00    0.0
2188 440430.000   2248126.7741    865685.8054   5886424.7014   6   8   0.0374   0.0417   0.0716   0.0261   0.0271   0.0304   0.00    0.0
2188 440460.000   2248126.7693    865685.8089   5886424.7093   6   8   0.0373   0.0416   0.0713   0.0260   0.0269   0.0306   0.00    0.0
2188 440490.000   2248126.7640    865685.8086   5886424.7000   6   6   0.0428   0.0417   0.0912   0.0270   0.0303   0.0386   0.00    0.0
2188 440520.000   2248126.7601    865685.8050   5886424.6856   6   7   0.0403   0.0417   0.0897   0.0274   0.0303   0.0425   0.00    0.0
2188 440550.000   2248126.7692    865685.8077   5886424.7003   6   7   0.0426   0.0416   0.0926   0.0272   0.0307   0.0393   0.00    0.0
2188 440580.000   2248126.7675    865685.8045   5886424.6934   6   8   0.0400   0.0414   0.0890   0.0271   0.0296   0.0423   0.00    0.0
2188 440610.000   2248126.7680    865685.8103   5886424.7035   6   8   0.0399   0.0413   0.0885   0.0271   0.0292   0.0423   0.00    0.0
2188 440640.000   2248126.7710    865685.8151   5886424.7147   6   7   0.0482   0.0549   0.2170   0.0415   0.0896   0.0847   0.00    0.0
2188 440670.000   2248126.7764    865685.8073   5886424.7092   6   8   0.0398   0.0411   0.0881   0.0273   0.0288   0.0426   0.00    0.0
2188 440700.000   2248126.7626    865685.8018   5886424.6773   6   8   0.0398   0.0409   0.0880   0.0272   0.0286   0.0428   0.00    0.0
2188 440730.000   2248126.7622    865685.8050   5886424.6877   6   8   0.0398   0.0408   0.0880   0.0271   0.0284   0.0429   0.00    0.0
2188 440760.000   2248126.7612    865685.8085   5886424.6892   6   8   0.0398   0.0408   0.0879   0.0272   0.0282   0.0431   0.00    0.0
2188 440790.000   2248126.7659    865685.8042   5886424.7052   6   8   0.0398   0.0407   0.0878   0.0272   0.0281   0.0432   0.00    0.0
2188 440820.000   2248126.7710    865685.8018   5886424.7130   6   8   0.0398   0.0406   0.0877   0.0272   0.0278   0.0433   0.00    0.0
2188 440850.000   2248126.7712    865685.7988   5886424.6921   6   9   0.0398   0.0405   0.0876   0.0274   0.0276   0.0433   0.00    0.0
2188 440880.000   2248126.7681    865685.7950   5886424.6966   6   8   0.0398   0.0404   0.0875   0.0272   0.0274   0.0435   0.00    0.0
2188 440910.000   2248126.7636    865685.7925   5886424.7003   6   7   0.0409   0.0404   0.0960   0.0269   0.0287   0.0390   0.00    0.0
2188 440940.000   2248126.7670    865685.7942   5886424.6961   6   9   0.0383   0.0401   0.0777   0.0268   0.0253   0.0385   0.00    0.0
2188 440970.000   2248126.7669    865685.7946   5886424.6952   6   8   0.0397   0.0401   0.0873   0.0272   0.0268   0.0437   0.00    0.0
2188 441000.000   2248126.7711    865685.7988   5886424.6968   6   8   0.0397   0.0400   0.0871   0.0272   0.0265   0.0437   0.00    0.0
2188 441030.000   2248126.7658    865685.7971   5886424.6862   6   9   0.0376   0.0399   0.0732   0.0265   0.0236   0.0363   0.00    0.0
2188 441060.000   2248126.7684    865685.7970   5886424.7132   6   8   0.0396   0.0398   0.0866   0.0270   0.0260   0.0437   0.00    0.0
2188 441090.000   2248126.7791    865685.7963   5886424.7307   6   8   0.0396   0.0398   0.0864   0.0271   0.0257   0.0436   0.00    0.0
2188 441120.000   2248126.7698    865685.8001   5886424.7065   6   8   0.0396   0.0397   0.0862   0.0269   0.0254   0.0436   0.00    0.0
2188 441150.000   2248126.7744    865685.7905   5886424.6848   6   8   0.0395   0.0396   0.0859   0.0269   0.0250   0.0435   0.00    0.0
2188 441180.000   2248126.7655    865685.7947   5886424.6882   6   9   0.0369   0.0393   0.0695   0.0260   0.0213   0.0347   0.00    0.0
2188 441210.000   2248126.7623    865685.7930   5886424.6685   6   8   0.0393   0.0394   0.0853   0.0268   0.0245   0.0433   0.00    0.0
2188 441240.000   2248126.7662    865685.7946   5886424.6757   6   8   0.0393   0.0392   0.0849   0.0267   0.0242   0.0432   0.00    0.0
2188 441270.000   2248126.7577    865685.7948   5886424.6647   6   8   0.0393   0.0391   0.0845   0.0267   0.0239   0.0430   0.00    0.0
2188 441300.000   2248126.7656    865685.7945   5886424.6737   6   8   0.0392   0.0391   0.0842   0.0267   0.0236   0.0428   0.00    0.0
2188 441330.000   2248126.7665    865685.7975   5886424.6634   6   8   0.0390   0.0389   0.0837   0.0265   0.0232   0.0426   0.00    0.0
2188 441360.000   2248126.7628    865685.7929   5886424.6561   6   8   0.0391   0.0388   0.0834   0.0264   0.0228   0.0425   0.00    0.0
2188 441390.000   2248126.7565    865685.7922   5886424.6459   6   9   0.0389   0.0387   0.0829   0.0263   0.0226   0.0423   0.00    0.0
2188 441420.000   2248126.7612    865685.7899   5886424.6536   6   8   0.0388   0.0385   0.0824   0.0261   0.0223   0.0421   0.00    0.0
2188 441450.000   2248126.7544    865685.7978   5886424.6662   6   8   0.0387   0.0385   0.0820   0.0261   0.0219   0.0418   0.00    0.0
2188 441480.000   2248126.7613    865685.7989   5886424.6630   6   9   0.0371   0.0383   0.0716   0.0254   0.0191   0.0363   0.00    0.0
2188 441510.000   2248126.7628    865685.7995   5886424.6768   6   8   0.0385   0.0381   0.0810   0.0258   0.0213   0.0414   0.00    0.0
2188 441540.000   2248126.7552    865685.7994   5886424.6675   6   9   0.0364   0.0381   0.0671   0.0250   0.0174   0.0339   0.00    0.0
2188 441570.000   2248126.7609    865685.8061   5886424.6648   6   8   0.0383   0.0381   0.0799   0.0256   0.0205   0.0409   0.00    0.0
2188 441600.000   2248126.7544    865685.8002   5886424.6582   6   8   0.0381   0.0380   0.0794   0.0256   0.0202   0.0405   0.00    0.0
2188 441630.000   2248126.7524    865685.7988   5886424.6634   6   8   0.0380   0.0379   0.0788   0.0255   0.0198   0.0403   0.00    0.0
2188 441660.000   2248126.7559    865685.7992   5886424.6701   6   8   0.0378   0.0378   0.0782   0.0254   0.0196   0.0399   0.00    0.0
2188 441690.000   2248126.7487    865685.7982   5886424.6468   6   6   0.0449   0.0395   0.1883   0.0300  -0.0310  -0.0480   0.00    0.0
2188 441720.000   2248126.7530    865685.7981   5886424.6464   6   8   0.0377   0.0376   0.0771   0.0252   0.0189   0.0394   0.00    0.0
2188 441750.000   2248126.7563    865685.8030   5886424.6620   6   8   0.0375   0.0375   0.0765   0.0250   0.0185   0.0390   0.00    0.0
2188 441780.000   2248126.7574    865685.8032   5886424.6540   6   8   0.0374   0.0373   0.0759   0.0250   0.0183   0.0387   0.00    0.0
2188 441810.000   2248126.7535    865685.8046   5886424.6550   6   9   0.0372   0.0372   0.0752   0.0250   0.0179   0.0383   0.00    0.0
2188 441840.000   2248126.7563    865685.8029   5886424.6517   6   8   0.0360   0.0370   0.0673   0.0242   0.0143   0.0340   0.00    0.0
2188 441870.000   2248126.7476    865685.8018   5886424.6409   6   7   0.0356   0.0378   0.0632   0.0248   0.0136   0.0316   0.00    0.0
2188 441900.000   2248126.7488    865685.8044   5886424.6340   6   7   0.0374   0.0370   0.0762   0.0246   0.0167   0.0390   0.00    0.0
2188 441930.000   2248126.7590    865685.8042   5886424.6653   6   8   0.0348   0.0367   0.0607   0.0237   0.0115   0.0300   0.00    0.0
2188 441960.000   2248126.7611    865685.8056   5886424.6465   6   7   0.0371   0.0367   0.0745   0.0244   0.0162   0.0381   0.00    0.0
2188 441990.000   2248126.7665    865685.8002   5886424.6757   6   7   0.0369   0.0365   0.0737   0.0244   0.0162   0.0376   0.00    0.0
2188 442020.000   2248126.7540    865685.7965   5886424.6593   6   8   0.0343   0.0363   0.0582   0.0234   0.0109   0.0284   0.00    0.0
2188 442050.000   2248126.7616    865685.7981   5886424.6622   6   7   0.0366   0.0364   0.0720   0.0243   0.0157   0.0367   0.00    0.0
2188 442080.000   2248126.7694    865685.7954   5886424.6908   6   7   0.0364   0.0363   0.0712   0.0242   0.0156   0.0363   0.00    0.0
2188 442110.000   2248126.7608    865685.8018   5886424.6550   6   8   0.0339   0.0360   0.0563   0.0232   0.0101   0.0271   0.00    0.0
2188 442140.000   2248126.7640    865685.7982   5886424.6553   6   7   0.0361   0.0361   0.0696   0.0240   0.0154   0.0354   0.00    0.0
2188 442170.000   2248126.7580    865685.7980   5886424.6505   6   8   0.0336   0.0357   0.0550   0.0230   0.0096   0.0262   0.00    0.0
2188 442200.000   2248126.7631    865685.8001   5886424.6663   6   7   0.0358   0.0357   0.0681   0.0240   0.0149   0.0345   0.00    0.0
2188 442230.000   2248126.7689    865685.8011   5886424.6727   6   6   0.0368   0.0371   0.0700   0.0257   0.0202   0.0365   0.00    0.0
2188 442260.000   2248126.7598    865685.7981   5886424.6548   6   8   0.0333   0.0355   0.0538   0.0228   0.0091   0.0254   0.00    0.0
2188 442290.000   2248126.7589    865685.7998   5886424.6679   6   9   0.0331   0.0353   0.0531   0.0228   0.0091   0.0248   0.00    0.0
2188 442320.000   2248126.7627    865685.8058   5886424.6875   6   9   0.0331   0.0352   0.0512   0.0227   0.0073   0.0245   0.00    0.0
2188 442350.000   2248126.7607    865685.8006   5886424.6815   6   8   0.0331   0.0359   0.0503   0.0232   0.0084   0.0244   0.00    0.0
2188 442380.000   2248126.7691    865685.8027   5886424.7005   6   8   0.0349   0.0350   0.0602   0.0234   0.0117   0.0314   0.00    0.0
2188 442410.000   2248126.7623    865685.8039   5886424.6929   6   8   0.0348   0.0349   0.0593   0.0231   0.0113   0.0310   0.00    0.0
2188 442440.000   2248126.7512    865685.7991   5886424.6725   6   7   0.0358   0.0361   0.0613   0.0250   0.0175   0.0331   0.00    0.0
2188 442470.000   2248126.7541    865685.7913   5886424.6673   6   7   0.0357   0.0360   0.0606   0.0249   0.0172   0.0328   0.00    0.0
2188 442500.000   2248126.7526    865685.7998   5886424.6692   6   8   0.0345   0.0345   0.0571   0.0230   0.0105   0.0300   0.00    0.0
2188 442530.000   2248126.7552    865685.7972   5886424.6711   6   8   0.0344   0.0344   0.0564   0.0230   0.0104   0.0296   0.00    0.0
2188 442560.000   2248126.7556    865685.7955   5886424.6615   6   8   0.0343   0.0341   0.0558   0.0229   0.0102   0.0293   0.00    0.0
2188 442590.000   2248126.7618    865685.8006   5886424.6535   6   7   0.0352   0.0355   0.0582   0.0246   0.0168   0.0316   0.00    0.0
2188 442620.000   2248126.7738    865685.7991   5886424.6895   6   8   0.0341   0.0341   0.0546   0.0227   0.0097   0.0288   0.00    0.0
2188 442650.000   2248126.7704    865685.8005   5886424.6890   6   8   0.0340   0.0338   0.0540   0.0227   0.0098   0.0285   0.00    0.0
2188 442680.000   2248126.7668    865685.8036   5886424.6964   6   8   0.0339   0.0337   0.0534   0.0227   0.0095   0.0282   0.00    0.0
2188 442710.000   2248126.7672    865685.8041   5886424.6865   6   7   0.0348   0.0350   0.0560   0.0243   0.0166   0.0306   0.00    0.0
2188 442740.000   2248126.7684    865685.8031   5886424.6884   6   8   0.0337   0.0335   0.0524   0.0224   0.0093   0.0277   0.00    0.0
2188 442770.000   2248126.7652    865685.7995   5886424.6784   6   8   0.0346   0.0348   0.0551   0.0241   0.0164   0.0301   0.00    0.0
2188 442800.000   2248126.7681    865685.8036   5886424.6824   6   7   0.0345   0.0347   0.0547   0.0241   0.0162   0.0299   0.00    0.0
2188 442830.000   2248126.7633    865685.7972   5886424.6828   6   9   0.0326   0.0331   0.0481   0.0218   0.0059   0.0245   0.00    0.0
2188 442860.000   2248126.7582    865685.8011   5886424.6707   6   8   0.0334   0.0329   0.0506   0.0222   0.0086   0.0269   0.00    0.0
2188 442890.000   2248126.7536    865685.8044   5886424.6529   6   6   0.0790   0.0360   0.1841   0.0365   0.0464   0.1157   0.00    0.0
2188 442920.000   2248126.7689    865685.8004   5886424.6867   6   8   0.0332   0.0327   0.0498   0.0220   0.0086   0.0264   0.00    0.0
2188 442950.000   2248126.7707    865685.8022   5886424.6948   6   8   0.0332   0.0326   0.0494   0.0219   0.0086   0.0262   0.00    0.0
2188 442980.000   2248126.7683    865685.7998   5886424.6870   6   8   0.0331   0.0324   0.0490   0.0218   0.0083   0.0260   0.00    0.0
2188 443010.000   2248126.7529    865685.7965   5886424.6439   6   7   0.0839   0.0364   0.1940   0.0398   0.0527   0.1231   0.00    0.0
2188 443040.000   2248126.7741    865685.8009   5886424.6858   6   7   0.0338   0.0337   0.0516   0.0234   0.0157   0.0281   0.00    0.0
2188 443070.000   2248126.7717    865685.7945   5886424.7003   6   8   0.0329   0.0322   0.0480   0.0216   0.0081   0.0254   0.00    0.0
2188 443100.000   2248126.7683    865685.7943   5886424.6907   6   7   0.0336   0.0335   0.0509   0.0232   0.0157   0.0277   0.00    0.0
2188 443130.000   2248126.7666    865685.8015   5886424.6939   6   7   0.0335   0.0334   0.0506   0.0231   0.0155   0.0275   0.00    0.0
2188 443160.000   2248126.7641    865685.8000   5886424.6893   6   8   0.0326   0.0318   0.0471   0.0214   0.0076   0.0249   0.00    0.0
2188 443190.000   2248126.7645    865685.7999   5886424.6764   6   7   0.0334   0.0332   0.0500   0.0229   0.0154   0.0272   0.00    0.0
2188 443220.000   2248126.7636    865685.7990   5886424.6800   6   9   0.0325   0.0314   0.0465   0.0212   0.0075   0.0247   0.00    0.0
2188 443250.000   2248126.7634    865685.8013   5886424.6812   6   7   0.0332   0.0329   0.0494   0.0228   0.0153   0.0268   0.00    0.0
2188 443280.000   2248126.7650    865685.7948   5886424.6830   6   7   0.0331   0.0329   0.0492   0.0227   0.0151   0.0267   0.00    0.0
2188 443310.000   2248126.7603    865685.7902   5886424.6894   6   7   0.0330   0.0328   0.0489   0.0226   0.0149   0.0265   0.00    0.0
2188 443340.000   2248126.7682    865685.7969   5886424.6943   6   8   0.0323   0.0312   0.0456   0.0210   0.0070   0.0241   0.00    0.0
2188 443370.000   2248126.7623    865685.8010   5886424.6879   6   7   0.0329   0.0326   0.0484   0.0224   0.0150   0.0261   0.00    0.0
2188 443400.000   2248126.7586    865685.7958   5886424.6868   6   8   0.0321   0.0310   0.0451   0.0207   0.0067   0.0237   0.00    0.0
2188 443430.000   2248126.7691    865685.7943   5886424.6733   6   8   0.0321   0.0306   0.0449   0.0207   0.0070   0.0237   0.00    0.0
2188 443460.000   2248126.7233    865685.7814   5886424.5809   6   7   0.1011   0.0417   0.2271   0.0550   0.0782   0.1480   0.00    0.0
2188 443490.000   2248126.7659    865685.7906   5886424.6749   6   8   0.0320   0.0304   0.0446   0.0205   0.0068   0.0234   0.00    0.0
2188 443520.000   2248126.7561    865685.7877   5886424.6845   6   9   0.0318   0.0301   0.0443   0.0202   0.0065   0.0231   0.00    0.0
2188 443550.000   2248126.7591    865685.7900   5886424.6738   6   9   0.0310   0.0298   0.0423   0.0197   0.0042   0.0211   0.00    0.0
2188 443580.000   2248126.7593    865685.7843   5886424.6819   6   9   0.0306   0.0296   0.0416   0.0195   0.0035   0.0202   0.00    0.0
2188 443610.000   2248126.7636    865685.7815   5886424.6957   6   8   0.0317   0.0294   0.0439   0.0200   0.0071   0.0230   0.00    0.0
2188 443640.000   2248126.7217    865685.7684   5886424.5911   6   6   0.1020   0.0442   0.2262   0.0590   0.0845   0.1484   0.00    0.0
2188 443670.000   2248126.7573    865685.7840   5886424.6688   6   7   0.0321   0.0313   0.0463   0.0213   0.0147   0.0245   0.00    0.0
2188 443700.000   2248126.7581    865685.7820   5886424.6990   6   8   0.0315   0.0293   0.0435   0.0198   0.0058   0.0227   0.00    0.0
2188 443730.000   2248126.7588    865685.7796   5886424.7007   6   8   0.0315   0.0291   0.0434   0.0197   0.0062   0.0225   0.00    0.0
2188 443760.000   2248126.7579    865685.7835   5886424.6902   6   8   0.0315   0.0288   0.0433   0.0196   0.0059   0.0225   0.00    0.0
2188 443790.000   2248126.7588    865685.7827   5886424.6888   6   8   0.0314   0.0287   0.0432   0.0194   0.0065   0.0224   0.00    0.0
2188 443820.000   2248126.7305    865685.7688   5886424.6319   6   6   0.0973   0.0458   0.2133   0.0596   0.0854   0.1405   0.00    0.0
2188 443850.000   2248126.7537    865685.7796   5886424.6847   6   9   0.0313   0.0286   0.0430   0.0193   0.0059   0.0221   0.00    0.0
2188 443880.000   2248126.7598    865685.7821   5886424.6809   6  10   0.0310   0.0283   0.0428   0.0190   0.0061   0.0219   0.00    0.0
2188 443910.000   2248126.7512    865685.7789   5886424.6834   6   9   0.0310   0.0280   0.0427   0.0188   0.0049   0.0216   0.00    0.0
2188 443940.000   2248126.7583    865685.7821   5886424.6841   6   8   0.0311   0.0301   0.0447   0.0199   0.0135   0.0227   0.00    0.0
2188 443970.000   2248126.7581    865685.7798   5886424.6836   6   9   0.0308   0.0278   0.0425   0.0185   0.0046   0.0214   0.00    0.0
2188 444000.000   2248126.7583    865685.7790   5886424.6755   6   9   0.0307   0.0275   0.0425   0.0183   0.0043   0.0212   0.00    0.0
2188 444030.000   2248126.7669    865685.7733   5886424.6912   6   7   0.0690   0.0391   0.1492   0.0440   0.0614   0.0964   0.00    0.0
2188 444060.000   2248126.7586    865685.7759   5886424.6762   6   9   0.0305   0.0275   0.0424   0.0181   0.0022   0.0211   0.00    0.0
2188 444090.000   2248126.7643    865685.7818   5886424.6895   6   7   0.0665   0.0388   0.1436   0.0429   0.0598   0.0925   0.00    0.0
2188 444120.000   2248126.7604    865685.7778   5886424.6662   6   9   0.0304   0.0272   0.0423   0.0179   0.0026   0.0207   0.00    0.0
2188 444150.000   2248126.7597    865685.7827   5886424.6764   6   9   0.0302   0.0270   0.0423   0.0177   0.0014   0.0206   0.00    0.0
2188 444180.000   2248126.7647    865685.7804   5886424.6893   6   9   0.0302   0.0268   0.0423   0.0176  -0.0010   0.0205   0.00    0.0
2188 444210.000   2248126.7610    865685.7807   5886424.6820   6   9   0.0301   0.0266   0.0423   0.0175  -0.0018   0.0204   0.00    0.0
2188 444240.000   2248126.7626    865685.7855   5886424.6796   6   9   0.0300   0.0265   0.0423   0.0173  -0.0016   0.0203   0.00    0.0
2188 444270.000   2248126.7625    865685.7858   5886424.6742   6   9   0.0300   0.0264   0.0424   0.0172  -0.0035   0.0202   0.00    0.0
2188 444300.000   2248126.7695    865685.7910   5886424.6864   6   9   0.0299   0.0262   0.0423   0.0171  -0.0031   0.0201   0.00    0.0
2188 444330.000   2248126.7720    865685.7960   5886424.6943   6   9   0.0298   0.0261   0.0424   0.0168  -0.0037   0.0199   0.00    0.0
2188 444360.000   2248126.7784    865685.7953   5886424.6810   6   9   0.0297   0.0259   0.0424   0.0167  -0.0040   0.0198   0.00    0.0
2188 444390.000   2248126.7714    865685.7880   5886424.6725   6   7   0.0563   0.0380   0.1207   0.0385   0.0539   0.0761   0.00    0.0
2188 444420.000   2248126.7680    865685.7907   5886424.6878   6   9   0.0297   0.0288   0.0440   0.0172   0.0108   0.0202   0.00    0.0
2188 444450.000   2248126.7672    865685.7858   5886424.6882   6   9   0.0296   0.0258   0.0426   0.0165  -0.0055   0.0195   0.00    0.0
2188 444480.000   2248126.7662    865685.7835   5886424.6931   6   9   0.0295   0.0257   0.0427   0.0163  -0.0053   0.0194   0.00    0.0
2188 444510.000   2248126.7737    865685.7881   5886424.7000   6   8   0.0356   0.0255   0.0586   0.0164  -0.0049   0.0343   0.00    0.0
2188 444540.000   2248126.7699    865685.7875   5886424.6918   6  10   0.0287   0.0253   0.0425   0.0154  -0.0078   0.0184   0.00    0.0
2188 444570.000   2248126.7668    865685.7911   5886424.6830   6   9   0.0293   0.0254   0.0430   0.0159  -0.0066   0.0193   0.00    0.0
2188 444600.000   2248126.7705    865685.7944   5886424.6813   6  10   0.0282   0.0250   0.0426   0.0150  -0.0082   0.0178   0.00    0.0
2188 444630.000   2248126.7790    865685.8021   5886424.6978   6   7   0.0504   0.0378   0.1084   0.0357   0.0505   0.0665   0.00    0.0
2188 444660.000   2248126.7789    865685.7925   5886424.6957   6   7   0.0498   0.0379   0.1072   0.0354   0.0502   0.0656   0.00    0.0
2188 444690.000   2248126.7722    865685.7920   5886424.6844   6   8   0.0351   0.0251   0.0584   0.0160  -0.0055   0.0335   0.00    0.0
2188 444720.000   2248126.7759    865685.7903   5886424.6790   6   8   0.0350   0.0251   0.0584   0.0160  -0.0055   0.0334   0.00    0.0
2188 444750.000   2248126.7835    865685.7904   5886424.6915   6   8   0.0350   0.0250   0.0585   0.0160  -0.0053   0.0333   0.00    0.0
2188 444780.000   2248126.7756    865685.7905   5886424.6941   6   8   0.0349   0.0250   0.0586   0.0160  -0.0054   0.0332   0.00    0.0
2188 444810.000   2248126.7728    865685.7945   5886424.6780   6   9   0.0349   0.0249   0.0587   0.0159  -0.0050   0.0331   0.00    0.0
2188 444840.000   2248126.7779    865685.7964   5886424.6816   6   9   0.0322   0.0247   0.0552   0.0150  -0.0086   0.0288   0.00    0.0
