% program   : RTKLIB ver.demo5 b34j
% inp file  : E:\GAMPII-GOOD\dataset_Win\obs\2021\351\MGEX\daily\kir83510.21o
% inp file  : E:\Navigation_Learn\GNSS\RTKLIB-b34k\data\data_IGM-A1_Vehicle_open_20211217-nsh\wum21885.sp3
% inp file  : E:\Navigation_Learn\GNSS\RTKLIB-b34k\data\data_IGM-A1_Vehicle_open_20211217-nsh\wum21885.clk
% inp file  : E:\Navigation_Learn\GNSS\RTKLIB-b34k\data\data_IGM-A1_Vehicle_open_20211217-nsh\CAS0MGXRAP_20213510000_01D_01D_DCB.BSX
% obs start : 2021/12/17 00:00:00.0 GPST (week2188 432000.0s)
% obs end   : 2021/12/17 23:59:30.0 GPST (week2188 518370.0s)
% pos mode  : PPP Kinematic
% solution  : Forward
% elev mask : 7.0 deg
% dynamics  : off
% tidecorr  : on
% tropo opt : Estimate ZTD
% ephemeris : Precise
% navi sys  : BDS
% antenna1  : LEIAR25.R3      LEIT  ( 0.0000  0.0000  0.0030)
%
% (x/y/z-ecef=WGS84,Q=1:fix,2:float,3:sbas,4:dgps,5:single,6:ppp,ns=# of satellites)
%  GPST              x-ecef(m)      y-ecef(m)      z-ecef(m)   Q  ns   sdx(m)   sdy(m)   sdz(m)  sdxy(m)  sdyz(m)  sdzx(m) age(s)  ratio
2188 432000.000   2248130.5719    865687.2053   5886412.3366   6   6   2.2643   2.8223   6.0476  -1.0821   3.3820  -2.0443   0.00    0.0
2188 432030.000   2248130.1507    865687.1723   5886412.4854   6   6   1.5991   1.9518   4.1392  -0.7314   2.2931  -1.3728   0.00    0.0
2188 432060.000   2248129.5007    865688.5036   5886414.8777   6   6   1.2903   1.3978   2.9462  -0.4495   1.4963  -0.9303   0.00    0.0
2188 432090.000   2248129.2794    865688.8085   5886415.9249   6   6   1.1135   1.2072   2.5099  -0.3691   1.2725  -0.7498   0.00    0.0
2188 432120.000   2248128.9412    865688.9933   5886416.5296   6   6   0.9906   1.0650   2.1898  -0.2984   1.0955  -0.6060   0.00    0.0
2188 432150.000   2248128.7085    865689.4438   5886417.2150   6   7   0.8980   0.9206   1.8914  -0.2138   0.8913  -0.4684   0.00    0.0
2188 432180.000   2248128.4414    865689.6466   5886417.6963   6   7   0.8258   0.8178   1.6779  -0.1450   0.7466  -0.3582   0.00    0.0
2188 432210.000   2248128.4522    865689.8698   5886417.9293   6   7   0.7674   0.7380   1.5081  -0.0699   0.6309  -0.2568   0.00    0.0
2188 432240.000   2248128.2799    865690.1358   5886418.2589   6   6   0.7212   0.6764   1.3698   0.0632   0.5373  -0.1452   0.00    0.0
2188 432270.000   2248128.2611    865690.1798   5886418.2609   6   5   0.6817   0.6333   1.2647   0.1020   0.4743   0.1099   0.00    0.0
2188 432300.000   2248128.2311    865690.2821   5886418.5243   6   6   0.6476   0.5888   1.1664   0.1248   0.4034   0.1932   0.00    0.0
2188 432330.000   2248128.1067    865690.3861   5886418.7076   6   5   0.6178   0.5563   1.0892   0.1391   0.3533   0.2366   0.00    0.0
2188 432360.000   2248128.0222    865690.5089   5886418.9316   6   6   0.5916   0.5234   1.0190   0.1474   0.2987   0.2629   0.00    0.0
2188 432390.000   2248127.8296    865690.5333   5886418.9274   6   6   0.5683   0.4951   0.9595   0.1522   0.2508   0.2800   0.00    0.0
2188 432420.000   2248127.8012    865690.6038   5886419.0552   6   6   0.5476   0.4706   0.9086   0.1548   0.2076   0.2912   0.00    0.0
2188 432450.000   2248127.7192    865690.6808   5886419.1429   6   6   0.5289   0.4490   0.8644   0.1558   0.1674   0.2986   0.00    0.0
2188 432480.000   2248127.6907    865690.7228   5886419.1305   6   6   0.5119   0.4297   0.8258   0.1558   0.1278   0.3032   0.00    0.0
2188 432510.000   2248127.6633    865690.7492   5886419.0723   6   5   0.4966   0.4141   0.7924   0.1563   0.0920   0.3065   0.00    0.0
2188 432540.000   2248127.6277    865690.7757   5886418.9342   6   6   0.4825   0.3983   0.7618   0.1549   0.0305   0.3078   0.00    0.0
2188 432570.000   2248127.6162    865690.8155   5886418.8941   6   6   0.4695   0.3839   0.7342   0.1533  -0.0713   0.3081   0.00    0.0
2188 432600.000   2248127.5327    865690.8552   5886418.8197   6   6   0.4575   0.3707   0.7093   0.1514  -0.0996   0.3076   0.00    0.0
2188 432630.000   2248127.4542    865690.9203   5886418.7636   6   6   0.4464   0.3585   0.6866   0.1493  -0.1177   0.3065   0.00    0.0
2188 432660.000   2248127.3928    865690.9671   5886418.6314   6   6   0.4361   0.3473   0.6658   0.1472  -0.1306   0.3051   0.00    0.0
2188 432690.000   2248127.3688    865691.0100   5886418.5598   6   6   0.4264   0.3368   0.6467   0.1450  -0.1402   0.3034   0.00    0.0
2188 432720.000   2248127.3782    865691.0445   5886418.5046   6   6   0.4174   0.3270   0.6290   0.1428  -0.1477   0.3014   0.00    0.0
2188 432750.000   2248127.3398    865691.0591   5886418.4343   6   6   0.4089   0.3179   0.6125   0.1406  -0.1535   0.2992   0.00    0.0
2188 432780.000   2248127.3597    865691.0911   5886418.4353   6   6   0.4009   0.3093   0.5973   0.1384  -0.1582   0.2969   0.00    0.0
2188 432810.000   2248127.3735    865691.1350   5886418.4370   6   6   0.3934   0.3012   0.5830   0.1362  -0.1618   0.2945   0.00    0.0
2188 432840.000   2248127.3980    865691.1736   5886418.3479   6   6   0.3862   0.2936   0.5697   0.1341  -0.1647   0.2921   0.00    0.0
2188 432870.000   2248127.4023    865691.1577   5886418.2996   6   6   0.3795   0.2864   0.5572   0.1320  -0.1670   0.2895   0.00    0.0
2188 432900.000   2248127.3917    865691.1743   5886418.2464   6   6   0.3730   0.2795   0.5454   0.1300  -0.1687   0.2870   0.00    0.0
2188 432930.000   2248127.3990    865691.1680   5886418.1882   6   6   0.3669   0.2730   0.5343   0.1280  -0.1701   0.2845   0.00    0.0
2188 432960.000   2248127.4103    865691.1634   5886418.1590   6   6   0.3611   0.2668   0.5239   0.1261  -0.1710   0.2819   0.00    0.0
2188 432990.000   2248127.4048    865691.1746   5886418.0415   6   6   0.3555   0.2609   0.5140   0.1242  -0.1717   0.2793   0.00    0.0
2188 433020.000   2248127.4303    865691.1720   5886417.9528   6   6   0.3502   0.2553   0.5047   0.1224  -0.1720   0.2768   0.00    0.0
2188 433050.000   2248127.4245    865691.1704   5886417.9102   6   6   0.3451   0.2499   0.4958   0.1207  -0.1722   0.2742   0.00    0.0
2188 433080.000   2248127.4140    865691.1659   5886417.8792   6   6   0.3401   0.2447   0.4874   0.1190  -0.1721   0.2717   0.00    0.0
2188 433110.000   2248127.4108    865691.1354   5886417.8384   6   6   0.3354   0.2397   0.4794   0.1174  -0.1719   0.2691   0.00    0.0
2188 433140.000   2248127.3925    865691.1380   5886417.7554   6   6   0.3309   0.2350   0.4718   0.1159  -0.1715   0.2666   0.00    0.0
2188 433170.000   2248127.4225    865691.1366   5886417.6636   6   6   0.3265   0.2304   0.4645   0.1144  -0.1710   0.2641   0.00    0.0
2188 433200.000   2248127.4035    865691.1422   5886417.5767   6   6   0.3223   0.2260   0.4575   0.1129  -0.1703   0.2617   0.00    0.0
2188 433230.000   2248127.3883    865691.1422   5886417.4875   6   6   0.3182   0.2217   0.4508   0.1116  -0.1695   0.2592   0.00    0.0
2188 433260.000   2248127.3991    865691.1315   5886417.4263   6   6   0.3143   0.2176   0.4444   0.1103  -0.1687   0.2568   0.00    0.0
2188 433290.000   2248127.3880    865691.1348   5886417.3568   6   6   0.3105   0.2136   0.4382   0.1090  -0.1677   0.2543   0.00    0.0
2188 433320.000   2248127.3830    865691.1401   5886417.2652   6   6   0.3068   0.2098   0.4323   0.1078  -0.1667   0.2519   0.00    0.0
2188 433350.000   2248127.3491    865691.1254   5886417.1928   6   6   0.3032   0.2060   0.4266   0.1067  -0.1656   0.2495   0.00    0.0
2188 433380.000   2248127.2998    865691.0869   5886417.0709   6   4   0.3004   0.2037   0.4253   0.1077  -0.1619   0.2486   0.00    0.0
2188 433410.000   2248127.2457    865691.0866   5886416.9790   6   4   0.2975   0.2017   0.4230   0.1068  -0.1598   0.2465   0.00    0.0
2188 433440.000   2248127.2047    865691.0651   5886416.8276   6   4   0.2948   0.1997   0.4208   0.1060  -0.1577   0.2444   0.00    0.0
2188 433470.000   2248127.1873    865691.0708   5886416.6956   6   4   0.2921   0.1978   0.4187   0.1051  -0.1556   0.2425   0.00    0.0
2188 433500.000   2248127.1682    865691.0567   5886416.5773   6   4   0.2894   0.1959   0.4167   0.1043  -0.1536   0.2406   0.00    0.0
2188 433530.000   2248127.1328    865691.0594   5886416.4892   6   4   0.2869   0.1941   0.4147   0.1035  -0.1517   0.2387   0.00    0.0
2188 433560.000   2248127.0957    865691.0517   5886416.3184   6   4   0.2844   0.1922   0.4129   0.1027  -0.1498   0.2369   0.00    0.0
2188 433590.000   2248127.0449    865691.0413   5886416.2230   6   4   0.2819   0.1905   0.4111   0.1020  -0.1479   0.2351   0.00    0.0
2188 433620.000   2248127.0191    865691.0443   5886416.1382   6   4   0.2795   0.1888   0.4094   0.1012  -0.1461   0.2334   0.00    0.0
2188 433650.000   2248126.9532    865691.0190   5886416.0163   6   4   0.2772   0.1871   0.4078   0.1005  -0.1443   0.2318   0.00    0.0
2188 433680.000   2248126.9314    865691.0134   5886415.9097   6   4   0.2749   0.1854   0.4062   0.0997  -0.1425   0.2302   0.00    0.0
2188 433710.000   2248126.9111    865690.9906   5886415.8115   6   4   0.2727   0.1838   0.4048   0.0990  -0.1408   0.2286   0.00    0.0
2188 433740.000   2248126.9093    865690.9741   5886415.7338   6   4   0.2705   0.1822   0.4034   0.0983  -0.1391   0.2271   0.00    0.0
2188 433770.000   2248126.8876    865690.9705   5886415.6036   6   4   0.2683   0.1806   0.4020   0.0976  -0.1375   0.2256   0.00    0.0
2188 433800.000   2248126.8619    865690.9671   5886415.5197   6   4   0.2662   0.1791   0.4008   0.0969  -0.1359   0.2242   0.00    0.0
2188 433830.000   2248126.8467    865690.9742   5886415.4195   6   4   0.2642   0.1776   0.3996   0.0962  -0.1343   0.2228   0.00    0.0
2188 433860.000   2248126.8223    865690.9748   5886415.2758   6   4   0.2622   0.1761   0.3985   0.0956  -0.1327   0.2214   0.00    0.0
2188 433890.000   2248126.8165    865690.9652   5886415.1658   6   4   0.2602   0.1747   0.3974   0.0949  -0.1312   0.2201   0.00    0.0
2188 433920.000   2248126.7880    865690.9628   5886415.0267   6   4   0.2583   0.1733   0.3964   0.0943  -0.1297   0.2188   0.00    0.0
2188 433950.000   2248126.7689    865690.9779   5886414.9094   6   4   0.2564   0.1719   0.3954   0.0936  -0.1283   0.2175   0.00    0.0
2188 433980.000   2248126.7606    865690.9515   5886414.7832   6   4   0.2546   0.1706   0.3946   0.0930  -0.1268   0.2163   0.00    0.0
2188 434010.000   2248126.7242    865690.9505   5886414.6711   6   4   0.2528   0.1692   0.3937   0.0924  -0.1254   0.2151   0.00    0.0
2188 434040.000   2248126.7161    865690.9431   5886414.5586   6   4   0.2510   0.1679   0.3930   0.0917  -0.1241   0.2140   0.00    0.0
2188 434070.000   2248126.6940    865690.9279   5886414.4431   6   4   0.2493   0.1666   0.3923   0.0911  -0.1227   0.2128   0.00    0.0
2188 434100.000   2248126.6614    865690.9014   5886414.3371   6   4   0.2476   0.1654   0.3916   0.0905  -0.1214   0.2117   0.00    0.0
2188 434130.000   2248126.6394    865690.8906   5886414.2409   6   4   0.2459   0.1641   0.3910   0.0899  -0.1201   0.2107   0.00    0.0
2188 434160.000   2248126.6204    865690.8892   5886414.1194   6   4   0.2442   0.1629   0.3904   0.0893  -0.1188   0.2096   0.00    0.0
2188 434190.000   2248126.5920    865690.8523   5886413.9780   6   4   0.2426   0.1617   0.3899   0.0888  -0.1175   0.2086   0.00    0.0
2188 434220.000   2248126.5647    865690.8439   5886413.8471   6   4   0.2411   0.1606   0.3895   0.0882  -0.1163   0.2076   0.00    0.0
2188 434250.000   2248126.5382    865690.8506   5886413.7307   6   4   0.2395   0.1594   0.3891   0.0876  -0.1151   0.2066   0.00    0.0
2188 434280.000   2248126.5095    865690.8259   5886413.5790   6   4   0.2380   0.1583   0.3888   0.0871  -0.1139   0.2057   0.00    0.0
2188 434310.000   2248126.4898    865690.8080   5886413.4358   6   4   0.2365   0.1572   0.3885   0.0865  -0.1127   0.2048   0.00    0.0
2188 434340.000   2248126.4817    865690.7857   5886413.3048   6   4   0.2350   0.1561   0.3883   0.0860  -0.1115   0.2039   0.00    0.0
2188 434370.000   2248126.4643    865690.7764   5886413.2188   6   4   0.2336   0.1550   0.3881   0.0854  -0.1104   0.2030   0.00    0.0
2188 434400.000   2248126.4581    865690.7434   5886413.0477   6   4   0.2322   0.1540   0.3879   0.0849  -0.1093   0.2021   0.00    0.0
2188 434430.000   2248126.4244    865690.7456   5886412.9005   6   4   0.2308   0.1530   0.3878   0.0844  -0.1082   0.2013   0.00    0.0
2188 434460.000   2248126.4041    865690.7302   5886412.7393   6   4   0.2294   0.1519   0.3878   0.0838  -0.1071   0.2005   0.00    0.0
2188 434490.000   2248126.3757    865690.7231   5886412.6203   6   4   0.2281   0.1509   0.3878   0.0833  -0.1061   0.1997   0.00    0.0
2188 434520.000   2248126.3552    865690.6911   5886412.4708   6   4   0.2267   0.1500   0.3879   0.0828  -0.1050   0.1990   0.00    0.0
2188 434550.000   2248126.3256    865690.6780   5886412.3489   6   4   0.2254   0.1490   0.3880   0.0823  -0.1040   0.1982   0.00    0.0
2188 434580.000   2248126.3205    865690.6674   5886412.2264   6   4   0.2242   0.1480   0.3881   0.0818  -0.1030   0.1975   0.00    0.0
2188 434610.000   2248126.2842    865690.6167   5886412.0636   6   4   0.2229   0.1471   0.3884   0.0813  -0.1020   0.1968   0.00    0.0
2188 434640.000   2248126.2748    865690.6036   5886411.9285   6   4   0.2217   0.1462   0.3886   0.0808  -0.1010   0.1961   0.00    0.0
2188 434670.000   2248126.2694    865690.5806   5886411.7963   6   4   0.2205   0.1453   0.3889   0.0803  -0.1001   0.1954   0.00    0.0
2188 434700.000   2248126.2557    865690.5653   5886411.6351   6   4   0.2193   0.1444   0.3893   0.0798  -0.0991   0.1948   0.00    0.0
2188 434730.000   2248126.2309    865690.5554   5886411.4719   6   4   0.2181   0.1435   0.3897   0.0794  -0.0982   0.1941   0.00    0.0
2188 434760.000   2248126.2181    865690.5321   5886411.2834   6   4   0.2170   0.1427   0.3901   0.0789  -0.0973   0.1935   0.00    0.0
2188 434790.000   2248126.2008    865690.5082   5886411.1562   6   4   0.2158   0.1418   0.3907   0.0784  -0.0964   0.1929   0.00    0.0
2188 434820.000   2248126.1835    865690.4775   5886410.9966   6   4   0.2147   0.1410   0.3912   0.0780  -0.0955   0.1923   0.00    0.0
2188 434850.000   2248126.1663    865690.4621   5886410.8020   6   4   0.2136   0.1402   0.3918   0.0775  -0.0947   0.1918   0.00    0.0
2188 434880.000   2248126.1484    865690.4301   5886410.6129   6   4   0.2125   0.1394   0.3925   0.0770  -0.0938   0.1912   0.00    0.0
2188 434910.000   2248126.1153    865690.4250   5886410.4534   6   4   0.2115   0.1386   0.3932   0.0766  -0.0930   0.1907   0.00    0.0
2188 434940.000   2248126.0948    865690.4168   5886410.3061   6   4   0.2104   0.1378   0.3940   0.0761  -0.0922   0.1902   0.00    0.0
2188 434970.000   2248126.0747    865690.3810   5886410.1107   6   4   0.2094   0.1371   0.3948   0.0757  -0.0913   0.1897   0.00    0.0
2188 435000.000   2248126.0656    865690.3627   5886409.9476   6   4   0.2084   0.1363   0.3957   0.0753  -0.0906   0.1892   0.00    0.0
2188 435030.000   2248126.0516    865690.3418   5886409.7439   6   5   0.2074   0.1354   0.3966   0.0747  -0.0897   0.1888   0.00    0.0
2188 435060.000   2248126.0499    865690.3125   5886409.5676   6   4   0.2064   0.1347   0.3976   0.0742  -0.0889   0.1883   0.00    0.0
2188 435090.000   2248126.0404    865690.3059   5886409.3803   6   4   0.2054   0.1340   0.3986   0.0738  -0.0881   0.1879   0.00    0.0
2188 435120.000   2248126.0322    865690.2860   5886409.2003   6   4   0.2045   0.1333   0.3997   0.0734  -0.0874   0.1875   0.00    0.0
2188 435150.000   2248126.0189    865690.2574   5886408.9806   6   4   0.2036   0.1326   0.4009   0.0730  -0.0867   0.1871   0.00    0.0
2188 435180.000   2248126.0001    865690.2447   5886408.7887   6   4   0.2026   0.1319   0.4021   0.0726  -0.0860   0.1867   0.00    0.0
2188 435210.000   2248125.9799    865690.2348   5886408.5798   6   4   0.2017   0.1312   0.4034   0.0721  -0.0853   0.1864   0.00    0.0
2188 435240.000   2248125.9562    865690.2194   5886408.3330   6   4   0.2008   0.1306   0.4047   0.0717  -0.0846   0.1860   0.00    0.0
2188 435270.000   2248125.9359    865690.2072   5886408.1318   6   4   0.2000   0.1299   0.4061   0.0713  -0.0839   0.1857   0.00    0.0
2188 435300.000   2248125.9194    865690.1862   5886407.9208   6   4   0.1991   0.1293   0.4075   0.0709  -0.0833   0.1854   0.00    0.0
2188 435330.000   2248125.8996    865690.1749   5886407.6915   6   5   0.1983   0.1284   0.4091   0.0704  -0.0824   0.1851   0.00    0.0
2188 435360.000   2248125.8770    865690.1621   5886407.4561   6   5   0.1974   0.1266   0.4103   0.0703  -0.0831   0.1850   0.00    0.0
2188 435390.000   2248125.8688    865690.1386   5886407.2416   6   5   0.1965   0.1255   0.4120   0.0700  -0.0825   0.1848   0.00    0.0
2188 435420.000   2248125.8554    865690.1174   5886406.9890   6   5   0.1957   0.1246   0.4137   0.0697  -0.0815   0.1846   0.00    0.0
2188 435450.000   2248125.8558    865690.0970   5886406.7343   6   5   0.1948   0.1237   0.4154   0.0693  -0.0804   0.1843   0.00    0.0
2188 435480.000   2248125.8655    865690.0789   5886406.5032   6   5   0.1940   0.1229   0.4171   0.0689  -0.0793   0.1839   0.00    0.0
2188 435510.000   2248125.8562    865690.0963   5886406.2763   6   4   0.1933   0.1240   0.4187   0.0674  -0.0780   0.1834   0.00    0.0
2188 435540.000   2248125.8573    865690.0393   5886406.0039   6   5   0.1923   0.1217   0.4207   0.0684  -0.0766   0.1832   0.00    0.0
2188 435570.000   2248125.8762    865690.0292   5886405.8446   6   5   0.1914   0.1209   0.4218   0.0680  -0.0757   0.1825   0.00    0.0
2188 435600.000   2248125.9023    865689.9984   5886405.6457   6   5   0.1905   0.1202   0.4227   0.0676  -0.0748   0.1817   0.00    0.0
2188 435630.000   2248125.9953    865689.9231   5886404.8093   6   4   0.1907   0.1202   0.4780   0.0655  -0.0560   0.1676   0.00    0.0
2188 435660.000   2248125.8701    865690.0172   5886405.2810   6   4   0.1893   0.1208   0.4269   0.0651  -0.0764   0.1809   0.00    0.0
2188 435690.000   2248125.8649    865689.9909   5886405.0063   6   4   0.1886   0.1202   0.4293   0.0647  -0.0760   0.1809   0.00    0.0
2188 435720.000   2248125.8501    865689.9720   5886404.7380   6   4   0.1879   0.1198   0.4319   0.0644  -0.0755   0.1808   0.00    0.0
2188 435750.000   2248125.8374    865689.9532   5886404.4482   6   4   0.1873   0.1193   0.4345   0.0640  -0.0751   0.1808   0.00    0.0
2188 435780.000   2248125.7436    865689.7113   5886403.8734   6   4   0.1892   0.1185   0.4432   0.0709  -0.0542   0.1865   0.00    0.0
2188 435810.000   2248125.7381    865689.6723   5886403.5327   6   4   0.1889   0.1181   0.4468   0.0714  -0.0498   0.1871   0.00    0.0
2188 435840.000   2248125.7354    865689.6292   5886403.1868   6   4   0.1887   0.1177   0.4505   0.0718  -0.0447   0.1877   0.00    0.0
2188 435870.000   2248126.2543    865689.5538   5886400.6166   6   4   0.1843   0.1174   0.5604   0.0649   0.0508   0.1606   0.00    0.0
2188 435900.000   2248126.2838    865689.4748   5886399.9890   6   4   0.1834   0.1172   0.5751   0.0647   0.0589   0.1589   0.00    0.0
2188 435930.000   2248125.6531    865689.4609   5886402.2550   6   4   0.1876   0.1166   0.4643   0.0726  -0.0274   0.1895   0.00    0.0
2188 435990.000   2248127.0586    865692.7228   5886404.9800   6   4   0.9302   2.1101   2.2070   1.3875   2.1311   1.4144   0.00    0.0
2188 436020.000   2248127.0380    865692.6414   5886404.5428   6   4   2.9072   6.7213   6.9317   4.4162   6.8171   4.4832   0.00    0.0
2188 436050.000   2248127.0717    865692.6996   5886404.2517   6   4   2.0423   4.7376   4.9103   3.1045   4.8109   3.1583   0.00    0.0
2188 436080.000   2248127.3384    865693.3161   5886404.5260   6   4   1.6528   3.8469   4.0078   2.5141   3.9112   2.5633   0.00    0.0
2188 436110.000   2248125.8334    865689.8314   5886400.5439   6   6   0.1820   0.1138   0.4769   0.0625  -0.0732   0.1812   0.00    0.0
2188 436140.000   2248125.8426    865689.8131   5886400.2645   6   6   0.1811   0.1122   0.4776   0.0625  -0.0750   0.1808   0.00    0.0
2188 436170.000   2248125.8521    865689.7577   5886399.8488   6   6   0.1802   0.1115   0.4828   0.0623  -0.0718   0.1803   0.00    0.0
2188 436200.000   2248125.0732    865690.4005   5886405.2095   6   4   0.3313   0.2559   2.0674  -0.2456   0.6757  -0.7260   0.00    0.0
2188 436230.000   2248126.1053    865689.5531   5886397.7446   6   5   0.1842   0.1142   0.6608   0.0497   0.0881   0.1049   0.00    0.0
2188 436260.000   2248125.9735    865689.6629   5886399.6627   6   5   0.1773   0.1098   0.4865   0.0611  -0.0740   0.1748   0.00    0.0
2188 436290.000   2248126.2366    865689.4138   5886396.4517   6   4   0.1826   0.1140   0.7130   0.0485   0.1074   0.0880   0.00    0.0
2188 436320.000   2248124.4383    865690.9550   5886410.6928   6   4   0.3260   0.2403   2.0640  -0.2352   0.6489  -0.7215   0.00    0.0
2188 436350.000   2248123.9815    865691.2796   5886414.0566   6   4   0.3301   0.2406   2.1059  -0.2381   0.6562  -0.7373   0.00    0.0
2188 436380.000   2248126.6083    865688.9331   5886391.3410   6   4   0.1815   0.1157   0.8543   0.0431   0.1544  -0.0617   0.00    0.0
2188 436410.000   2248126.7822    865688.7335   5886389.1091   6   4   0.1815   0.1168   0.9169   0.0394   0.1742  -0.1002   0.00    0.0
2188 436440.000   2248128.0148    865687.5968   5886377.4046   6   4   0.6602   0.5732   5.6364  -0.5956   1.7751  -1.8815   0.00    0.0
2188 436470.000   2248127.2921    865688.2011   5886382.6958   6   5   0.1820   0.1207   1.0497   0.0252   0.2197  -0.1586   0.00    0.0
2188 436500.000   2248127.4186    865688.0109   5886380.7332   6   5   0.1760   0.1178   0.9964   0.0423   0.2022  -0.0984   0.00    0.0
2188 436530.000   2248127.5837    865687.8146   5886379.0986   6   6   0.1735   0.1174   0.9953   0.0455   0.2038  -0.0808   0.00    0.0
2188 436560.000   2248127.5024    865687.5896   5886378.0075   6   5   0.1752   0.1180   1.0012   0.0491   0.2100  -0.0745   0.00    0.0
2188 436590.000   2248127.4809    865687.4399   5886377.2957   6   5   0.1745   0.1188   1.0067   0.0489   0.2178  -0.0669   0.00    0.0
2188 436620.000   2248127.5575    865687.7616   5886376.5110   6   4   0.1743   0.1353   1.0107   0.0559   0.2143  -0.0655   0.00    0.0
2188 436650.000   2248127.2457    865686.9984   5886374.6062   6   4   0.1746   0.1223   1.0323   0.0528   0.2393   0.0466   0.00    0.0
2188 436680.000   2248127.1376    865686.7897   5886373.2404   6   4   0.1743   0.1239   1.0452   0.0540   0.2493   0.0698   0.00    0.0
2188 436710.000   2248127.0030    865686.5614   5886371.9015   6   5   0.1738   0.1257   1.0590   0.0551   0.2595   0.0874   0.00    0.0
2188 436740.000   2248126.9298    865686.4115   5886371.2224   6   5   0.1728   0.1263   1.0643   0.0541   0.2649   0.0929   0.00    0.0
2188 436770.000   2248126.7423    865686.1033   5886369.6293   6   4   0.1732   0.1297   1.0839   0.0583   0.2792   0.1166   0.00    0.0
2188 436800.000   2248126.8518    865686.4350   5886368.7768   6   5   0.1718   0.1272   1.0858   0.0545   0.2631   0.1033   0.00    0.0
2188 436830.000   2248126.4705    865685.5508   5886366.4259   6   4   0.1726   0.1347   1.1189   0.0623   0.3012   0.1422   0.00    0.0
2188 436860.000   2248126.3425    865685.2599   5886364.7554   6   4   0.1726   0.1375   1.1381   0.0649   0.3128   0.1547   0.00    0.0
2188 436890.000   2248126.1805    865684.9529   5886362.8866   6   4   0.1727   0.1406   1.1586   0.0676   0.3249   0.1671   0.00    0.0
2188 436920.000   2248121.0702    865691.4254   5886437.7198   6   5   0.2411   0.1754   1.6785  -0.1350   0.4833  -0.4831   0.00    0.0
2188 436950.000   2248121.3527    865691.1482   5886434.5026   6   5   0.2248   0.1574   1.3725  -0.1078   0.3988  -0.3881   0.00    0.0
2188 436980.000   2248121.5189    865690.9804   5886432.6101   6   5   0.2163   0.1472   1.1889  -0.0914   0.3477  -0.3325   0.00    0.0
2188 437040.000   2248121.1618    865691.2584   5886438.7072   6   4   0.3297   0.2564   3.8778  -0.2469   0.9481  -1.0173   0.00    0.0
2188 437070.000   2248124.0739    865689.5392   5886410.6838   6   4   0.7944   0.4108   6.4209  -0.5504   1.5950  -2.2229   0.00    0.0
2188 437100.000   2248121.9178    865690.5905   5886428.3329   6   5   0.1982   0.1252   0.7420  -0.0483   0.2228  -0.1926   0.00    0.0
2188 437130.000   2248123.4036    865689.8498   5886416.1768   6   5   0.4077   0.2076   2.9610  -0.2483   0.7247  -1.0296   0.00    0.0
2188 437160.000   2248121.3583    865691.0289   5886438.4911   6   5   0.2753   0.2020   3.3258  -0.1816   0.7526  -0.8141   0.00    0.0
2188 437220.000   2248121.2292    865691.1177   5886442.9058   6   4   0.2728   0.1995   3.5719  -0.1792   0.7731  -0.8403   0.00    0.0
2188 437310.000   2248123.9628    865689.5509   5886411.0106   6   4   0.4540   0.2676   5.7049  -0.3142   1.1811  -1.5180   0.00    0.0
2188 437340.000   2248123.8993    865689.5856   5886412.1643   6   5   0.3277   0.1922   3.8794  -0.2011   0.7843  -0.9949   0.00    0.0
2188 437370.000   2248123.9344    865689.5790   5886412.1546   6   5   0.2787   0.1628   3.1228  -0.1518   0.6152  -0.7698   0.00    0.0
2188 437400.000   2248124.0053    865689.5726   5886412.1844   6   5   0.2516   0.1468   2.6751  -0.1218   0.5141  -0.6314   0.00    0.0
2188 437430.000   2248124.0428    865689.5627   5886411.7078   6   5   0.2342   0.1369   2.3675  -0.1010   0.4448  -0.5323   0.00    0.0
2188 437460.000   2248124.0563    865689.5856   5886412.1976   6   5   0.2237   0.1312   2.1815  -0.0880   0.4032  -0.4686   0.00    0.0
2188 437490.000   2248124.1758    865689.5455   5886410.4468   6   6   0.2104   0.1258   1.9456  -0.0748   0.3577  -0.4108   0.00    0.0
2188 437520.000   2248124.1696    865689.5761   5886410.5264   6   4   0.2084   0.1224   1.8638  -0.0667   0.3324  -0.3533   0.00    0.0
2188 437550.000   2248124.2078    865689.5700   5886410.6269   6   4   0.2041   0.1195   1.7803  -0.0592   0.3073  -0.3161   0.00    0.0
2188 437580.000   2248124.2350    865689.5658   5886410.8985   6   5   0.1973   0.1169   1.5905  -0.0548   0.2786  -0.3179   0.00    0.0
2188 437610.000   2248124.2279    865689.5700   5886411.2533   6   5   0.1922   0.1146   1.4705  -0.0471   0.2534  -0.2810   0.00    0.0
2188 437640.000   2248124.2204    865689.5781   5886411.2924   6   4   0.1949   0.1128   1.4640  -0.0401   0.2328  -0.1943   0.00    0.0
2188 437670.000   2248124.1989    865689.5753   5886411.2566   6   4   0.1932   0.1116   1.4260  -0.0366   0.2173  -0.1648   0.00    0.0
2188 437700.000   2248124.2049    865689.5848   5886411.2424   6   4   0.1918   0.1105   1.3913  -0.0336   0.2024  -0.1326   0.00    0.0
2188 437730.000   2248124.2111    865689.5897   5886411.3338   6   4   0.1907   0.1096   1.3594  -0.0313   0.1878  -0.0943   0.00    0.0
2188 437760.000   2248124.2167    865689.5938   5886411.4863   6   4   0.1898   0.1089   1.3301  -0.0297   0.1735  -0.0308   0.00    0.0
2188 437790.000   2248124.1866    865689.5978   5886411.5944   6   4   0.1891   0.1083   1.3031  -0.0287   0.1591   0.0798   0.00    0.0
2188 437820.000   2248124.1771    865689.5964   5886411.6156   6   4   0.1886   0.1077   1.2781  -0.0284   0.1447   0.1146   0.00    0.0
2188 437850.000   2248124.2080    865689.5972   5886411.7188   6   4   0.1883   0.1073   1.2550  -0.0286   0.1299   0.1395   0.00    0.0
2188 437880.000   2248124.2517    865689.5924   5886411.9037   6   4   0.1881   0.1070   1.2336  -0.0294   0.1143   0.1592   0.00    0.0
2188 437910.000   2248124.2065    865689.5989   5886411.8464   6   4   0.1881   0.1068   1.2138  -0.0307   0.0976   0.1758   0.00    0.0
2188 437940.000   2248124.2421    865689.5987   5886411.8861   6   4   0.1882   0.1066   1.1953  -0.0322   0.0786   0.1902   0.00    0.0
2188 437970.000   2248124.2671    865689.5984   5886411.9183   6   4   0.1884   0.1065   1.1782  -0.0341   0.0550   0.2029   0.00    0.0
2188 438000.000   2248124.2346    865689.5880   5886411.7745   6   4   0.1888   0.1065   1.1623  -0.0362   0.0060   0.2144   0.00    0.0
2188 438030.000   2248124.2492    865689.6016   5886411.7700   6   4   0.1893   0.1065   1.1475  -0.0385  -0.0531   0.2248   0.00    0.0
2188 438060.000   2248124.2945    865689.6023   5886411.9331   6   5   0.1898   0.1066   1.1330  -0.0408  -0.0745   0.2342   0.00    0.0
2188 438090.000   2248124.2764    865689.5965   5886411.8779   6   4   0.1905   0.1068   1.1204  -0.0433  -0.0904   0.2432   0.00    0.0
2188 438120.000   2248124.2850    865689.5954   5886411.8893   6   4   0.1913   0.1070   1.1087  -0.0458  -0.1034   0.2517   0.00    0.0
2188 438150.000   2248124.3169    865689.5933   5886411.8970   6   4   0.1923   0.1072   1.0978  -0.0484  -0.1146   0.2597   0.00    0.0
2188 438180.000   2248124.3015    865689.6415   5886411.6459   6   5   0.1932   0.1066   1.0854  -0.0514  -0.1213   0.2673   0.00    0.0
2188 438210.000   2248124.2903    865689.6631   5886411.5364   6   5   0.1941   0.1066   1.0735  -0.0537  -0.1286   0.2734   0.00    0.0
2188 438240.000   2248124.2908    865689.6888   5886411.3105   6   5   0.1952   0.1066   1.0624  -0.0559  -0.1350   0.2795   0.00    0.0
2188 438270.000   2248124.2668    865689.7075   5886411.1646   6   5   0.1963   0.1066   1.0515  -0.0579  -0.1404   0.2851   0.00    0.0
2188 438300.000   2248124.2323    865689.6825   5886411.9934   6   5   0.1966   0.1086   1.1221  -0.0605  -0.1717   0.2946   0.00    0.0
2188 438330.000   2248124.2379    865689.6880   5886412.0509   6   5   0.1906   0.1077   1.0999  -0.0553  -0.1669   0.2780   0.00    0.0
2188 438360.000   2248124.2386    865689.6973   5886412.1274   6   5   0.1881   0.1072   1.0850  -0.0531  -0.1658   0.2703   0.00    0.0
2188 438390.000   2248124.2313    865689.7098   5886412.0111   6   5   0.1863   0.1068   1.0677  -0.0515  -0.1641   0.2637   0.00    0.0
2188 438420.000   2248124.2141    865689.7166   5886411.9587   6   5   0.1847   0.1063   1.0456  -0.0497  -0.1610   0.2562   0.00    0.0
2188 438450.000   2248124.1969    865689.7320   5886411.8305   6   5   0.1831   0.1057   1.0181  -0.0476  -0.1562   0.2475   0.00    0.0
2188 438480.000   2248124.1839    865689.7552   5886411.5610   6   5   0.1815   0.1049   0.9860  -0.0452  -0.1497   0.2374   0.00    0.0
2188 438510.000   2248124.2432    865689.7217   5886412.0194   6   4   0.2033   0.1112   1.1283  -0.0741  -0.2094   0.3297   0.00    0.0
2188 438540.000   2248124.2866    865689.7148   5886412.1351   6   4   0.2063   0.1128   1.1590  -0.0789  -0.2235   0.3450   0.00    0.0
2188 438570.000   2248124.1376    865689.7690   5886411.3547   6   5   0.1781   0.1037   0.9191  -0.0408  -0.1399   0.2160   0.00    0.0
2188 438600.000   2248124.0972    865689.7762   5886411.2542   6   5   0.1763   0.1025   0.8657  -0.0367  -0.1255   0.2003   0.00    0.0
2188 438630.000   2248124.0985    865689.7856   5886411.1715   6   5   0.1748   0.1015   0.8220  -0.0331  -0.1134   0.1870   0.00    0.0
2188 438660.000   2248124.1555    865689.7723   5886411.4439   6   4   0.2036   0.1110   1.0271  -0.0764  -0.2035   0.3183   0.00    0.0
2188 438690.000   2248124.1468    865689.7698   5886411.5328   6   4   0.2067   0.1126   1.0570  -0.0813  -0.2171   0.3333   0.00    0.0
2188 438720.000   2248124.0888    865689.8027   5886411.1034   6   6   0.1723   0.1003   0.7559  -0.0288  -0.1018   0.1697   0.00    0.0
2188 438750.000   2248124.0953    865689.8159   5886411.0588   6   5   0.2001   0.1059   0.8586  -0.0688  -0.1591   0.2823   0.00    0.0
2188 438780.000   2248124.0837    865689.8344   5886410.9415   6   5   0.2017   0.1063   0.8599  -0.0713  -0.1642   0.2886   0.00    0.0
2188 438810.000   2248124.1005    865689.8041   5886411.3406   6   4   0.2118   0.1150   1.0218  -0.0892  -0.2277   0.3449   0.00    0.0
2188 438840.000   2248123.9577    865689.8791   5886410.4958   6   5   0.2051   0.1072   0.8704  -0.0760  -0.1746   0.3013   0.00    0.0
2188 438870.000   2248123.9135    865689.9058   5886410.2645   6   5   0.2066   0.1076   0.8686  -0.0780  -0.1780   0.3059   0.00    0.0
2188 438900.000   2248123.8621    865689.9257   5886410.0296   6   5   0.2081   0.1079   0.8658  -0.0798  -0.1808   0.3099   0.00    0.0
2188 438930.000   2248123.8381    865689.9492   5886409.9001   6   5   0.2094   0.1081   0.8617  -0.0813  -0.1829   0.3133   0.00    0.0
2188 438960.000   2248123.8725    865689.9405   5886410.0810   6   4   0.2316   0.1246   1.1201  -0.1131  -0.2799   0.4111   0.00    0.0
2188 438990.000   2248123.7372    865689.9970   5886409.5080   6   5   0.2121   0.1086   0.8622  -0.0844  -0.1881   0.3206   0.00    0.0
2188 439020.000   2248123.6885    865690.0188   5886409.2941   6   5   0.2127   0.1085   0.8507  -0.0849  -0.1872   0.3204   0.00    0.0
2188 439050.000   2248123.6220    865690.0461   5886409.0185   6   5   0.2130   0.1083   0.8386  -0.0853  -0.1858   0.3196   0.00    0.0
2188 439080.000   2248123.6015    865690.0641   5886408.8502   6   5   0.2133   0.1080   0.8259  -0.0854  -0.1841   0.3183   0.00    0.0
2188 439110.000   2248123.5437    865690.0958   5886408.5575   6   5   0.2134   0.1077   0.8127  -0.0854  -0.1821   0.3166   0.00    0.0
2188 439140.000   2248123.4615    865690.1164   5886408.3569   6   5   0.2133   0.1073   0.7991  -0.0852  -0.1798   0.3144   0.00    0.0
2188 439170.000   2248123.4105    865690.1389   5886408.2023   6   5   0.2131   0.1070   0.7853  -0.0850  -0.1773   0.3119   0.00    0.0
2188 439200.000   2248123.3594    865690.1722   5886407.9970   6   5   0.2128   0.1066   0.7714  -0.0846  -0.1747   0.3091   0.00    0.0
2188 439230.000   2248123.2905    865690.1950   5886407.7291   6   5   0.2124   0.1062   0.7575  -0.0841  -0.1719   0.3061   0.00    0.0
2188 439260.000   2248123.3047    865690.2018   5886407.7224   6   5   0.2119   0.1058   0.7439  -0.0836  -0.1691   0.3030   0.00    0.0
2188 439290.000   2248123.3056    865690.2054   5886407.7449   6   5   0.2113   0.1054   0.7304  -0.0831  -0.1664   0.2997   0.00    0.0
2188 439320.000   2248123.2700    865690.2174   5886407.6801   6   5   0.2107   0.1050   0.7173  -0.0825  -0.1636   0.2964   0.00    0.0
2188 439350.000   2248123.3094    865690.2135   5886407.7595   6   5   0.2100   0.1046   0.7046  -0.0819  -0.1609   0.2932   0.00    0.0
2188 439380.000   2248123.3013    865690.2157   5886407.8113   6   5   0.2093   0.1042   0.6923  -0.0813  -0.1583   0.2899   0.00    0.0
2188 439410.000   2248123.3282    865690.2052   5886407.9741   6   5   0.2086   0.1039   0.6805  -0.0808  -0.1558   0.2866   0.00    0.0
2188 439440.000   2248123.3463    865690.2055   5886408.0422   6   5   0.2078   0.1035   0.6691  -0.0802  -0.1533   0.2834   0.00    0.0
2188 439470.000   2248123.3699    865690.1946   5886408.1844   6   5   0.2070   0.1032   0.6581  -0.0796  -0.1510   0.2802   0.00    0.0
2188 439500.000   2248123.4379    865690.1790   5886408.4574   6   5   0.2061   0.1029   0.6475  -0.0790  -0.1487   0.2770   0.00    0.0
2188 439530.000   2248123.4471    865690.1814   5886408.5214   6   5   0.2052   0.1026   0.6373  -0.0783  -0.1465   0.2738   0.00    0.0
2188 439560.000   2248123.4408    865690.1775   5886408.5780   6   5   0.2043   0.1023   0.6274  -0.0777  -0.1444   0.2707   0.00    0.0
2188 439590.000   2248123.4721    865690.1673   5886408.7282   6   5   0.2033   0.1020   0.6179  -0.0771  -0.1423   0.2675   0.00    0.0
2188 439620.000   2248123.5065    865690.1578   5886408.8865   6   5   0.2023   0.1017   0.6087  -0.0765  -0.1402   0.2644   0.00    0.0
2188 439650.000   2248123.5559    865690.1476   5886409.1234   6   5   0.2013   0.1014   0.5998  -0.0758  -0.1382   0.2613   0.00    0.0
2188 439680.000   2248123.6035    865690.1331   5886409.2663   6   5   0.2001   0.1011   0.5912  -0.0751  -0.1362   0.2581   0.00    0.0
2188 439710.000   2248123.6453    865690.1281   5886409.4577   6   5   0.1990   0.1008   0.5828  -0.0744  -0.1343   0.2550   0.00    0.0
2188 439740.000   2248123.6980    865690.1009   5886409.6701   6   5   0.1978   0.1006   0.5746  -0.0737  -0.1323   0.2518   0.00    0.0
2188 439770.000   2248123.7403    865690.0818   5886409.8434   6   5   0.1966   0.1003   0.5667  -0.0729  -0.1304   0.2486   0.00    0.0
2188 439800.000   2248123.8227    865690.0659   5886410.0525   6   5   0.1953   0.1000   0.5590  -0.0721  -0.1284   0.2454   0.00    0.0
2188 439830.000   2248123.8648    865690.0546   5886410.2296   6   5   0.1941   0.0997   0.5515  -0.0713  -0.1265   0.2422   0.00    0.0
2188 439860.000   2248123.9147    865690.0261   5886410.4462   6   5   0.1927   0.0995   0.5442  -0.0705  -0.1245   0.2389   0.00    0.0
2188 439890.000   2248123.9834    865690.0071   5886410.6852   6   5   0.1914   0.0992   0.5371  -0.0696  -0.1226   0.2357   0.00    0.0
2188 439920.000   2248124.0290    865689.9836   5886410.8570   6   5   0.1900   0.0989   0.5302  -0.0687  -0.1206   0.2325   0.00    0.0
2188 439950.000   2248124.0733    865689.9698   5886410.9967   6   5   0.1887   0.0986   0.5234  -0.0678  -0.1186   0.2292   0.00    0.0
2188 439980.000   2248124.1117    865689.9582   5886411.1963   6   5   0.1873   0.0983   0.5169  -0.0669  -0.1167   0.2260   0.00    0.0
2188 440010.000   2248124.1499    865689.9381   5886411.3454   6   5   0.1859   0.0980   0.5106  -0.0660  -0.1147   0.2228   0.00    0.0
2188 440040.000   2248124.1626    865689.9269   5886411.4235   6   5   0.1845   0.0977   0.5045  -0.0650  -0.1127   0.2197   0.00    0.0
2188 440070.000   2248124.2352    865689.9009   5886411.6456   6   5   0.1831   0.0974   0.4986  -0.0640  -0.1107   0.2165   0.00    0.0
2188 440100.000   2248124.2623    865689.8830   5886411.7404   6   5   0.1817   0.0971   0.4929  -0.0630  -0.1088   0.2135   0.00    0.0
2188 440130.000   2248124.3778    865689.8435   5886412.0428   6   5   0.1803   0.0968   0.4875  -0.0620  -0.1068   0.2104   0.00    0.0
2188 440160.000   2248124.3992    865689.8254   5886412.1121   6   5   0.1790   0.0965   0.4822  -0.0610  -0.1049   0.2075   0.00    0.0
2188 440190.000   2248124.4844    865689.7962   5886412.3770   6   5   0.1776   0.0962   0.4772  -0.0600  -0.1029   0.2046   0.00    0.0
2188 440220.000   2248124.5053    865689.7738   5886412.4543   6   5   0.1763   0.0959   0.4724  -0.0590  -0.1010   0.2017   0.00    0.0
2188 440250.000   2248124.5766    865689.7484   5886412.6904   6   5   0.1750   0.0956   0.4678  -0.0580  -0.0991   0.1990   0.00    0.0
2188 440280.000   2248124.6363    865689.7290   5886412.8143   6   5   0.1737   0.0953   0.4635  -0.0570  -0.0972   0.1963   0.00    0.0
2188 440310.000   2248124.6382    865689.7144   5886412.8190   6   5   0.1725   0.0950   0.4594  -0.0560  -0.0954   0.1937   0.00    0.0
2188 440340.000   2248124.6740    865689.6980   5886412.8498   6   5   0.1712   0.0946   0.4555  -0.0550  -0.0935   0.1912   0.00    0.0
2188 440370.000   2248124.7443    865689.6644   5886413.0379   6   5   0.1700   0.0943   0.4519  -0.0540  -0.0917   0.1888   0.00    0.0
2188 440400.000   2248124.7879    865689.6334   5886413.1550   6   5   0.1689   0.0940   0.4485  -0.0530  -0.0900   0.1865   0.00    0.0
2188 440430.000   2248124.8114    865689.6136   5886413.2231   6   5   0.1677   0.0936   0.4453  -0.0520  -0.0883   0.1843   0.00    0.0
2188 440460.000   2248124.8692    865689.5864   5886413.3547   6   5   0.1666   0.0933   0.4424  -0.0511  -0.0866   0.1822   0.00    0.0
2188 440490.000   2248124.9009    865689.5669   5886413.4299   6   5   0.1656   0.0930   0.4396  -0.0501  -0.0850   0.1802   0.00    0.0
2188 440520.000   2248124.9106    865689.5420   5886413.3923   6   5   0.1645   0.0926   0.4371  -0.0491  -0.0834   0.1783   0.00    0.0
2188 440550.000   2248124.9120    865689.5285   5886413.3563   6   5   0.1635   0.0923   0.4348  -0.0482  -0.0819   0.1765   0.00    0.0
2188 440580.000   2248124.9683    865689.5026   5886413.4369   6   5   0.1625   0.0919   0.4327  -0.0472  -0.0805   0.1748   0.00    0.0
2188 440610.000   2248125.0541    865689.5966   5886413.8621   6   5   0.1654   0.0998   0.4682  -0.0274   0.0321   0.1909   0.00    0.0
2188 440640.000   2248125.0808    865689.6165   5886413.9605   6   5   0.1581   0.0999   0.4431  -0.0221   0.0443   0.1708   0.00    0.0
2188 440670.000   2248125.1074    865689.6382   5886413.9915   6   5   0.1551   0.1001   0.4331  -0.0199   0.0485   0.1626   0.00    0.0
2188 440700.000   2248125.0999    865689.6411   5886413.9034   6   5   0.1533   0.1003   0.4273  -0.0187   0.0512   0.1576   0.00    0.0
2188 440730.000   2248125.1311    865689.6535   5886414.0002   6   5   0.1520   0.1005   0.4232  -0.0179   0.0533   0.1542   0.00    0.0
2188 440760.000   2248125.1411    865689.6633   5886413.9629   6   5   0.1509   0.1008   0.4201  -0.0172   0.0552   0.1515   0.00    0.0
2188 440790.000   2248125.1411    865689.6645   5886413.8752   6   5   0.1500   0.1010   0.4175  -0.0166   0.0570   0.1493   0.00    0.0
2188 440820.000   2248125.1588    865689.6836   5886413.9110   6   5   0.1492   0.1013   0.4153  -0.0160   0.0588   0.1474   0.00    0.0
2188 440850.000   2248125.1862    865689.6889   5886413.9840   6   5   0.1485   0.1016   0.4134  -0.0154   0.0606   0.1458   0.00    0.0
2188 440880.000   2248125.2102    865689.6844   5886414.1357   6   5   0.1478   0.1018   0.4118  -0.0148   0.0624   0.1444   0.00    0.0
2188 440910.000   2248125.2417    865689.6904   5886414.1974   6   5   0.1472   0.1021   0.4102  -0.0141   0.0643   0.1432   0.00    0.0
2188 440940.000   2248125.2588    865689.6857   5886414.2346   6   5   0.1466   0.1024   0.4088  -0.0134   0.0661   0.1421   0.00    0.0
2188 440970.000   2248125.2691    865689.7078   5886414.3056   6   5   0.1461   0.1027   0.4075  -0.0125   0.0680   0.1411   0.00    0.0
2188 441000.000   2248125.2942    865689.7077   5886414.3751   6   5   0.1456   0.1031   0.4063  -0.0116   0.0700   0.1402   0.00    0.0
2188 441030.000   2248125.3048    865689.7250   5886414.4743   6   5   0.1451   0.1034   0.4053  -0.0105   0.0719   0.1395   0.00    0.0
2188 441060.000   2248125.2972    865689.7260   5886414.4847   6   5   0.1446   0.1037   0.4043  -0.0093   0.0740   0.1388   0.00    0.0
2188 441090.000   2248125.3054    865689.7440   5886414.5720   6   5   0.1442   0.1041   0.4034  -0.0075   0.0760   0.1382   0.00    0.0
2188 441120.000   2248125.2997    865689.7390   5886414.5516   6   5   0.1437   0.1045   0.4027  -0.0053   0.0782   0.1376   0.00    0.0
2188 441150.000   2248125.3238    865689.7487   5886414.7164   6   5   0.1433   0.1048   0.4020   0.0016   0.0803   0.1372   0.00    0.0
2188 441180.000   2248125.3329    865689.7593   5886414.8659   6   5   0.1429   0.1052   0.4016   0.0059   0.0826   0.1368   0.00    0.0
2188 441210.000   2248125.3455    865689.7662   5886414.9993   6   5   0.1426   0.1056   0.4013   0.0084   0.0849   0.1365   0.00    0.0
2188 441240.000   2248125.3511    865689.7583   5886415.0932   6   5   0.1422   0.1061   0.4011   0.0104   0.0872   0.1363   0.00    0.0
2188 441270.000   2248125.3532    865689.7642   5886415.1590   6   5   0.1419   0.1065   0.4012   0.0122   0.0897   0.1362   0.00    0.0
2188 441300.000   2248125.3540    865689.7625   5886415.2404   6   5   0.1416   0.1070   0.4015   0.0137   0.0922   0.1361   0.00    0.0
2188 441330.000   2248125.3803    865689.7820   5886415.4264   6   5   0.1412   0.1075   0.4020   0.0153   0.0948   0.1362   0.00    0.0
2188 441360.000   2248125.3918    865689.7999   5886415.5290   6   5   0.1409   0.1080   0.4027   0.0168   0.0974   0.1363   0.00    0.0
2188 441390.000   2248125.7176    865690.2360   5886417.6789   6   4   0.1577   0.1457   0.6063   0.0852   0.2324   0.2255   0.00    0.0
2188 441420.000   2248125.7191    865690.2443   5886417.6126   6   4   0.1580   0.1485   0.6190   0.0877   0.2401   0.2293   0.00    0.0
2188 441450.000   2248125.7369    865690.2859   5886417.7023   6   4   0.1584   0.1515   0.6331   0.0904   0.2484   0.2334   0.00    0.0
2188 441480.000   2248125.7521    865690.3185   5886417.7957   6   4   0.1589   0.1548   0.6487   0.0933   0.2573   0.2381   0.00    0.0
2188 441510.000   2248125.7852    865690.3449   5886417.9061   6   4   0.1595   0.1584   0.6660   0.0964   0.2670   0.2432   0.00    0.0
2188 441540.000   2248125.8424    865690.4252   5886418.2391   6   4   0.1602   0.1623   0.6851   0.0997   0.2775   0.2490   0.00    0.0
2188 441570.000   2248125.8811    865690.5048   5886418.4812   6   4   0.1610   0.1666   0.7063   0.1033   0.2890   0.2553   0.00    0.0
2188 441600.000   2248125.9333    865690.5729   5886418.7475   6   4   0.1620   0.1713   0.7298   0.1072   0.3014   0.2624   0.00    0.0
2188 441630.000   2248125.9847    865690.6424   5886419.0082   6   4   0.1631   0.1765   0.7559   0.1115   0.3150   0.2703   0.00    0.0
2188 441660.000   2248125.9977    865690.6932   5886419.1121   6   4   0.1645   0.1822   0.7850   0.1161   0.3299   0.2790   0.00    0.0
2188 441690.000   2248126.0383    865690.7804   5886419.3847   6   4   0.1660   0.1886   0.8176   0.1212   0.3464   0.2888   0.00    0.0
2188 441720.000   2248126.0620    865690.8631   5886419.6419   6   4   0.1678   0.1958   0.8542   0.1268   0.3646   0.2998   0.00    0.0
2188 441750.000   2248126.1030    865690.9495   5886419.9884   6   4   0.1699   0.2038   0.8954   0.1330   0.3849   0.3122   0.00    0.0
2188 441780.000   2248126.0641    865690.9094   5886419.7235   6   4   0.1723   0.2129   0.9421   0.1399   0.4076   0.3261   0.00    0.0
2188 441810.000   2248126.0697    865690.9746   5886419.8721   6   4   0.1752   0.2232   0.9952   0.1477   0.4332   0.3420   0.00    0.0
2188 441840.000   2248126.1573    865691.1471   5886420.6505   6   4   0.1786   0.2350   1.0562   0.1564   0.4623   0.3601   0.00    0.0
2188 441870.000   2248126.3377    865691.4436   5886422.1099   6   4   0.1826   0.2487   1.1266   0.1664   0.4956   0.3810   0.00    0.0
2188 441900.000   2248126.4036    865691.6057   5886422.7978   6   4   0.1875   0.2646   1.2087   0.1779   0.5340   0.4052   0.00    0.0
2188 441930.000   2248126.4569    865691.7604   5886423.3892   6   4   0.1934   0.2834   1.3055   0.1912   0.5790   0.4338   0.00    0.0
2188 441960.000   2248126.4676    865691.8411   5886423.6151   6   4   0.2006   0.3059   1.4210   0.2070   0.6323   0.4677   0.00    0.0
2188 441990.000   2248126.6062    865692.1240   5886424.9462   6   4   0.2097   0.3332   1.5609   0.2259   0.6965   0.5087   0.00    0.0
2188 442020.000   2248126.7747    865692.4887   5886426.7248   6   4   0.2212   0.3670   1.7336   0.2490   0.7753   0.5591   0.00    0.0
2188 442050.000   2248126.9982    865692.9727   5886429.1083   6   4   0.2362   0.4097   1.9518   0.2779   0.8743   0.6226   0.00    0.0
2188 442080.000   2248127.4636    865694.0821   5886434.2655   6   5   0.2271   0.3938   1.8882   0.2643   0.8415   0.5954   0.00    0.0
2188 442110.000   2248127.6117    865694.4817   5886436.0662   6   5   0.1939   0.3117   1.4598   0.2037   0.6481   0.4621   0.00    0.0
2188 442140.000   2248127.7178    865694.8110   5886437.5524   6   5   0.1812   0.2796   1.2926   0.1791   0.5718   0.4090   0.00    0.0
2188 442170.000   2248127.7851    865695.0814   5886438.7793   6   5   0.1740   0.2621   1.2035   0.1650   0.5301   0.3794   0.00    0.0
2188 442200.000   2248127.8420    865695.3121   5886440.0135   6   6   0.1686   0.2490   1.1375   0.1542   0.4992   0.3572   0.00    0.0
2188 442230.000   2248127.7948    865695.4211   5886440.4266   6   6   0.1630   0.2374   1.0710   0.1437   0.4703   0.3338   0.00    0.0
2188 442260.000   2248127.6584    865695.3412   5886439.9277   6   6   0.1572   0.2246   0.9990   0.1318   0.4381   0.3086   0.00    0.0
2188 442290.000   2248127.4314    865695.5461   5886439.8601   6   4   0.1557   0.2197   0.9783   0.1208   0.4211   0.2983   0.00    0.0
2188 442320.000   2248127.3875    865695.6818   5886440.1454   6   4   0.1521   0.2147   0.9488   0.1139   0.4076   0.2840   0.00    0.0
2188 442350.000   2248127.2762    865695.8134   5886440.1006   6   5   0.1431   0.2079   0.8476   0.1016   0.3811   0.2416   0.00    0.0
2188 442380.000   2248127.1628    865695.9041   5886439.9558   6   5   0.1397   0.2003   0.7878   0.0926   0.3575   0.2218   0.00    0.0
2188 442410.000   2248127.0499    865695.9719   5886439.7131   6   5   0.1370   0.1936   0.7343   0.0844   0.3363   0.2042   0.00    0.0
2188 442440.000   2248126.9235    865696.0191   5886439.3609   6   6   0.1346   0.1876   0.6859   0.0769   0.3171   0.1885   0.00    0.0
2188 442470.000   2248126.8168    865696.0140   5886438.8247   6   5   0.1321   0.1818   0.6432   0.0713   0.2995   0.1755   0.00    0.0
2188 442500.000   2248126.6982    865695.9717   5886438.1978   6   6   0.1304   0.1761   0.5999   0.0654   0.2817   0.1634   0.00    0.0
2188 442530.000   2248126.5730    865695.8786   5886437.3418   6   5   0.1289   0.1706   0.5594   0.0595   0.2645   0.1521   0.00    0.0
2188 442560.000   2248126.3954    865695.9204   5886436.8734   6   5   0.1283   0.1676   0.5241   0.0502   0.2516   0.1384   0.00    0.0
2188 442590.000   2248126.2895    865695.9297   5886436.4717   6   5   0.1274   0.1644   0.4943   0.0449   0.2399   0.1300   0.00    0.0
2188 442620.000   2248126.1947    865695.9552   5886436.1394   6   5   0.1266   0.1615   0.4670   0.0398   0.2293   0.1225   0.00    0.0
2188 442650.000   2248126.1067    865695.9938   5886435.8365   6   5   0.1259   0.1589   0.4419   0.0349   0.2195   0.1159   0.00    0.0
2188 442680.000   2248126.0097    865696.0352   5886435.5463   6   5   0.1253   0.1565   0.4188   0.0299   0.2106   0.1101   0.00    0.0
2188 442710.000   2248125.8956    865696.0677   5886435.2187   6   6   0.1246   0.1544   0.3976   0.0250   0.2024   0.1051   0.00    0.0
2188 442740.000   2248125.8205    865696.0725   5886434.8968   6   6   0.1233   0.1522   0.3782   0.0223   0.1949   0.1005   0.00    0.0
2188 442770.000   2248125.7379    865696.0788   5886434.5444   6   6   0.1226   0.1502   0.3600   0.0187   0.1877   0.0971   0.00    0.0
2188 442800.000   2248125.6491    865696.0777   5886434.2138   6   6   0.1221   0.1482   0.3428   0.0143   0.1807   0.0941   0.00    0.0
2188 442830.000   2248125.5581    865696.0607   5886433.8231   6   6   0.1216   0.1463   0.3265   0.0077   0.1740   0.0914   0.00    0.0
2188 442860.000   2248125.4572    865696.0115   5886433.3703   6   6   0.1211   0.1443   0.3110  -0.0088   0.1675   0.0889   0.00    0.0
2188 442890.000   2248125.2746    865696.0731   5886433.0148   6   5   0.1217   0.1437   0.2969  -0.0225   0.1623   0.0848   0.00    0.0
2188 442920.000   2248125.2129    865696.0962   5886432.8117   6   5   0.1214   0.1427   0.2856  -0.0249   0.1581   0.0831   0.00    0.0
2188 442950.000   2248125.1340    865696.1246   5886432.6275   6   5   0.1211   0.1417   0.2751  -0.0269   0.1541   0.0816   0.00    0.0
2188 442980.000   2248125.0681    865696.1530   5886432.4825   6   5   0.1207   0.1409   0.2654  -0.0286   0.1505   0.0804   0.00    0.0
2188 443010.000   2248124.9843    865696.1879   5886432.2844   6   5   0.1204   0.1401   0.2564  -0.0300   0.1472   0.0794   0.00    0.0
2188 443040.000   2248124.8947    865696.2386   5886432.1449   6   6   0.1201   0.1393   0.2481  -0.0312   0.1440   0.0785   0.00    0.0
2188 443070.000   2248124.8211    865696.2696   5886432.0000   6   6   0.1190   0.1384   0.2401  -0.0311   0.1413   0.0769   0.00    0.0
2188 443100.000   2248124.7497    865696.3120   5886431.8830   6   6   0.1184   0.1376   0.2329  -0.0315   0.1386   0.0762   0.00    0.0
2188 443130.000   2248124.6650    865696.3432   5886431.7379   6   6   0.1180   0.1368   0.2262  -0.0319   0.1360   0.0758   0.00    0.0
2188 443160.000   2248124.5930    865696.3627   5886431.5623   6   6   0.1176   0.1360   0.2198  -0.0325   0.1334   0.0755   0.00    0.0
2188 443190.000   2248124.5168    865696.3704   5886431.3801   6   6   0.1172   0.1352   0.2137  -0.0331   0.1308   0.0752   0.00    0.0
2188 443220.000   2248124.4285    865696.3724   5886431.1887   6   6   0.1168   0.1343   0.2078  -0.0337   0.1282   0.0749   0.00    0.0
2188 443250.000   2248124.3511    865696.3573   5886431.0252   6   5   0.1165   0.1334   0.2023  -0.0344   0.1257   0.0746   0.00    0.0
2188 443280.000   2248124.2777    865696.3290   5886430.8295   6   5   0.1161   0.1325   0.1969  -0.0350   0.1232   0.0743   0.00    0.0
2188 443310.000   2248124.1903    865696.3048   5886430.6246   6   5   0.1158   0.1315   0.1918  -0.0358   0.1207   0.0740   0.00    0.0
2188 443340.000   2248123.9952    865696.3540   5886430.3347   6   4   0.1177   0.1314   0.2473  -0.0403   0.1157   0.0906   0.00    0.0
2188 443370.000   2248124.2281    865696.3871   5886431.1972   6   4   0.1177   0.1310   0.2366  -0.0314   0.1236   0.0856   0.00    0.0
2188 443400.000   2248124.1740    865696.4146   5886431.1516   6   5   0.1177   0.1306   0.2384  -0.0308   0.1235   0.0861   0.00    0.0
2188 443430.000   2248124.1340    865696.4531   5886431.1873   6   4   0.1177   0.1302   0.2403  -0.0303   0.1235   0.0865   0.00    0.0
2188 443460.000   2248124.0727    865696.4888   5886431.1479   6   4   0.1177   0.1299   0.2423  -0.0297   0.1235   0.0870   0.00    0.0
2188 443520.000   2248124.0458    865696.5478   5886431.3001   6   4   0.1177   0.1292   0.2463  -0.0287   0.1234   0.0879   0.00    0.0
2188 443550.000   2248123.9856    865696.5687   5886431.2347   6   4   0.1177   0.1288   0.2484  -0.0281   0.1233   0.0884   0.00    0.0
2188 443580.000   2248123.9379    865696.5953   5886431.2148   6   5   0.1176   0.1284   0.2506  -0.0274   0.1233   0.0889   0.00    0.0
2188 443610.000   2248123.9075    865696.6157   5886431.2555   6   4   0.1176   0.1281   0.2528  -0.0267   0.1233   0.0894   0.00    0.0
2188 443640.000   2248123.8655    865696.6344   5886431.2260   6   4   0.1176   0.1277   0.2551  -0.0260   0.1233   0.0899   0.00    0.0
2188 443670.000   2248123.8086    865696.6479   5886431.1767   6   4   0.1175   0.1274   0.2575  -0.0253   0.1233   0.0904   0.00    0.0
2188 443700.000   2248123.7705    865696.6671   5886431.1531   6   4   0.1175   0.1271   0.2600  -0.0245   0.1233   0.0909   0.00    0.0
2188 443730.000   2248123.7437    865696.6832   5886431.1645   6   4   0.1174   0.1267   0.2625  -0.0238   0.1234   0.0913   0.00    0.0
2188 443760.000   2248123.6859    865696.6988   5886431.1116   6   5   0.1174   0.1264   0.2652  -0.0229   0.1235   0.0918   0.00    0.0
2188 443790.000   2248123.6542    865696.7024   5886431.1290   6   4   0.1174   0.1261   0.2679  -0.0221   0.1235   0.0923   0.00    0.0
2188 443820.000   2248123.5983    865696.7165   5886431.0762   6   5   0.1173   0.1257   0.2707  -0.0214   0.1236   0.0928   0.00    0.0
2188 443850.000   2248123.5558    865696.7182   5886431.0636   6   4   0.1172   0.1254   0.2736  -0.0205   0.1237   0.0933   0.00    0.0
2188 443880.000   2248123.5163    865696.7314   5886431.0155   6   4   0.1172   0.1251   0.2766  -0.0195   0.1238   0.0938   0.00    0.0
2188 443910.000   2248123.4454    865696.7310   5886430.8582   6   4   0.1165   0.1245   0.2738  -0.0212   0.1220   0.0905   0.00    0.0
2188 443940.000   2248123.4405    865696.7595   5886431.0418   6   4   0.1170   0.1245   0.2830  -0.0177   0.1242   0.0946   0.00    0.0
2188 443970.000   2248123.3720    865696.7805   5886430.9446   6   4   0.1170   0.1242   0.2865  -0.0167   0.1245   0.0950   0.00    0.0
2188 444000.000   2248123.3271    865696.8028   5886430.9650   6   4   0.1169   0.1240   0.2901  -0.0157   0.1248   0.0955   0.00    0.0
2188 444030.000   2248123.2830    865696.8255   5886431.0084   6   4   0.1169   0.1237   0.2938  -0.0145   0.1252   0.0959   0.00    0.0
2188 444060.000   2248123.2202    865696.8367   5886430.9589   6   4   0.1168   0.1235   0.2977  -0.0133   0.1256   0.0963   0.00    0.0
2188 444090.000   2248123.1745    865696.8515   5886430.9730   6   4   0.1167   0.1233   0.3017  -0.0119   0.1260   0.0967   0.00    0.0
2188 444120.000   2248123.1294    865696.8566   5886431.0121   6   4   0.1167   0.1231   0.3059  -0.0104   0.1265   0.0971   0.00    0.0
2188 444150.000   2248123.0856    865696.8803   5886431.0329   6   4   0.1166   0.1228   0.3102  -0.0086   0.1270   0.0976   0.00    0.0
2188 444180.000   2248123.0302    865696.8924   5886431.0232   6   4   0.1165   0.1226   0.3147  -0.0062   0.1275   0.0980   0.00    0.0
2188 444210.000   2248122.9690    865696.9012   5886430.9965   6   4   0.1165   0.1224   0.3194  -0.0021   0.1281   0.0984   0.00    0.0
2188 444240.000   2248122.9141    865696.9209   5886431.0140   6   4   0.1164   0.1222   0.3242   0.0054   0.1286   0.0987   0.00    0.0
2188 444270.000   2248122.8691    865696.9394   5886431.0385   6   4   0.1163   0.1220   0.3293   0.0080   0.1293   0.0991   0.00    0.0
2188 444300.000   2248122.8152    865696.9574   5886431.0358   6   4   0.1162   0.1218   0.3346   0.0099   0.1299   0.0995   0.00    0.0
2188 444330.000   2248122.7691    865696.9622   5886431.0170   6   4   0.1161   0.1216   0.3400   0.0115   0.1307   0.0999   0.00    0.0
2188 444360.000   2248122.7092    865696.9515   5886430.9431   6   4   0.1160   0.1214   0.3458   0.0128   0.1314   0.1002   0.00    0.0
2188 444390.000   2248122.6508    865696.9550   5886430.9289   6   4   0.1159   0.1212   0.3517   0.0141   0.1322   0.1005   0.00    0.0
2188 444420.000   2248122.6093    865696.9658   5886430.9580   6   4   0.1159   0.1211   0.3580   0.0152   0.1331   0.1008   0.00    0.0
2188 444450.000   2248122.5530    865696.9710   5886430.8620   6   4   0.1158   0.1209   0.3645   0.0162   0.1340   0.1011   0.00    0.0
2188 444480.000   2248122.4896    865696.9779   5886430.7811   6   4   0.1156   0.1207   0.3713   0.0172   0.1350   0.1014   0.00    0.0
2188 444510.000   2248122.4371    865696.9804   5886430.8364   6   4   0.1155   0.1206   0.3784   0.0181   0.1360   0.1017   0.00    0.0
2188 444540.000   2248122.3739    865696.9817   5886430.7843   6   4   0.1154   0.1204   0.3858   0.0189   0.1371   0.1019   0.00    0.0
2188 444570.000   2248122.3290    865696.9855   5886430.8211   6   4   0.1153   0.1203   0.3936   0.0197   0.1383   0.1021   0.00    0.0
2188 444600.000   2248122.2712    865696.9861   5886430.8120   6   4   0.1152   0.1201   0.4018   0.0205   0.1395   0.1023   0.00    0.0
2188 444630.000   2248122.2208    865696.9915   5886430.8020   6   4   0.1151   0.1200   0.4104   0.0212   0.1409   0.1024   0.00    0.0
2188 444660.000   2248122.2276    865696.5738   5886432.9451   6   5   0.2295   1.1713   6.2355  -0.4807  -2.6887   1.1165   0.00    0.0
2188 444750.000   2248122.2432    865695.5427   5886439.3061   6   4   0.4016   2.2323  13.4812  -0.9261  -5.4783   2.2798   0.00    0.0
2188 444780.000   2248122.2580    865695.1096   5886442.3219   6   4   0.5502   3.1351  19.7226  -1.2983  -7.8580   3.2592   0.00    0.0
2188 444810.000   2248122.1719    865695.2854   5886441.6037   6   4   0.9075   5.2873  34.6705  -2.1814 -13.5362   5.5876   0.00    0.0
2188 444840.000   2248121.3243    865699.8981   5886410.1623   6   5   0.1580   0.6640   4.3935  -0.2664  -1.6823   0.6988   0.00    0.0
2188 444870.000   2248121.2148    865700.3867   5886406.0405   6   5   0.1374   0.4957   3.2978  -0.1916  -1.2449   0.5115   0.00    0.0
2188 444900.000   2248121.2170    865700.2614   5886406.1304   6   5   0.1268   0.3921   2.6025  -0.1444  -0.9675   0.3932   0.00    0.0
2188 444930.000   2248121.2263    865699.9971   5886407.1571   6   5   0.1208   0.3216   2.1073  -0.1111  -0.7706   0.3099   0.00    0.0
2188 444960.000   2248121.2503    865699.6619   5886408.7568   6   5   0.1173   0.2722   1.7399  -0.0866  -0.6249   0.2490   0.00    0.0
2188 444990.000   2248121.2771    865699.2730   5886410.8451   6   5   0.1152   0.2347   1.4374  -0.0671  -0.5057   0.2009   0.00    0.0
2188 445020.000   2248121.2929    865698.9715   5886412.4564   6   6   0.1139   0.2097   1.2190  -0.0529  -0.4193   0.1664   0.00    0.0
2188 445050.000   2248121.3356    865698.5620   5886414.4715   6   4   0.1132   0.1969   1.0811  -0.0442  -0.3675   0.1445   0.00    0.0
2188 445080.000   2248121.3586    865697.6149   5886421.2499   6   4   0.1126   0.2169   1.3198  -0.0407  -0.4521   0.1367   0.00    0.0
2188 445110.000   2248121.3268    865698.0967   5886416.7604   6   5   0.1121   0.1797   0.9208  -0.0291  -0.3000   0.1106   0.00    0.0
