% program   : RTKLIB ver.demo5 b34j
% inp file  : E:\GAMPII-GOOD\dataset_Win\obs\2021\351\MGEX\daily\kir83510.21o
% inp file  : E:\Navigation_Learn\GNSS\RTKLIB-b34k\data\data_IGM-A1_Vehicle_open_20211217-nsh\brdm3510.21p
% inp file  : E:\Navigation_Learn\GNSS\RTKLIB-b34k\data\data_IGM-A1_Vehicle_open_20211217-nsh\CAS0MGXRAP_20213510000_01D_01D_DCB.BSX
% obs start : 2021/12/17 00:00:00.0 GPST (week2188 432000.0s)
% obs end   : 2021/12/17 23:59:30.0 GPST (week2188 518370.0s)
% pos mode  : Single
% elev mask : 10.0 deg
% ionos opt : Broadcast
% tropo opt : Saastamoinen
% ephemeris : Broadcast
% navi sys  : GPS
%
% (x/y/z-ecef=WGS84,Q=1:fix,2:float,3:sbas,4:dgps,5:single,6:ppp,ns=# of satellites)
%  GPST              x-ecef(m)      y-ecef(m)      z-ecef(m)   Q  ns   sdx(m)   sdy(m)   sdz(m)  sdxy(m)  sdyz(m)  sdzx(m) age(s)  ratio
2188 432000.000   2248126.4702    865685.0820   5886424.4058   5   9   2.7886   1.6932   9.4226  -0.7936  -1.2854   4.5591   0.00    0.0
2188 432030.000   2248127.1259    865685.3125   5886425.8955   5   9   2.7753   1.6935   9.3487  -0.7976  -1.2984   4.5233   0.00    0.0
2188 432060.000   2248127.0247    865685.0755   5886426.3683   5   9   2.7616   1.6938   9.2725  -0.8011  -1.3101   4.4862   0.00    0.0
2188 432090.000   2248126.8571    865684.9546   5886426.0379   5   9   2.7475   1.6941   9.1944  -0.8041  -1.3208   4.4482   0.00    0.0
2188 432120.000   2248126.6287    865684.9807   5886425.0205   5   9   2.7331   1.6944   9.1145  -0.8068  -1.3303   4.4092   0.00    0.0
2188 432150.000   2248126.6757    865685.2524   5886424.3622   5   9   2.7184   1.6947   9.0332  -0.8091  -1.3389   4.3694   0.00    0.0
2188 432180.000   2248126.9538    865685.0705   5886425.3548   5   9   2.7035   1.6950   8.9506  -0.8111  -1.3466   4.3288   0.00    0.0
2188 432210.000   2248127.0924    865685.1620   5886425.7076   5   9   2.6884   1.6953   8.8669  -0.8127  -1.3533   4.2877   0.00    0.0
2188 432240.000   2248126.5139    865685.3210   5886423.9001   5   9   2.6732   1.6956   8.7823  -0.8139  -1.3593   4.2461   0.00    0.0
2188 432270.000   2248126.8760    865685.0584   5886424.9786   5   9   2.6579   1.6960   8.6971  -0.8149  -1.3644   4.2041   0.00    0.0
2188 432300.000   2248126.9089    865685.1679   5886425.7404   5   9   2.6425   1.6963   8.6113  -0.8155  -1.3688   4.1617   0.00    0.0
2188 432330.000   2248126.7744    865685.3586   5886425.3560   5   9   2.6271   1.6966   8.5252  -0.8159  -1.3725   4.1191   0.00    0.0
2188 432360.000   2248127.2422    865685.1669   5886425.9236   5   9   2.6117   1.6969   8.4389  -0.8161  -1.3756   4.0764   0.00    0.0
2188 432390.000   2248127.1257    865685.0983   5886425.8850   5   9   2.5963   1.6972   8.3526  -0.8159  -1.3781   4.0336   0.00    0.0
2188 432420.000   2248126.9660    865685.0281   5886426.1626   5   9   2.5810   1.6976   8.2664  -0.8156  -1.3800   3.9907   0.00    0.0
2188 432450.000   2248126.9159    865685.1560   5886426.0723   5   9   2.5658   1.6979   8.1804  -0.8150  -1.3814   3.9479   0.00    0.0
2188 432480.000   2248127.3164    865685.0809   5886426.9685   5   9   2.5507   1.6982   8.0948  -0.8143  -1.3824   3.9052   0.00    0.0
2188 432510.000   2248127.0164    865685.0323   5886425.7853   5   9   2.5357   1.6985   8.0096  -0.8133  -1.3828   3.8627   0.00    0.0
2188 432540.000   2248127.1181    865685.1618   5886425.9540   5   9   2.5209   1.6988   7.9249  -0.8122  -1.3829   3.8203   0.00    0.0
2188 432570.000   2248127.1040    865685.2104   5886426.4845   5   9   2.5063   1.6992   7.8409  -0.8109  -1.3826   3.7783   0.00    0.0
2188 432600.000   2248127.1851    865685.0773   5886426.4291   5   9   2.4919   1.6995   7.7575  -0.8095  -1.3820   3.7365   0.00    0.0
2188 432630.000   2248127.5360    865685.1362   5886427.8712   5   9   2.4776   1.6998   7.6749  -0.8079  -1.3810   3.6950   0.00    0.0
2188 432660.000   2248127.3362    865684.9560   5886426.3870   5   9   2.4636   1.7002   7.5932  -0.8062  -1.3797   3.6539   0.00    0.0
2188 432690.000   2248127.0011    865685.3108   5886425.7079   5   9   2.4498   1.7005   7.5123  -0.8044  -1.3782   3.6131   0.00    0.0
2188 432720.000   2248127.0648    865685.1739   5886425.9054   5   9   2.4362   1.7009   7.4324  -0.8025  -1.3765   3.5728   0.00    0.0
2188 432750.000   2248127.6473    865684.9945   5886426.8320   5   9   2.4229   1.7012   7.3534  -0.8005  -1.3745   3.5329   0.00    0.0
2188 432780.000   2248127.1229    865684.9440   5886425.4011   5   9   2.4098   1.7016   7.2755  -0.7984  -1.3723   3.4935   0.00    0.0
2188 432810.000   2248126.8189    865685.2738   5886426.2031   5   9   2.3970   1.7019   7.1986  -0.7962  -1.3700   3.4545   0.00    0.0
2188 432840.000   2248127.0284    865685.1802   5886425.8541   5   9   2.3844   1.7023   7.1228  -0.7939  -1.3675   3.4160   0.00    0.0
2188 432870.000   2248126.9393    865685.2227   5886426.3378   5   9   2.3721   1.7027   7.0481  -0.7916  -1.3648   3.3781   0.00    0.0
2188 432900.000   2248126.9544    865685.1866   5886426.4628   5   9   2.3600   1.7031   6.9745  -0.7892  -1.3621   3.3406   0.00    0.0
2188 432930.000   2248127.2225    865685.2412   5886426.2331   5   9   2.3482   1.7035   6.9020  -0.7868  -1.3592   3.3036   0.00    0.0
2188 432960.000   2248127.0061    865684.9623   5886425.7627   5   9   2.3367   1.7039   6.8306  -0.7843  -1.3563   3.2671   0.00    0.0
2188 432990.000   2248126.9284    865685.2472   5886425.8263   5   9   2.3255   1.7043   6.7604  -0.7818  -1.3532   3.2312   0.00    0.0
2188 433020.000   2248127.3272    865684.7505   5886427.5317   5   9   2.3145   1.7047   6.6914  -0.7793  -1.3501   3.1958   0.00    0.0
2188 433050.000   2248126.8846    865684.9929   5886426.0397   5   9   2.3037   1.7052   6.6235  -0.7767  -1.3470   3.1609   0.00    0.0
2188 433080.000   2248126.9919    865684.5865   5886425.7742   5  10   2.2822   1.6324   5.9364  -0.8428  -1.7838   3.0249   0.00    0.0
2188 433110.000   2248126.9781    865684.7856   5886425.0571   5  10   2.2741   1.6314   5.9015  -0.8342  -1.7740   3.0033   0.00    0.0
2188 433140.000   2248127.2111    865684.9358   5886425.5448   5  10   2.2660   1.6303   5.8666  -0.8255  -1.7641   2.9816   0.00    0.0
2188 433170.000   2248126.7900    865684.8200   5886425.0090   5  10   2.2579   1.6292   5.8316  -0.8167  -1.7541   2.9598   0.00    0.0
2188 433200.000   2248126.7982    865684.7229   5886424.6553   5  10   2.2498   1.6282   5.7966  -0.8078  -1.7441   2.9380   0.00    0.0
2188 433230.000   2248126.6230    865684.8200   5886424.3375   5  10   2.2418   1.6272   5.7617  -0.7988  -1.7340   2.9161   0.00    0.0
2188 433260.000   2248126.9520    865684.9079   5886424.8669   5  10   2.2338   1.6262   5.7268  -0.7897  -1.7238   2.8942   0.00    0.0
2188 433290.000   2248127.0124    865684.9065   5886425.6962   5  10   2.2258   1.6252   5.6919  -0.7806  -1.7135   2.8723   0.00    0.0
2188 433320.000   2248126.9616    865684.8649   5886425.5163   5  10   2.2179   1.6243   5.6571  -0.7713  -1.7033   2.8503   0.00    0.0
2188 433350.000   2248126.9579    865684.8351   5886425.6346   5  10   2.2101   1.6233   5.6224  -0.7619  -1.6930   2.8284   0.00    0.0
2188 433380.000   2248127.0502    865684.5081   5886425.5924   5  10   2.2022   1.6224   5.5878  -0.7525  -1.6826   2.8064   0.00    0.0
2188 433410.000   2248127.0791    865684.6269   5886424.7246   5  10   2.1945   1.6215   5.5533  -0.7430  -1.6723   2.7845   0.00    0.0
2188 433440.000   2248126.9531    865684.8746   5886424.8820   5  10   2.1868   1.6207   5.5190  -0.7334  -1.6620   2.7626   0.00    0.0
2188 433470.000   2248126.5820    865684.4992   5886424.7295   5  10   2.1792   1.6199   5.4849  -0.7238  -1.6517   2.7408   0.00    0.0
2188 433500.000   2248127.0578    865684.8222   5886424.9408   5  10   2.1717   1.6191   5.4509  -0.7140  -1.6414   2.7189   0.00    0.0
2188 433530.000   2248126.9898    865684.7786   5886425.4364   5  10   2.1642   1.6183   5.4171  -0.7042  -1.6311   2.6972   0.00    0.0
2188 433560.000   2248127.0032    865684.6573   5886425.5809   5  10   2.1569   1.6176   5.3835  -0.6944  -1.6208   2.6755   0.00    0.0
2188 433590.000   2248127.0108    865684.9093   5886425.4620   5  10   2.1496   1.6169   5.3501  -0.6845  -1.6106   2.6538   0.00    0.0
2188 433620.000   2248126.8199    865684.7295   5886425.2954   5  10   2.1424   1.6162   5.3170  -0.6745  -1.6004   2.6323   0.00    0.0
2188 433650.000   2248126.6786    865684.9420   5886424.8548   5  10   2.1353   1.6156   5.2841  -0.6644  -1.5903   2.6108   0.00    0.0
2188 433680.000   2248127.0125    865684.7436   5886425.4944   5  10   2.1282   1.6150   5.2514  -0.6543  -1.5802   2.5894   0.00    0.0
2188 433710.000   2248126.7909    865684.5947   5886425.5082   5  10   2.1213   1.6144   5.2190  -0.6441  -1.5702   2.5681   0.00    0.0
2188 433740.000   2248126.8422    865684.6814   5886424.5492   5  10   2.1145   1.6139   5.1869  -0.6339  -1.5602   2.5469   0.00    0.0
2188 433770.000   2248127.1576    865684.7524   5886425.3646   5  10   2.1077   1.6134   5.1550  -0.6236  -1.5504   2.5258   0.00    0.0
2188 433800.000   2248127.0446    865684.8930   5886424.7973   5  10   2.1011   1.6130   5.1235  -0.6132  -1.5405   2.5048   0.00    0.0
2188 433830.000   2248126.9397    865684.7820   5886425.5039   5  10   2.0946   1.6125   5.0922  -0.6027  -1.5308   2.4840   0.00    0.0
2188 433860.000   2248126.9901    865684.4834   5886425.6559   5  10   2.0882   1.6122   5.0612  -0.5922  -1.5212   2.4632   0.00    0.0
2188 433890.000   2248126.9909    865684.6757   5886425.4922   5  10   2.0818   1.6118   5.0305  -0.5816  -1.5116   2.4425   0.00    0.0
2188 433920.000   2248127.2101    865684.6430   5886425.5086   5  10   2.0756   1.6116   5.0002  -0.5709  -1.5021   2.4220   0.00    0.0
2188 433950.000   2248127.0406    865685.0434   5886425.7155   5  10   2.0695   1.6113   4.9702  -0.5601  -1.4927   2.4016   0.00    0.0
2188 433980.000   2248126.6483    865684.6633   5886424.5617   5  10   2.0635   1.6111   4.9404  -0.5493  -1.4834   2.3813   0.00    0.0
2188 434010.000   2248126.7882    865684.8026   5886425.1881   5  10   2.0576   1.6109   4.9111  -0.5383  -1.4742   2.3612   0.00    0.0
2188 434040.000   2248126.7204    865684.8879   5886425.3613   5   9   2.0827   1.7813   4.9405  -0.0787  -1.2531   2.3983   0.00    0.0
2188 434070.000   2248126.6015    865684.5951   5886424.7404   5   9   2.0771   1.7805   4.9134   0.0681  -1.2406   2.3795   0.00    0.0
2188 434100.000   2248126.7391    865684.5606   5886425.3241   5   9   2.0716   1.7797   4.8866   0.1236  -1.2283   2.3607   0.00    0.0
2188 434130.000   2248126.7555    865684.5673   5886425.0477   5   9   2.0661   1.7790   4.8602   0.1603  -1.2161   2.3421   0.00    0.0
2188 434160.000   2248126.4936    865684.3548   5886424.9924   5   9   2.0608   1.7783   4.8340   0.1896  -1.2041   2.3236   0.00    0.0
2188 434190.000   2248126.7263    865684.7911   5886425.0878   5   9   2.0555   1.7776   4.8082   0.2145  -1.1922   2.3052   0.00    0.0
2188 434220.000   2248126.7275    865684.8496   5886425.5277   5   9   2.0503   1.7770   4.7828   0.2363  -1.1805   2.2869   0.00    0.0
2188 434250.000   2248126.7403    865684.6667   5886425.3609   5   9   2.0452   1.7765   4.7577   0.2560  -1.1690   2.2687   0.00    0.0
2188 434280.000   2248126.8952    865684.6823   5886425.1461   5   9   2.0402   1.7760   4.7329   0.2739  -1.1576   2.2506   0.00    0.0
2188 434310.000   2248126.6445    865684.8956   5886424.5751   5   9   2.0353   1.7755   4.7084   0.2904  -1.1464   2.2326   0.00    0.0
2188 434340.000   2248126.9655    865684.7316   5886425.2246   5   9   2.0305   1.7751   4.6843   0.3057  -1.1353   2.2147   0.00    0.0
2188 434370.000   2248126.7608    865685.0271   5886425.3192   5   9   2.0258   1.7747   4.6605   0.3200  -1.1245   2.1970   0.00    0.0
2188 434400.000   2248126.7461    865684.5642   5886425.4721   5   9   2.0212   1.7744   4.6370   0.3335  -1.1138   2.1793   0.00    0.0
2188 434430.000   2248126.8857    865684.9138   5886426.0278   5   9   2.0167   1.7741   4.6139   0.3462  -1.1033   2.1617   0.00    0.0
2188 434460.000   2248126.5120    865684.7195   5886425.2876   5   9   2.0122   1.7739   4.5911   0.3582  -1.0929   2.1443   0.00    0.0
2188 434490.000   2248126.6393    865684.8029   5886425.2644   5   9   2.0079   1.7737   4.5687   0.3696  -1.0827   2.1269   0.00    0.0
2188 434520.000   2248126.9461    865684.8938   5886424.5490   5   9   2.0036   1.7735   4.5466   0.3804  -1.0728   2.1096   0.00    0.0
2188 434550.000   2248126.8633    865684.6443   5886424.8341   5   9   1.9994   1.7734   4.5248   0.3908  -1.0629   2.0925   0.00    0.0
2188 434580.000   2248126.9853    865684.9764   5886425.2615   5   9   1.9954   1.7734   4.5034   0.4007  -1.0533   2.0754   0.00    0.0
2188 434610.000   2248126.7478    865684.6707   5886424.9062   5   9   1.9914   1.7734   4.4823   0.4101  -1.0439   2.0584   0.00    0.0
2188 434640.000   2248126.6749    865684.7312   5886424.8121   5   9   1.9875   1.7734   4.4615   0.4192  -1.0346   2.0415   0.00    0.0
2188 434670.000   2248126.4764    865684.6130   5886425.2733   5   9   1.9837   1.7735   4.4411   0.4280  -1.0255   2.0247   0.00    0.0
2188 434700.000   2248126.9105    865684.7423   5886425.6839   5   9   1.9800   1.7736   4.4210   0.4364  -1.0166   2.0080   0.00    0.0
2188 434730.000   2248126.8641    865684.8124   5886425.3797   5   9   1.9763   1.7738   4.4013   0.4445  -1.0079   1.9913   0.00    0.0
2188 434760.000   2248126.4974    865684.8869   5886425.1633   5   9   1.9728   1.7740   4.3819   0.4523  -0.9994   1.9748   0.00    0.0
2188 434790.000   2248126.6524    865684.9338   5886424.6812   5   9   1.9693   1.7742   4.3629   0.4598  -0.9911   1.9583   0.00    0.0
2188 434820.000   2248126.4764    865684.9919   5886424.3959   5   9   1.9660   1.7745   4.3441   0.4671  -0.9829   1.9419   0.00    0.0
2188 434850.000   2248126.7836    865684.7685   5886425.0916   5   9   1.9627   1.7749   4.3258   0.4741  -0.9750   1.9255   0.00    0.0
2188 434880.000   2248126.3596    865685.0602   5886424.3822   5   9   1.9595   1.7752   4.3078   0.4810  -0.9673   1.9093   0.00    0.0
2188 434910.000   2248126.3551    865684.8452   5886424.3557   5   9   1.9564   1.7757   4.2901   0.4876  -0.9597   1.8931   0.00    0.0
2188 434940.000   2248126.9303    865684.7657   5886425.0683   5   9   1.9534   1.7761   4.2727   0.4940  -0.9523   1.8769   0.00    0.0
2188 434970.000   2248126.6327    865685.1814   5886424.9954   5   9   1.9505   1.7766   4.2558   0.5002  -0.9452   1.8608   0.00    0.0
2188 435000.000   2248126.8807    865684.8621   5886424.9615   5   9   1.9476   1.7772   4.2391   0.5062  -0.9382   1.8448   0.00    0.0
2188 435030.000   2248126.7025    865684.9965   5886424.6883   5   9   1.9449   1.7778   4.2228   0.5121  -0.9315   1.8288   0.00    0.0
2188 435060.000   2248126.7445    865684.7027   5886424.6054   5   8   2.0289   1.7895   6.2115   0.6204  -1.3285   0.7782   0.00    0.0
2188 435090.000   2248126.6906    865685.1417   5886424.6568   5   9   1.8955   1.6954   6.2030  -0.1522  -1.3665   0.6089   0.00    0.0
2188 435120.000   2248126.7294    865685.0156   5886424.5561   5   9   1.8959   1.6949   6.1983  -0.1322  -1.3568   0.5475   0.00    0.0
2188 435150.000   2248126.6549    865685.2421   5886424.2698   5   9   1.8965   1.6945   6.1935  -0.1089  -1.3471   0.4789   0.00    0.0
2188 435180.000   2248126.4510    865684.7860   5886424.3434   5   9   1.8971   1.6941   6.1885  -0.0797  -1.3374   0.3991   0.00    0.0
2188 435210.000   2248126.6708    865684.9778   5886424.3260   5   9   1.8978   1.6938   6.1833  -0.0309  -1.3277   0.2994   0.00    0.0
2188 435240.000   2248126.5949    865684.8659   5886423.1756   5   9   1.8985   1.6936   6.1780   0.0660  -1.3181   0.1431   0.00    0.0
2188 435270.000   2248126.8547    865685.0051   5886423.5174   5   9   1.8994   1.6934   6.1724   0.0978  -1.3086  -0.2196   0.00    0.0
2188 435300.000   2248126.5895    865685.0251   5886424.3192   5   9   1.9003   1.6932   6.1668   0.1212  -1.2991  -0.3412   0.00    0.0
2188 435330.000   2248126.7262    865685.0097   5886423.2178   5   9   1.9013   1.6931   6.1610   0.1405  -1.2896  -0.4292   0.00    0.0
2188 435360.000   2248126.9325    865685.1919   5886422.4636   5   9   1.9024   1.6930   6.1550   0.1571  -1.2803  -0.5014   0.00    0.0
2188 435390.000   2248126.7349    865685.3166   5886424.4305   5   9   1.9036   1.6930   6.1488   0.1719  -1.2709  -0.5641   0.00    0.0
2188 435420.000   2248126.7919    865684.9915   5886423.4535   5   9   1.9049   1.6930   6.1426   0.1852  -1.2617  -0.6200   0.00    0.0
2188 435450.000   2248126.5813    865685.1289   5886423.6880   5   9   1.9062   1.6931   6.1362   0.1975  -1.2526  -0.6709   0.00    0.0
2188 435480.000   2248126.7308    865684.8753   5886424.1659   5   9   1.9076   1.6932   6.1296   0.2088  -1.2435  -0.7179   0.00    0.0
2188 435510.000   2248126.6157    865684.8595   5886423.5556   5   9   1.9090   1.6934   6.1229   0.2194  -1.2345  -0.7616   0.00    0.0
2188 435540.000   2248126.8945    865685.1466   5886423.8552   5   9   1.9106   1.6937   6.1161   0.2294  -1.2257  -0.8025   0.00    0.0
2188 435570.000   2248127.0234    865684.9212   5886423.0180   5   9   1.9122   1.6939   6.1092   0.2388  -1.2169  -0.8412   0.00    0.0
2188 435600.000   2248126.4386    865685.4298   5886423.1111   5   9   1.8392   1.6749   5.8921   0.4435  -1.0267  -1.2692   0.00    0.0
2188 435630.000   2248126.3797    865685.5156   5886422.9448   5   9   1.8408   1.6759   5.8908   0.4460  -1.0227  -1.2895   0.00    0.0
2188 435660.000   2248126.4592    865685.5910   5886423.1211   5   9   1.8424   1.6770   5.8893   0.4485  -1.0188  -1.3092   0.00    0.0
2188 435690.000   2248126.5291    865685.5005   5886424.5082   5   9   1.8440   1.6781   5.8877   0.4509  -1.0151  -1.3284   0.00    0.0
2188 435720.000   2248126.5552    865685.3003   5886423.2389   5   9   1.8457   1.6792   5.8861   0.4534  -1.0115  -1.3472   0.00    0.0
2188 435750.000   2248126.6724    865685.3092   5886423.4437   5   9   1.8474   1.6804   5.8843   0.4557  -1.0080  -1.3654   0.00    0.0
2188 435780.000   2248126.0579    865685.2936   5886424.1780   5   9   1.8491   1.6816   5.8824   0.4581  -1.0047  -1.3833   0.00    0.0
2188 435810.000   2248126.6031    865685.5253   5886422.7504   5   9   1.8509   1.6828   5.8804   0.4604  -1.0016  -1.4006   0.00    0.0
2188 435840.000   2248126.5151    865685.2735   5886423.4422   5   9   1.8527   1.6841   5.8783   0.4627  -0.9986  -1.4176   0.00    0.0
2188 435870.000   2248126.4877    865685.3698   5886424.0292   5   9   1.8546   1.6855   5.8761   0.4650  -0.9957  -1.4342   0.00    0.0
2188 435900.000   2248126.6491    865685.8014   5886422.5246   5   9   1.8564   1.6868   5.8739   0.4672  -0.9931  -1.4503   0.00    0.0
2188 435930.000   2248126.4057    865684.4799   5886427.2609   5   8   1.8800   3.0285  13.7866   0.9674  -5.6872  -2.3873   0.00    0.0
2188 435960.000   2248126.1676    865684.3837   5886428.3488   5   8   1.8855   3.0501  13.9406   1.0018  -5.7520  -2.4668   0.00    0.0
2188 435990.000   2248126.1948    865684.8313   5886427.5124   5   8   1.8914   3.0714  14.0930   1.0359  -5.8160  -2.5457   0.00    0.0
2188 436020.000   2248126.8745    865685.0348   5886426.3921   5   7   2.0948   3.0939  14.3427   1.0306  -5.8921  -2.3214   0.00    0.0
2188 436050.000   2248126.6722    865684.8012   5886425.7189   5   7   2.0980   3.1149  14.5003   1.0603  -5.9563  -2.3942   0.00    0.0
2188 436080.000   2248126.6079    865684.8055   5886425.6048   5   7   2.1015   3.1356  14.6557   1.0896  -6.0192  -2.4663   0.00    0.0
2188 436110.000   2248126.6297    865684.6503   5886427.1976   5   7   2.1051   3.1557  14.8082   1.1186  -6.0807  -2.5375   0.00    0.0
2188 436140.000   2248126.8326    865685.0611   5886427.4008   5   6   2.1502   3.1906  15.8523   1.2028  -6.0057  -2.1446   0.00    0.0
2188 436170.000   2248126.8694    865684.8425   5886430.6964   5   6   2.1512   3.2052  16.1031   1.2198  -6.0783  -2.2158   0.00    0.0
2188 436200.000   2248126.6757    865684.9207   5886428.7886   5   6   2.1524   3.2197  16.3587   1.2370  -6.1515  -2.2878   0.00    0.0
2188 436230.000   2248126.6889    865684.7740   5886428.3952   5   6   2.1537   3.2342  16.6187   1.2545  -6.2252  -2.3605   0.00    0.0
2188 436260.000   2248126.8669    865684.9102   5886426.7244   5   6   2.1552   3.2484  16.8830   1.2722  -6.2992  -2.4339   0.00    0.0
2188 436290.000   2248126.6585    865684.8706   5886428.4664   5   6   2.1569   3.2625  17.1513   1.2900  -6.3735  -2.5081   0.00    0.0
2188 436320.000   2248126.7432    865684.9561   5886427.6189   5   6   2.1587   3.2764  17.4234   1.3080  -6.4479  -2.5830   0.00    0.0
2188 436350.000   2248126.4433    865684.5252   5886430.4708   5   6   2.1607   3.2899  17.6988   1.3261  -6.5221  -2.6585   0.00    0.0
2188 436380.000   2248126.7329    865684.6404   5886428.8701   5   6   2.1629   3.3031  17.9772   1.3444  -6.5961  -2.7347   0.00    0.0
2188 436410.000   2248126.6380    865684.7957   5886428.4897   5   6   2.1653   3.3159  18.2581   1.3627  -6.6696  -2.8114   0.00    0.0
2188 436440.000   2248126.7354    865684.7981   5886427.6436   5   6   2.1678   3.3282  18.5409   1.3810  -6.7424  -2.8885   0.00    0.0
2188 436470.000   2248126.9927    865684.9293   5886430.1030   5   6   2.1706   3.3399  18.8251   1.3994  -6.8142  -2.9661   0.00    0.0
2188 436500.000   2248126.6230    865684.7581   5886426.7893   5   6   2.1735   3.3510  19.1099   1.4176  -6.8847  -3.0439   0.00    0.0
2188 436530.000   2248126.6747    865684.6546   5886428.8045   5   6   2.1766   3.3613  19.3945   1.4358  -6.9536  -3.1218   0.00    0.0
2188 436560.000   2248126.5039    865684.5549   5886429.3446   5   6   2.1799   3.3708  19.6781   1.4538  -7.0205  -3.1997   0.00    0.0
2188 436590.000   2248126.6536    865684.4639   5886430.3459   5   6   2.1833   3.3793  19.9598   1.4715  -7.0852  -3.2773   0.00    0.0
2188 436620.000   2248126.4528    865684.7352   5886430.8376   5   6   2.1869   3.3869  20.2384   1.4889  -7.1473  -3.3546   0.00    0.0
2188 436650.000   2248126.6507    865684.9229   5886428.4213   5   6   2.1907   3.3933  20.5129   1.5060  -7.2062  -3.4313   0.00    0.0
2188 436680.000   2248126.9925    865685.4719   5886424.4618   5   6   2.1946   3.3985  20.7820   1.5226  -7.2616  -3.5071   0.00    0.0
2188 436710.000   2248126.5394    865685.0007   5886427.1967   5   6   2.1986   3.4023  21.0445   1.5386  -7.3131  -3.5818   0.00    0.0
2188 436740.000   2248126.7890    865685.1489   5886427.5225   5   6   2.2027   3.4046  21.2991   1.5540  -7.3602  -3.6551   0.00    0.0
2188 436770.000   2248126.7584    865685.1890   5886429.1062   5   6   2.2069   3.4054  21.5442   1.5687  -7.4025  -3.7268   0.00    0.0
2188 436800.000   2248126.5298    865685.3648   5886425.4910   5   6   2.2112   3.4046  21.7786   1.5825  -7.4394  -3.7965   0.00    0.0
2188 436830.000   2248126.7237    865685.1194   5886427.7931   5   6   2.2155   3.4020  22.0006   1.5955  -7.4705  -3.8640   0.00    0.0
2188 436860.000   2248126.8527    865685.7390   5886423.6466   5   7   2.0653   2.0743   4.6075   0.6279   1.5096   1.4974   0.00    0.0
2188 436890.000   2248126.7151    865685.7883   5886424.1179   5   7   2.0637   2.0757   4.6227   0.6288   1.5254   1.4985   0.00    0.0
2188 436920.000   2248126.6425    865685.5703   5886423.6856   5   7   2.0622   2.0772   4.6382   0.6298   1.5411   1.4996   0.00    0.0
2188 436950.000   2248126.5354    865685.7050   5886422.5383   5   8   2.0607   1.7735   4.0466   0.6317  -0.2633   1.5015   0.00    0.0
2188 436980.000   2248126.7700    865685.1714   5886422.8120   5   8   2.0592   1.7718   4.0591   0.6335  -0.2138   1.5033   0.00    0.0
2188 437010.000   2248126.2700    865685.3009   5886423.2343   5   8   2.0578   1.7701   4.0719   0.6354  -0.1480   1.5051   0.00    0.0
2188 437040.000   2248127.0769    865685.5860   5886423.2759   5   8   2.0563   1.7685   4.0850   0.6373   0.0460   1.5068   0.00    0.0
2188 437070.000   2248127.0240    865685.6861   5886423.7313   5   8   2.0548   1.7669   4.0985   0.6392   0.1623   1.5085   0.00    0.0
2188 437100.000   2248126.9753    865685.4460   5886423.4810   5   8   2.0534   1.7654   4.1122   0.6411   0.2253   1.5103   0.00    0.0
2188 437130.000   2248127.0175    865685.4776   5886423.3540   5   8   2.0519   1.7639   4.1262   0.6430   0.2746   1.5119   0.00    0.0
2188 437160.000   2248126.9880    865685.3174   5886423.2709   5   8   2.0505   1.7625   4.1405   0.6450   0.3167   1.5136   0.00    0.0
2188 437190.000   2248126.8691    865685.3857   5886423.1551   5   8   2.0491   1.7612   4.1551   0.6470   0.3542   1.5152   0.00    0.0
2188 437220.000   2248127.0147    865685.3171   5886423.7132   5   8   2.0477   1.7598   4.1700   0.6490   0.3884   1.5168   0.00    0.0
2188 437250.000   2248126.5540    865685.5768   5886423.5096   5   8   2.0463   1.7586   4.1851   0.6510   0.4202   1.5184   0.00    0.0
2188 437280.000   2248126.9526    865685.5396   5886423.4133   5   8   2.0449   1.7573   4.2006   0.6530   0.4500   1.5199   0.00    0.0
2188 437310.000   2248126.6820    865685.3149   5886423.2587   5   8   2.0435   1.7562   4.2163   0.6551   0.4782   1.5215   0.00    0.0
2188 437340.000   2248126.8007    865685.2642   5886423.4136   5   8   2.0421   1.7551   4.2324   0.6572   0.5052   1.5230   0.00    0.0
2188 437370.000   2248126.7333    865685.2186   5886423.1403   5   8   2.0408   1.7540   4.2487   0.6592   0.5311   1.5244   0.00    0.0
2188 437400.000   2248126.9523    865685.3940   5886423.4012   5   8   2.0395   1.7529   4.2653   0.6613   0.5560   1.5258   0.00    0.0
2188 437430.000   2248126.9923    865685.3219   5886423.7954   5   8   2.0381   1.7520   4.2821   0.6635   0.5802   1.5272   0.00    0.0
2188 437460.000   2248126.8789    865685.3919   5886423.3364   5   8   2.0368   1.7510   4.2993   0.6656   0.6037   1.5286   0.00    0.0
2188 437490.000   2248126.6031    865685.3799   5886422.9548   5   8   2.0355   1.7502   4.3167   0.6677   0.6265   1.5299   0.00    0.0
2188 437520.000   2248126.9150    865685.2769   5886423.7337   5   8   2.0343   1.7493   4.3344   0.6699   0.6488   1.5312   0.00    0.0
2188 437550.000   2248126.7576    865685.4515   5886423.3851   5   8   2.0330   1.7485   4.3524   0.6721   0.6707   1.5324   0.00    0.0
2188 437580.000   2248126.7892    865685.2641   5886423.8272   5   9   1.8312   1.7166   4.2006   0.8626   0.9360   1.1354   0.00    0.0
2188 437610.000   2248126.5022    865685.1501   5886423.0713   5   9   1.8297   1.7164   4.2217   0.8630   0.9488   1.1393   0.00    0.0
2188 437640.000   2248126.8473    865685.5783   5886423.0467   5   9   1.8282   1.7163   4.2430   0.8634   0.9617   1.1433   0.00    0.0
2188 437670.000   2248126.7211    865685.1493   5886423.5429   5   9   1.8268   1.7162   4.2647   0.8638   0.9746   1.1472   0.00    0.0
2188 437700.000   2248126.4511    865685.2749   5886423.3691   5   9   1.8254   1.7162   4.2867   0.8643   0.9875   1.1511   0.00    0.0
2188 437730.000   2248126.5035    865685.2673   5886423.3444   5   9   1.8241   1.7162   4.3089   0.8647   1.0004   1.1551   0.00    0.0
2188 437760.000   2248126.6837    865685.1721   5886423.6564   5   9   1.8227   1.7162   4.3315   0.8652   1.0134   1.1590   0.00    0.0
2188 437790.000   2248126.7241    865685.4242   5886423.4058   5   9   1.8214   1.7163   4.3543   0.8657   1.0264   1.1630   0.00    0.0
2188 437820.000   2248126.5961    865684.9923   5886423.0888   5   9   1.8202   1.7165   4.3775   0.8662   1.0395   1.1670   0.00    0.0
2188 437850.000   2248126.5156    865684.9919   5886422.9511   5   9   1.8189   1.7167   4.4009   0.8667   1.0526   1.1710   0.00    0.0
2188 437880.000   2248126.7869    865685.4471   5886422.9571   5   9   1.8177   1.7169   4.4246   0.8673   1.0657   1.1750   0.00    0.0
2188 437910.000   2248126.6921    865685.2967   5886423.2128   5   9   1.8165   1.7172   4.4486   0.8678   1.0789   1.1790   0.00    0.0
2188 437940.000   2248126.6669    865685.2659   5886423.5457   5   9   1.8153   1.7175   4.4729   0.8684   1.0921   1.1830   0.00    0.0
2188 437970.000   2248126.5914    865684.9469   5886423.6009   5   9   1.8142   1.7179   4.4975   0.8690   1.1054   1.1871   0.00    0.0
2188 438000.000   2248126.5425    865685.1241   5886423.1787   5   9   1.8131   1.7183   4.5223   0.8697   1.1188   1.1912   0.00    0.0
2188 438030.000   2248126.7620    865685.1114   5886422.8479   5   8   2.1543   1.7420   4.5949   1.0429   1.2118   1.4819   0.00    0.0
2188 438060.000   2248126.9431    865685.3502   5886423.5148   5   8   2.1529   1.7432   4.6236   1.0455   1.2284   1.4947   0.00    0.0
2188 438090.000   2248126.9614    865685.3291   5886423.4830   5   8   2.1516   1.7444   4.6528   1.0482   1.2451   1.5076   0.00    0.0
2188 438120.000   2248126.6396    865685.4106   5886423.4989   5   8   2.1503   1.7457   4.6824   1.0509   1.2619   1.5206   0.00    0.0
2188 438150.000   2248127.0971    865685.3149   5886423.3247   5   8   2.1491   1.7470   4.7124   1.0537   1.2788   1.5336   0.00    0.0
2188 438180.000   2248126.1944    865685.0957   5886422.8782   5   8   2.1479   1.7484   4.7428   1.0565   1.2959   1.5467   0.00    0.0
2188 438210.000   2248126.6960    865684.9937   5886423.4532   5   8   2.1467   1.7499   4.7737   1.0593   1.3131   1.5600   0.00    0.0
2188 438240.000   2248126.8085    865685.1823   5886423.1932   5   8   2.1455   1.7515   4.8050   1.0622   1.3304   1.5732   0.00    0.0
2188 438270.000   2248126.4442    865685.1314   5886422.7171   5   8   2.1444   1.7531   4.8367   1.0651   1.3479   1.5866   0.00    0.0
2188 438300.000   2248126.3651    865685.2755   5886423.2522   5   8   2.1434   1.7548   4.8689   1.0681   1.3655   1.6000   0.00    0.0
2188 438330.000   2248126.7970    865685.3569   5886423.6687   5   8   2.1423   1.7565   4.9015   1.0711   1.3833   1.6136   0.00    0.0
2188 438360.000   2248126.8115    865685.5571   5886423.7149   5   8   2.1413   1.7583   4.9345   1.0741   1.4012   1.6272   0.00    0.0
2188 438390.000   2248126.7928    865684.9783   5886423.0631   5   8   2.1403   1.7602   4.9680   1.0772   1.4193   1.6408   0.00    0.0
2188 438420.000   2248126.8535    865685.2887   5886423.4214   5   8   2.1394   1.7622   5.0019   1.0804   1.4375   1.6546   0.00    0.0
2188 438450.000   2248126.6083    865685.3723   5886422.3846   5   8   2.1385   1.7642   5.0362   1.0836   1.4558   1.6684   0.00    0.0
2188 438480.000   2248126.5599    865685.0581   5886423.1316   5   8   2.1376   1.7663   5.0709   1.0868   1.4743   1.6823   0.00    0.0
2188 438510.000   2248126.7676    865685.3768   5886423.9001   5   8   2.1368   1.7685   5.1060   1.0901   1.4930   1.6963   0.00    0.0
2188 438540.000   2248126.6564    865685.4722   5886423.6675   5   8   2.1360   1.7708   5.1416   1.0934   1.5118   1.7103   0.00    0.0
2188 438570.000   2248126.7448    865685.1805   5886423.2901   5   8   2.1352   1.7731   5.1775   1.0968   1.5308   1.7244   0.00    0.0
2188 438600.000   2248126.8347    865685.2721   5886423.2272   5   8   2.1345   1.7755   5.2139   1.1002   1.5499   1.7386   0.00    0.0
2188 438630.000   2248126.7110    865685.3153   5886423.8366   5   8   2.1338   1.7780   5.2506   1.1037   1.5691   1.7529   0.00    0.0
2188 438660.000   2248126.6008    865685.1736   5886422.9231   5   8   2.1331   1.7806   5.2877   1.1073   1.5885   1.7672   0.00    0.0
2188 438690.000   2248126.2904    865685.1585   5886422.8212   5   8   2.1324   1.7832   5.3252   1.1108   1.6081   1.7815   0.00    0.0
2188 438720.000   2248126.5315    865685.1567   5886422.6132   5   8   2.1318   1.7859   5.3631   1.1145   1.6278   1.7959   0.00    0.0
2188 438750.000   2248126.5109    865685.4367   5886423.1536   5   8   2.1313   1.7887   5.4013   1.1181   1.6476   1.8104   0.00    0.0
2188 438780.000   2248126.7251    865685.6994   5886423.4727   5   8   2.1307   1.7916   5.4399   1.1218   1.6676   1.8249   0.00    0.0
2188 438810.000   2248126.8044    865685.3144   5886423.3387   5   8   2.1302   1.7946   5.4788   1.1256   1.6877   1.8394   0.00    0.0
2188 438840.000   2248126.8257    865685.3064   5886423.2358   5   8   2.1297   1.7976   5.5180   1.1294   1.7080   1.8540   0.00    0.0
2188 438870.000   2248126.7458    865685.1622   5886423.0717   5   8   2.1292   1.8008   5.5575   1.1333   1.7283   1.8686   0.00    0.0
2188 438900.000   2248126.8607    865685.2307   5886423.3313   5   8   2.1288   1.8040   5.5974   1.1372   1.7488   1.8832   0.00    0.0
2188 438930.000   2248126.6938    865685.3659   5886423.1151   5   8   2.1284   1.8072   5.6375   1.1411   1.7695   1.8979   0.00    0.0
2188 438960.000   2248126.6204    865685.3841   5886423.1416   5   8   2.1280   1.8106   5.6778   1.1451   1.7902   1.9125   0.00    0.0
2188 438990.000   2248126.5843    865685.3791   5886423.9452   5   8   2.1276   1.8140   5.7184   1.1492   1.8110   1.9272   0.00    0.0
2188 439020.000   2248126.7157    865685.3144   5886423.2128   5   8   2.1273   1.8176   5.7592   1.1532   1.8320   1.9418   0.00    0.0
2188 439050.000   2248126.3544    865685.0248   5886422.6650   5   8   2.1270   1.8212   5.8002   1.1574   1.8530   1.9565   0.00    0.0
2188 439080.000   2248126.6834    865685.2540   5886422.8966   5   8   2.1267   1.8249   5.8414   1.1615   1.8741   1.9711   0.00    0.0
2188 439110.000   2248126.6013    865685.3255   5886423.8792   5   8   2.1264   1.8286   5.8827   1.1657   1.8953   1.9857   0.00    0.0
2188 439140.000   2248126.6404    865685.2787   5886423.5419   5   8   2.1262   1.8325   5.9241   1.1699   1.9165   2.0002   0.00    0.0
2188 439170.000   2248126.7840    865685.2947   5886423.0132   5   8   2.1259   1.8364   5.9657   1.1741   1.9378   2.0147   0.00    0.0
2188 439200.000   2248126.5605    865684.8806   5886422.9181   5   8   2.1911   1.8446   6.2110   1.1499   1.9083   2.2262   0.00    0.0
2188 439230.000   2248126.6018    865685.1867   5886423.4933   5   8   2.1921   1.8482   6.2610   1.1557   1.9321   2.2456   0.00    0.0
2188 439260.000   2248126.9312    865685.3129   5886423.9720   5   8   2.1932   1.8519   6.3112   1.1616   1.9559   2.2650   0.00    0.0
2188 439290.000   2248126.5858    865685.1386   5886422.5274   5   8   2.1943   1.8556   6.3617   1.1675   1.9799   2.2845   0.00    0.0
2188 439320.000   2248126.4267    865685.0519   5886423.4303   5   8   2.1954   1.8595   6.4123   1.1735   2.0041   2.3039   0.00    0.0
2188 439350.000   2248126.7411    865685.6262   5886423.6607   5   8   2.1966   1.8635   6.4632   1.1796   2.0283   2.3234   0.00    0.0
2188 439380.000   2248126.3695    865685.2558   5886423.8720   5   8   2.1977   1.8675   6.5141   1.1857   2.0526   2.3428   0.00    0.0
2188 439410.000   2248126.6423    865685.3380   5886423.4882   5   8   2.1990   1.8717   6.5650   1.1918   2.0770   2.3621   0.00    0.0
2188 439440.000   2248126.6469    865685.2561   5886423.0100   5   8   2.2002   1.8759   6.6160   1.1980   2.1015   2.3814   0.00    0.0
2188 439470.000   2248126.6892    865685.5124   5886422.6089   5   8   2.2015   1.8802   6.6670   1.2042   2.1260   2.4006   0.00    0.0
2188 439500.000   2248126.7528    865685.5471   5886423.4389   5   8   2.2028   1.8846   6.7178   1.2105   2.1505   2.4197   0.00    0.0
2188 439530.000   2248126.9970    865685.2390   5886423.7482   5   8   2.2041   1.8891   6.7685   1.2167   2.1751   2.4387   0.00    0.0
2188 439560.000   2248126.2383    865685.0390   5886422.7022   5   8   2.2054   1.8937   6.8191   1.2230   2.1996   2.4576   0.00    0.0
2188 439590.000   2248126.4407    865685.0624   5886422.7879   5   8   2.2067   1.8983   6.8693   1.2293   2.2241   2.4762   0.00    0.0
2188 439620.000   2248126.5014    865685.3368   5886423.2703   5   8   2.2080   1.9030   6.9192   1.2357   2.2485   2.4947   0.00    0.0
2188 439650.000   2248126.6570    865685.3020   5886422.2899   5   8   2.2093   1.9078   6.9688   1.2420   2.2728   2.5130   0.00    0.0
2188 439680.000   2248126.4375    865685.3794   5886422.5263   5   8   2.2107   1.9127   7.0178   1.2483   2.2970   2.5310   0.00    0.0
2188 439710.000   2248126.4776    865685.4848   5886422.7114   5   8   2.2120   1.9176   7.0664   1.2546   2.3211   2.5488   0.00    0.0
2188 439740.000   2248126.5485    865685.2940   5886423.4209   5   8   2.2133   1.9225   7.1143   1.2609   2.3450   2.5663   0.00    0.0
2188 439770.000   2248126.4058    865685.0961   5886422.8920   5   8   2.2145   1.9275   7.1615   1.2671   2.3687   2.5834   0.00    0.0
2188 439800.000   2248126.5403    865685.2107   5886423.8980   5   8   2.2158   1.9326   7.2080   1.2733   2.3921   2.6002   0.00    0.0
2188 439830.000   2248126.2813    865685.0937   5886422.7266   5   8   2.2170   1.9377   7.2536   1.2795   2.4153   2.6166   0.00    0.0
2188 439860.000   2248126.2243    865685.2850   5886422.2972   5   8   2.2181   1.9428   7.2983   1.2855   2.4383   2.6326   0.00    0.0
2188 439890.000   2248126.5741    865685.4857   5886422.8126   5   8   2.2192   1.9479   7.3420   1.2916   2.4608   2.6481   0.00    0.0
2188 439920.000   2248126.4104    865685.2074   5886423.0973   5   8   2.2203   1.9531   7.3845   1.2975   2.4831   2.6632   0.00    0.0
2188 439950.000   2248126.4921    865685.2572   5886422.9775   5   8   2.2213   1.9583   7.4259   1.3033   2.5049   2.6778   0.00    0.0
2188 439980.000   2248126.5369    865685.1709   5886422.8423   5   8   2.2223   1.9634   7.4660   1.3091   2.5263   2.6918   0.00    0.0
2188 440010.000   2248126.6504    865685.1396   5886423.0531   5   8   2.2231   1.9686   7.5048   1.3147   2.5472   2.7053   0.00    0.0
2188 440040.000   2248126.7229    865685.4129   5886424.1110   5   8   2.2239   1.9737   7.5421   1.3202   2.5676   2.7182   0.00    0.0
2188 440070.000   2248126.5904    865685.2398   5886422.8828   5   8   2.2247   1.9788   7.5779   1.3256   2.5875   2.7305   0.00    0.0
2188 440100.000   2248126.3363    865685.1978   5886422.3528   5   8   2.2253   1.9839   7.6120   1.3308   2.6068   2.7421   0.00    0.0
2188 440130.000   2248126.9151    865685.2167   5886423.3900   5   8   2.2258   1.9890   7.6445   1.3359   2.6255   2.7530   0.00    0.0
2188 440160.000   2248126.5362    865685.1695   5886423.1126   5   8   2.2263   1.9939   7.6752   1.3408   2.6435   2.7632   0.00    0.0
2188 440190.000   2248126.5542    865685.4097   5886422.9184   5   8   2.2266   1.9989   7.7040   1.3455   2.6609   2.7726   0.00    0.0
2188 440220.000   2248126.3805    865685.1151   5886422.7620   5   8   2.2268   2.0037   7.7309   1.3500   2.6775   2.7813   0.00    0.0
2188 440250.000   2248126.3472    865685.3168   5886423.2176   5   8   2.2269   2.0085   7.7558   1.3543   2.6934   2.7892   0.00    0.0
2188 440280.000   2248126.5311    865685.1732   5886423.0522   5   8   2.2269   2.0132   7.7786   1.3584   2.7085   2.7963   0.00    0.0
2188 440310.000   2248126.6733    865685.2165   5886423.0037   5   8   2.2268   2.0177   7.7993   1.3624   2.7228   2.8026   0.00    0.0
2188 440340.000   2248126.5374    865685.1954   5886422.6571   5   8   2.2265   2.0222   7.8178   1.3660   2.7363   2.8080   0.00    0.0
2188 440370.000   2248126.6428    865685.1416   5886422.6286   5   8   2.2262   2.0265   7.8340   1.3695   2.7490   2.8125   0.00    0.0
2188 440400.000   2248126.1658    865685.1400   5886421.8513   5   8   2.2256   2.0308   7.8480   1.3727   2.7607   2.8161   0.00    0.0
2188 440430.000   2248126.5848    865685.1949   5886421.2321   5   8   2.2250   2.0349   7.8596   1.3757   2.7715   2.8189   0.00    0.0
2188 440460.000   2248126.5446    865685.2252   5886422.7733   5   8   2.2242   2.0388   7.8689   1.3784   2.7815   2.8207   0.00    0.0
2188 440490.000   2248126.2984    865685.4056   5886422.4343   5   8   2.2233   2.0426   7.8758   1.3808   2.7904   2.8217   0.00    0.0
2188 440520.000   2248126.3489    865685.2821   5886422.5094   5   8   2.2222   2.0463   7.8803   1.3830   2.7984   2.8217   0.00    0.0
2188 440550.000   2248126.3103    865685.3595   5886422.6853   5   8   2.2210   2.0498   7.8824   1.3850   2.8055   2.8208   0.00    0.0
2188 440580.000   2248126.3059    865685.0222   5886422.4999   5   8   2.2197   2.0531   7.8820   1.3866   2.8116   2.8190   0.00    0.0
2188 440610.000   2248126.3124    865684.8769   5886422.0728   5   8   2.2182   2.0563   7.8793   1.3880   2.8167   2.8163   0.00    0.0
2188 440640.000   2248126.2276    865684.8690   5886421.1683   5   8   2.2166   2.0593   7.8741   1.3892   2.8208   2.8126   0.00    0.0
2188 440670.000   2248126.1404    865684.9313   5886422.5136   5   8   2.2149   2.0622   7.8666   1.3900   2.8239   2.8081   0.00    0.0
2188 440700.000   2248126.5413    865685.2377   5886422.7705   5   8   2.2131   2.0648   7.8567   1.3906   2.8260   2.8027   0.00    0.0
2188 440730.000   2248126.1425    865684.9524   5886421.2025   5   8   2.2111   2.0673   7.8444   1.3910   2.8272   2.7964   0.00    0.0
2188 440760.000   2248126.5446    865685.3291   5886423.2958   5   8   2.2090   2.0696   7.8299   1.3911   2.8274   2.7892   0.00    0.0
2188 440790.000   2248126.5802    865685.1970   5886422.7496   5   8   2.2068   2.0717   7.8131   1.3909   2.8266   2.7813   0.00    0.0
2188 440820.000   2248126.5326    865685.2248   5886421.9535   5   8   2.2045   2.0737   7.7941   1.3905   2.8249   2.7725   0.00    0.0
2188 440850.000   2248126.1064    865685.0481   5886421.7909   5   8   2.2021   2.0755   7.7730   1.3898   2.8223   2.7629   0.00    0.0
2188 440880.000   2248126.2411    865685.0467   5886421.6208   5   8   2.1996   2.0771   7.7498   1.3889   2.8187   2.7526   0.00    0.0
2188 440910.000   2248126.2457    865685.2052   5886422.4844   5   8   2.1970   2.0785   7.7246   1.3878   2.8142   2.7415   0.00    0.0
2188 440940.000   2248126.3083    865685.0902   5886421.7801   5   8   2.1943   2.0798   7.6974   1.3864   2.8089   2.7297   0.00    0.0
2188 440970.000   2248126.1697    865685.1336   5886421.8202   5   8   2.1916   2.0809   7.6684   1.3848   2.8028   2.7172   0.00    0.0
2188 441000.000   2248126.3981    865685.1301   5886420.8263   5   9   1.9161   1.6835   6.8307   0.7855   1.9057   1.9229   0.00    0.0
2188 441030.000   2248126.2241    865684.7549   5886421.5056   5   9   1.9157   1.6851   6.8188   0.7868   1.9109   1.9218   0.00    0.0
2188 441060.000   2248125.9374    865684.9065   5886421.1095   5   9   1.9154   1.6868   6.8055   0.7880   1.9156   1.9203   0.00    0.0
2188 441090.000   2248126.2803    865685.0354   5886420.3034   5   9   1.9151   1.6884   6.7909   0.7892   1.9198   1.9186   0.00    0.0
2188 441120.000   2248126.1964    865685.1899   5886421.4596   5   9   1.9147   1.6901   6.7750   0.7903   1.9236   1.9165   0.00    0.0
2188 441150.000   2248125.9836    865684.9442   5886420.7552   5   9   1.9144   1.6917   6.7579   0.7913   1.9269   1.9141   0.00    0.0
2188 441180.000   2248126.5440    865685.1297   5886421.1496   5   9   1.9142   1.6933   6.7395   0.7923   1.9297   1.9114   0.00    0.0
2188 441210.000   2248126.2139    865685.0409   5886420.7690   5   9   1.9139   1.6948   6.7200   0.7933   1.9321   1.9084   0.00    0.0
2188 441240.000   2248125.9797    865685.0223   5886420.8560   5   9   1.9137   1.6964   6.6993   0.7941   1.9340   1.9052   0.00    0.0
2188 441270.000   2248126.2089    865684.9488   5886421.1539   5   9   1.9134   1.6979   6.6774   0.7950   1.9355   1.9016   0.00    0.0
2188 441300.000   2248126.0163    865685.1045   5886420.8005   5   9   1.9132   1.6994   6.6545   0.7957   1.9365   1.8978   0.00    0.0
2188 441330.000   2248126.0601    865684.9053   5886420.2080   5   9   1.9131   1.7009   6.6306   0.7964   1.9371   1.8938   0.00    0.0
2188 441360.000   2248126.2368    865684.9907   5886421.3150   5   9   1.9129   1.7024   6.6057   0.7971   1.9372   1.8895   0.00    0.0
2188 441390.000   2248125.8283    865685.1201   5886419.9780   5   8   2.2564   1.7251   7.5789   0.5596   1.6543   2.8381   0.00    0.0
2188 441420.000   2248126.1715    865685.1756   5886421.6021   5   8   2.2575   1.7258   7.5639   0.5641   1.6567   2.8399   0.00    0.0
2188 441450.000   2248126.1531    865685.1152   5886420.6037   5   8   2.2585   1.7266   7.5472   0.5685   1.6587   2.8409   0.00    0.0
2188 441480.000   2248126.4794    865684.9228   5886421.4602   5   8   2.2593   1.7274   7.5287   0.5726   1.6604   2.8412   0.00    0.0
2188 441510.000   2248125.8781    865684.7601   5886419.6481   5   8   2.2600   1.7282   7.5086   0.5766   1.6616   2.8407   0.00    0.0
2188 441540.000   2248126.2869    865684.6607   5886421.6547   5   8   2.2606   1.7289   7.4868   0.5805   1.6624   2.8394   0.00    0.0
2188 441570.000   2248126.0604    865684.8963   5886420.7883   5   8   2.2611   1.7297   7.4633   0.5841   1.6629   2.8374   0.00    0.0
2188 441600.000   2248126.0670    865685.0356   5886421.4268   5   8   2.2614   1.7305   7.4383   0.5876   1.6629   2.8347   0.00    0.0
2188 441630.000   2248126.1204    865684.9702   5886421.3344   5   8   2.2616   1.7313   7.4118   0.5910   1.6626   2.8312   0.00    0.0
2188 441660.000   2248125.9369    865684.9244   5886420.2938   5   8   2.2617   1.7320   7.3838   0.5942   1.6619   2.8270   0.00    0.0
2188 441690.000   2248126.3192    865684.8442   5886421.7829   5   8   2.2616   1.7328   7.3544   0.5972   1.6608   2.8222   0.00    0.0
2188 441720.000   2248126.2881    865684.8362   5886421.1691   5   8   2.2615   1.7335   7.3236   0.6001   1.6594   2.8167   0.00    0.0
2188 441750.000   2248125.9962    865684.9305   5886420.7597   5   8   2.2612   1.7343   7.2916   0.6028   1.6576   2.8105   0.00    0.0
2188 441780.000   2248126.1744    865684.8136   5886420.2550   5   8   2.2608   1.7351   7.2583   0.6054   1.6554   2.8037   0.00    0.0
2188 441810.000   2248126.2136    865684.8849   5886421.5272   5   8   2.2602   1.7358   7.2238   0.6078   1.6529   2.7963   0.00    0.0
2188 441840.000   2248126.5167    865685.1090   5886422.5739   5   8   2.2596   1.7366   7.1883   0.6101   1.6501   2.7884   0.00    0.0
2188 441870.000   2248126.1778    865684.6957   5886421.8028   5   8   2.2589   1.7373   7.1517   0.6122   1.6469   2.7799   0.00    0.0
2188 441900.000   2248126.1979    865684.8859   5886421.3226   5   8   2.2581   1.7381   7.1141   0.6142   1.6435   2.7708   0.00    0.0
2188 441930.000   2248126.2455    865684.9272   5886422.1750   5   8   2.2571   1.7388   7.0756   0.6161   1.6397   2.7613   0.00    0.0
2188 441960.000   2248126.1394    865684.8179   5886420.6393   5   8   2.2561   1.7395   7.0362   0.6179   1.6357   2.7512   0.00    0.0
2188 441990.000   2248126.3310    865684.9083   5886421.4640   5   8   2.2550   1.7403   6.9961   0.6195   1.6314   2.7407   0.00    0.0
2188 442020.000   2248126.1622    865684.7687   5886420.9226   5   8   2.2538   1.7410   6.9552   0.6210   1.6268   2.7298   0.00    0.0
2188 442050.000   2248126.0940    865684.7771   5886420.9506   5   8   2.2525   1.7417   6.9137   0.6224   1.6219   2.7184   0.00    0.0
2188 442080.000   2248126.3837    865685.2556   5886421.0951   5   8   2.2512   1.7424   6.8715   0.6237   1.6168   2.7066   0.00    0.0
2188 442110.000   2248126.2134    865684.9127   5886421.9074   5   8   2.2498   1.7432   6.8288   0.6249   1.6115   2.6945   0.00    0.0
2188 442140.000   2248125.9910    865684.7124   5886420.2682   5   8   2.2483   1.7439   6.7856   0.6260   1.6059   2.6820   0.00    0.0
2188 442170.000   2248126.4709    865684.9004   5886421.8720   5   8   2.2467   1.7446   6.7419   0.6271   1.6002   2.6692   0.00    0.0
2188 442200.000   2248126.1188    865684.9672   5886420.8903   5   8   2.2451   1.7453   6.6979   0.6280   1.5942   2.6561   0.00    0.0
2188 442230.000   2248126.1790    865684.6564   5886421.4705   5   8   2.2435   1.7460   6.6535   0.6288   1.5880   2.6427   0.00    0.0
2188 442260.000   2248126.0568    865685.0900   5886421.4124   5   8   2.2418   1.7467   6.6089   0.6296   1.5817   2.6291   0.00    0.0
2188 442290.000   2248126.2376    865684.9428   5886421.9660   5   8   2.2400   1.7475   6.5640   0.6303   1.5751   2.6152   0.00    0.0
2188 442320.000   2248126.3165    865685.0903   5886421.8477   5   8   2.2382   1.7482   6.5189   0.6309   1.5685   2.6011   0.00    0.0
2188 442350.000   2248126.2561    865684.6633   5886421.7261   5   8   2.2364   1.7489   6.4737   0.6315   1.5616   2.5868   0.00    0.0
2188 442380.000   2248125.9528    865684.9057   5886421.2840   5   8   2.2346   1.7496   6.4284   0.6320   1.5547   2.5723   0.00    0.0
2188 442410.000   2248126.1930    865684.8919   5886421.2805   5   8   2.2327   1.7503   6.3830   0.6324   1.5476   2.5576   0.00    0.0
2188 442440.000   2248126.2515    865684.6408   5886421.1903   5   8   2.2308   1.7510   6.3376   0.6328   1.5403   2.5428   0.00    0.0
2188 442470.000   2248126.4909    865684.5875   5886420.7282   5   8   2.2289   1.7517   6.2922   0.6332   1.5330   2.5278   0.00    0.0
2188 442500.000   2248126.4494    865684.9915   5886420.6006   5   8   2.2269   1.7525   6.2469   0.6335   1.5255   2.5128   0.00    0.0
2188 442530.000   2248126.2173    865684.7495   5886420.9222   5   8   2.2250   1.7532   6.2016   0.6337   1.5180   2.4976   0.00    0.0
2188 442560.000   2248126.2744    865684.9001   5886421.3548   5   8   2.2230   1.7539   6.1565   0.6339   1.5103   2.4823   0.00    0.0
2188 442590.000   2248126.1597    865684.6113   5886421.5279   5   8   2.2210   1.7546   6.1115   0.6341   1.5026   2.4670   0.00    0.0
2188 442620.000   2248126.2285    865684.8678   5886421.2846   5   8   2.2191   1.7554   6.0667   0.6343   1.4948   2.4516   0.00    0.0
2188 442650.000   2248126.4052    865684.9777   5886422.5158   5   8   2.2171   1.7561   6.0221   0.6344   1.4870   2.4362   0.00    0.0
2188 442680.000   2248126.6174    865685.3137   5886422.2629   5   8   2.2151   1.7568   5.9777   0.6345   1.4790   2.4207   0.00    0.0
2188 442710.000   2248126.5975    865685.1290   5886422.6532   5   9   2.2118   1.6727   4.6555   0.6009   0.4232   2.3454   0.00    0.0
2188 442740.000   2248126.4955    865685.1914   5886422.6299   5   9   2.2103   1.6736   4.6435   0.6064   0.4323   2.3399   0.00    0.0
2188 442770.000   2248126.5387    865685.1243   5886423.4561   5   9   2.2087   1.6745   4.6313   0.6119   0.4411   2.3342   0.00    0.0
2188 442800.000   2248126.3792    865685.1797   5886422.7606   5   9   2.0550   1.6716   4.2573   0.5375  -0.0528   1.9948   0.00    0.0
2188 442830.000   2248126.2400    865685.3573   5886423.0900   5   9   2.0540   1.6723   4.2485   0.5411  -0.0207   1.9908   0.00    0.0
2188 442860.000   2248126.1545    865685.2183   5886422.7143   5   9   2.0529   1.6730   4.2397   0.5447   0.0445   1.9867   0.00    0.0
2188 442890.000   2248126.2797    865685.0816   5886421.8650   5   9   2.0517   1.6737   4.2308   0.5483   0.0665   1.9825   0.00    0.0
2188 442920.000   2248126.4359    865685.2115   5886422.7276   5   9   2.0506   1.6745   4.2219   0.5518   0.0831   1.9781   0.00    0.0
2188 442950.000   2248126.3433    865685.2473   5886422.8515   5   9   2.0494   1.6752   4.2129   0.5553   0.0970   1.9736   0.00    0.0
2188 442980.000   2248126.1396    865685.1491   5886422.2567   5   9   2.0481   1.6760   4.2038   0.5588   0.1092   1.9690   0.00    0.0
2188 443010.000   2248126.0185    865685.2030   5886422.3944   5   9   2.0469   1.6767   4.1946   0.5623   0.1202   1.9642   0.00    0.0
2188 443040.000   2248126.3419    865685.0045   5886422.5003   5   9   2.0456   1.6775   4.1854   0.5657   0.1304   1.9593   0.00    0.0
2188 443070.000   2248126.0228    865685.0525   5886422.1553   5   9   2.0443   1.6783   4.1761   0.5691   0.1398   1.9542   0.00    0.0
2188 443100.000   2248126.1119    865685.0235   5886422.1851   5   9   2.0430   1.6791   4.1667   0.5725   0.1486   1.9490   0.00    0.0
2188 443130.000   2248126.1285    865684.9183   5886422.7946   5   9   2.0417   1.6799   4.1573   0.5758   0.1569   1.9437   0.00    0.0
2188 443160.000   2248126.2513    865685.0629   5886422.5467   5   9   2.0403   1.6807   4.1478   0.5791   0.1648   1.9383   0.00    0.0
2188 443190.000   2248126.1673    865684.9298   5886422.5014   5   9   2.0389   1.6815   4.1383   0.5824   0.1722   1.9327   0.00    0.0
2188 443220.000   2248126.4327    865685.2997   5886422.8163   5   9   2.0375   1.6824   4.1287   0.5856   0.1793   1.9270   0.00    0.0
2188 443250.000   2248125.9276    865685.0107   5886422.0716   5   9   2.0361   1.6832   4.1191   0.5888   0.1861   1.9212   0.00    0.0
2188 443280.000   2248126.2134    865684.9836   5886422.1560   5   9   2.0346   1.6841   4.1094   0.5920   0.1926   1.9153   0.00    0.0
2188 443310.000   2248126.1756    865685.0250   5886422.3713   5   9   2.0332   1.6849   4.0997   0.5951   0.1988   1.9093   0.00    0.0
2188 443340.000   2248126.0735    865685.1510   5886422.7176   5   9   2.0317   1.6858   4.0899   0.5982   0.2047   1.9032   0.00    0.0
2188 443370.000   2248126.1357    865684.8425   5886422.3563   5   9   2.0302   1.6867   4.0801   0.6013   0.2103   1.8969   0.00    0.0
2188 443400.000   2248126.2904    865684.9977   5886422.7032   5   9   2.0287   1.6875   4.0702   0.6043   0.2158   1.8906   0.00    0.0
2188 443430.000   2248126.1308    865684.9722   5886422.4672   5   9   2.0272   1.6884   4.0604   0.6073   0.2210   1.8841   0.00    0.0
2188 443460.000   2248126.0109    865685.1081   5886422.4085   5   9   2.0257   1.6893   4.0505   0.6103   0.2260   1.8775   0.00    0.0
2188 443490.000   2248126.1068    865684.9944   5886422.3571   5   9   2.0242   1.6902   4.0406   0.6132   0.2308   1.8709   0.00    0.0
2188 443520.000   2248126.2032    865685.1392   5886422.6182   5   9   2.0226   1.6912   4.0306   0.6161   0.2353   1.8641   0.00    0.0
2188 443550.000   2248126.1770    865685.0007   5886422.5869   5   9   2.0211   1.6921   4.0207   0.6189   0.2397   1.8573   0.00    0.0
2188 443580.000   2248126.1391    865685.0045   5886422.4154   5   9   2.0195   1.6930   4.0107   0.6217   0.2439   1.8503   0.00    0.0
2188 443610.000   2248126.0028    865685.0237   5886422.4117   5   9   2.0180   1.6940   4.0007   0.6245   0.2480   1.8433   0.00    0.0
2188 443640.000   2248125.9473    865684.9883   5886422.4678   5   9   2.0164   1.6949   3.9907   0.6272   0.2518   1.8362   0.00    0.0
2188 443670.000   2248125.8912    865684.9558   5886422.6738   5   9   2.0148   1.6959   3.9807   0.6299   0.2555   1.8290   0.00    0.0
2188 443700.000   2248125.9750    865685.0117   5886422.6398   5   9   2.0133   1.6969   3.9708   0.6326   0.2590   1.8217   0.00    0.0
2188 443730.000   2248125.7855    865685.0877   5886422.3701   5   9   2.0117   1.6978   3.9608   0.6352   0.2624   1.8143   0.00    0.0
2188 443760.000   2248126.3435    865684.9816   5886422.9640   5   9   2.0101   1.6988   3.9508   0.6378   0.2656   1.8068   0.00    0.0
2188 443790.000   2248126.1748    865684.9900   5886422.6897   5   9   2.0085   1.6998   3.9409   0.6403   0.2686   1.7993   0.00    0.0
2188 443820.000   2248125.8555    865685.0137   5886422.4879   5   9   2.0070   1.7008   3.9309   0.6428   0.2715   1.7917   0.00    0.0
2188 443850.000   2248126.0226    865685.0965   5886423.1280   5   9   2.0054   1.7018   3.9210   0.6453   0.2742   1.7840   0.00    0.0
2188 443880.000   2248126.2800    865685.2007   5886422.5628   5   9   2.0038   1.7028   3.9111   0.6477   0.2768   1.7763   0.00    0.0
2188 443910.000   2248126.2526    865685.2107   5886422.5654   5   9   2.0023   1.7039   3.9012   0.6501   0.2793   1.7685   0.00    0.0
2188 443940.000   2248126.3443    865685.0594   5886422.0540   5   9   2.0007   1.7049   3.8914   0.6525   0.2816   1.7606   0.00    0.0
2188 443970.000   2248125.7843    865684.9878   5886422.3428   5   9   1.9992   1.7059   3.8816   0.6548   0.2838   1.7526   0.00    0.0
2188 444000.000   2248126.1014    865685.2358   5886422.9663   5   9   1.9976   1.7070   3.8719   0.6571   0.2858   1.7446   0.00    0.0
2188 444030.000   2248126.0975    865685.0643   5886421.7614   5   9   1.9961   1.7080   3.8621   0.6593   0.2877   1.7365   0.00    0.0
2188 444060.000   2248126.2830    865685.1402   5886423.0004   5   9   1.9946   1.7091   3.8525   0.6615   0.2895   1.7284   0.00    0.0
2188 444090.000   2248126.2577    865685.1201   5886421.8933   5   9   1.9930   1.7102   3.8428   0.6637   0.2912   1.7202   0.00    0.0
2188 444120.000   2248126.2863    865685.1650   5886422.2681   5   9   1.9915   1.7113   3.8333   0.6658   0.2927   1.7120   0.00    0.0
2188 444150.000   2248126.1788    865684.8113   5886423.3059   5   9   1.9900   1.7123   3.8238   0.6679   0.2941   1.7036   0.00    0.0
2188 444180.000   2248126.2485    865685.0441   5886422.5416   5   9   1.9886   1.7134   3.8143   0.6700   0.2954   1.6953   0.00    0.0
2188 444210.000   2248126.0285    865684.9359   5886422.2362   5   9   1.9871   1.7146   3.8049   0.6720   0.2965   1.6869   0.00    0.0
2188 444240.000   2248126.1758    865685.1082   5886422.5528   5   9   1.9857   1.7157   3.7956   0.6740   0.2976   1.6784   0.00    0.0
2188 444270.000   2248126.2011    865685.1892   5886422.8639   5   9   1.9842   1.7168   3.7864   0.6759   0.2985   1.6699   0.00    0.0
2188 444300.000   2248126.1111    865685.1591   5886422.6698   5  10   1.8113   1.6131   3.7268  -0.1313  -0.5234   1.5046   0.00    0.0
2188 444330.000   2248126.3034    865685.5582   5886422.8420   5  10   1.8107   1.6134   3.7201  -0.1243  -0.5158   1.4996   0.00    0.0
2188 444360.000   2248126.2827    865685.0614   5886422.6764   5  10   1.8102   1.6137   3.7134  -0.1169  -0.5081   1.4946   0.00    0.0
2188 444390.000   2248126.0293    865685.0111   5886422.5061   5  10   1.8097   1.6140   3.7067  -0.1091  -0.5003   1.4895   0.00    0.0
2188 444420.000   2248126.3812    865684.9451   5886422.1928   5  10   1.8092   1.6143   3.7001  -0.1006  -0.4924   1.4844   0.00    0.0
2188 444450.000   2248126.3226    865685.1108   5886422.0348   5  10   1.8087   1.6146   3.6935  -0.0914  -0.4843   1.4793   0.00    0.0
2188 444480.000   2248126.0655    865685.1679   5886422.4328   5  10   1.8083   1.6150   3.6870  -0.0812  -0.4761   1.4741   0.00    0.0
2188 444510.000   2248126.3399    865685.1885   5886422.1053   5  10   1.8078   1.6154   3.6805  -0.0696  -0.4677   1.4688   0.00    0.0
2188 444540.000   2248126.4425    865685.1310   5886422.4067   5  10   1.8074   1.6158   3.6740  -0.0556  -0.4592   1.4636   0.00    0.0
2188 444570.000   2248126.3495    865685.1113   5886422.3324   5  10   1.8071   1.6162   3.6676  -0.0369  -0.4505   1.4582   0.00    0.0
2188 444600.000   2248126.4648    865685.3752   5886422.1575   5  10   1.8067   1.6166   3.6613   0.0189  -0.4417   1.4529   0.00    0.0
2188 444630.000   2248126.3500    865685.2955   5886422.0301   5  10   1.8064   1.6171   3.6550   0.0454  -0.4327   1.4475   0.00    0.0
2188 444660.000   2248126.0728    865685.0004   5886422.2353   5  10   1.8061   1.6175   3.6488   0.0612  -0.4236   1.4420   0.00    0.0
2188 444690.000   2248126.0655    865685.1738   5886421.7349   5  10   1.8058   1.6180   3.6426   0.0736  -0.4143   1.4365   0.00    0.0
2188 444720.000   2248126.2737    865685.1329   5886421.7470   5  10   1.8056   1.6185   3.6365   0.0841  -0.4048   1.4310   0.00    0.0
2188 444750.000   2248126.3335    865685.1754   5886421.4296   5  10   1.8054   1.6190   3.6305   0.0933  -0.3951   1.4254   0.00    0.0
2188 444780.000   2248126.2008    865685.2256   5886422.4365   5  10   1.8052   1.6196   3.6246   0.1016  -0.3852   1.4198   0.00    0.0
2188 444810.000   2248126.0179    865685.1241   5886421.7755   5  10   1.8050   1.6201   3.6188   0.1092  -0.3751   1.4142   0.00    0.0
2188 444840.000   2248126.1619    865685.3528   5886422.1263   5  10   1.8049   1.6207   3.6130   0.1161  -0.3648   1.4084   0.00    0.0
2188 444870.000   2248126.3963    865684.9436   5886422.3705   5  10   1.8048   1.6213   3.6074   0.1226  -0.3542   1.4027   0.00    0.0
2188 444900.000   2248126.0019    865684.8886   5886423.2276   5   9   1.8725   1.6740   5.2027   0.4730  -1.2940   0.2750   0.00    0.0
