% program   : RTKLIB ver.demo5 b34j
% inp file  : E:\GAMPII-GOOD\dataset_Win\obs\2021\351\MGEX\daily\kir83510.21o
% inp file  : E:\Navigation_Learn\GNSS\RTKLIB-b34k\data\data_IGM-A1_Vehicle_open_20211217-nsh\brdm3510.21p
% inp file  : E:\Navigation_Learn\GNSS\RTKLIB-b34k\data\data_IGM-A1_Vehicle_open_20211217-nsh\CAS0MGXRAP_20213510000_01D_01D_OSB.BIA
% obs start : 2021/12/17 00:00:00.0 GPST (week2188 432000.0s)
% obs end   : 2021/12/17 23:59:30.0 GPST (week2188 518370.0s)
% pos mode  : Single
% elev mask : 10.0 deg
% ionos opt : Iono-Free LC
% tropo opt : Saastamoinen
% ephemeris : Broadcast
% navi sys  : GPS BDS
%
% (x/y/z-ecef=WGS84,Q=1:fix,2:float,3:sbas,4:dgps,5:single,6:ppp,ns=# of satellites)
%  GPST              x-ecef(m)      y-ecef(m)      z-ecef(m)   Q  ns   sdx(m)   sdy(m)   sdz(m)  sdxy(m)  sdyz(m)  sdzx(m) age(s)  ratio
2188 432000.000   2248125.7121    865685.4569   5886422.9037   5  13   2.4301   1.7074   6.1917  -0.5469  -0.2532   3.3518   0.00    0.0
2188 432030.000   2248127.6241    865686.0720   5886426.0733   5  13   2.4298   1.7072   6.1895  -0.5541  -0.3131   3.3506   0.00    0.0
2188 432060.000   2248127.6574    865685.2551   5886426.1833   5  13   2.4293   1.7070   6.1862  -0.5612  -0.3630   3.3486   0.00    0.0
2188 432090.000   2248127.2937    865684.9891   5886426.1456   5  13   2.4284   1.7069   6.1817  -0.5681  -0.4064   3.3460   0.00    0.0
2188 432120.000   2248126.5009    865684.8699   5886423.0363   5  13   2.4273   1.7068   6.1760  -0.5749  -0.4453   3.3427   0.00    0.0
2188 432150.000   2248127.1123    865685.5697   5886425.2091   5  12   2.4516   1.7072   7.2084  -0.5939  -0.6199   3.5305   0.00    0.0
2188 432180.000   2248127.5062    865685.0167   5886426.1847   5  13   2.4243   1.7066   6.1611  -0.5879  -0.5132   3.3340   0.00    0.0
2188 432210.000   2248127.7291    865685.4150   5886428.4161   5  13   2.4224   1.7065   6.1520  -0.5941  -0.5435   3.3288   0.00    0.0
2188 432240.000   2248127.1798    865685.6519   5886424.9076   5  13   2.4202   1.7065   6.1418  -0.6002  -0.5717   3.3228   0.00    0.0
2188 432270.000   2248127.4967    865684.8227   5886428.0762   5  13   2.4177   1.7065   6.1305  -0.6061  -0.5983   3.3163   0.00    0.0
2188 432300.000   2248127.0055    865685.1965   5886425.3652   5  13   2.4150   1.7066   6.1182  -0.6118  -0.6233   3.3091   0.00    0.0
2188 432330.000   2248127.4453    865685.4011   5886428.0446   5  13   2.4121   1.7066   6.1048  -0.6173  -0.6469   3.3013   0.00    0.0
2188 432360.000   2248127.4333    865685.6204   5886426.3139   5  13   2.4089   1.7067   6.0904  -0.6226  -0.6693   3.2930   0.00    0.0
2188 432390.000   2248127.9361    865685.4588   5886426.6307   5  13   2.4055   1.7068   6.0750  -0.6278  -0.6905   3.2840   0.00    0.0
2188 432420.000   2248127.1758    865684.9598   5886425.5021   5  13   2.4018   1.7070   6.0587  -0.6327  -0.7107   3.2745   0.00    0.0
2188 432450.000   2248126.4253    865685.3607   5886424.2288   5  13   2.3980   1.7071   6.0415  -0.6375  -0.7299   3.2645   0.00    0.0
2188 432480.000   2248127.9092    865684.8445   5886426.7050   5  13   2.3939   1.7073   6.0233  -0.6421  -0.7482   3.2540   0.00    0.0
2188 432510.000   2248127.2018    865685.1124   5886424.0561   5  13   2.3897   1.7075   6.0044  -0.6465  -0.7657   3.2429   0.00    0.0
2188 432540.000   2248127.1889    865685.6359   5886424.9243   5  13   2.3852   1.7077   5.9845  -0.6507  -0.7823   3.2314   0.00    0.0
2188 432570.000   2248127.6321    865685.7625   5886426.5873   5  13   2.3806   1.7080   5.9639  -0.6548  -0.7982   3.2194   0.00    0.0
2188 432600.000   2248127.3326    865685.1080   5886426.5732   5  13   2.3758   1.7082   5.9426  -0.6586  -0.8134   3.2070   0.00    0.0
2188 432630.000   2248128.2364    865685.3692   5886428.9259   5  13   2.3708   1.7085   5.9205  -0.6623  -0.8279   3.1941   0.00    0.0
2188 432660.000   2248127.7203    865684.9288   5886426.3666   5  13   2.3657   1.7089   5.8978  -0.6658  -0.8417   3.1808   0.00    0.0
2188 432690.000   2248126.9187    865685.6772   5886425.1354   5  13   2.3605   1.7092   5.8744  -0.6691  -0.8549   3.1671   0.00    0.0
2188 432720.000   2248127.6120    865685.7022   5886425.7225   5  13   2.3551   1.7096   5.8503  -0.6723  -0.8675   3.1531   0.00    0.0
2188 432750.000   2248129.1200    865685.0733   5886428.2085   5  13   2.3496   1.7099   5.8257  -0.6753  -0.8795   3.1387   0.00    0.0
2188 432780.000   2248127.9215    865685.1041   5886426.7732   5  13   2.3440   1.7104   5.8006  -0.6781  -0.8910   3.1240   0.00    0.0
2188 432810.000   2248127.2856    865685.4945   5886428.1602   5  13   2.3382   1.7108   5.7749  -0.6808  -0.9020   3.1090   0.00    0.0
2188 432840.000   2248127.7531    865685.4281   5886426.6625   5  13   2.3324   1.7112   5.7488  -0.6833  -0.9125   3.0937   0.00    0.0
2188 432870.000   2248127.7496    865685.6752   5886428.1181   5  13   2.3265   1.7117   5.7222  -0.6856  -0.9225   3.0781   0.00    0.0
2188 432900.000   2248127.5606    865685.4673   5886428.6623   5  13   2.3205   1.7122   5.6953  -0.6878  -0.9320   3.0623   0.00    0.0
2188 432930.000   2248128.2314    865685.5099   5886427.8420   5  13   2.3145   1.7127   5.6679  -0.6899  -0.9411   3.0462   0.00    0.0
2188 432960.000   2248128.3075    865684.9386   5886427.4257   5  13   2.3084   1.7132   5.6402  -0.6918  -0.9498   3.0299   0.00    0.0
2188 432990.000   2248128.2068    865686.1537   5886427.2579   5  13   2.3022   1.7138   5.6122  -0.6935  -0.9580   3.0134   0.00    0.0
2188 433020.000   2248128.6559    865684.7582   5886430.2151   5  13   2.2960   1.7144   5.5840  -0.6951  -0.9659   2.9968   0.00    0.0
2188 433050.000   2248127.0049    865685.1726   5886426.5323   5  13   2.2898   1.7150   5.5555  -0.6966  -0.9734   2.9800   0.00    0.0
2188 433080.000   2248127.6803    865684.7050   5886427.9962   5  14   2.2789   1.6148   5.2125  -0.7554  -1.4233   2.9180   0.00    0.0
2188 433110.000   2248128.1529    865685.0514   5886427.3048   5  14   2.2736   1.6144   5.1966  -0.7509  -1.4213   2.9064   0.00    0.0
2188 433140.000   2248128.7399    865685.3099   5886428.2133   5  14   2.2681   1.6139   5.1803  -0.7461  -1.4191   2.8946   0.00    0.0
2188 433170.000   2248127.1917    865685.6757   5886426.2571   5  14   2.2625   1.6135   5.1637  -0.7411  -1.4166   2.8825   0.00    0.0
2188 433200.000   2248127.0100    865685.3052   5886425.6847   5  14   2.2568   1.6131   5.1467  -0.7360  -1.4137   2.8701   0.00    0.0
2188 433230.000   2248126.4663    865685.5314   5886425.0519   5  14   2.2509   1.6127   5.1294  -0.7306  -1.4107   2.8575   0.00    0.0
2188 433260.000   2248127.4792    865685.7847   5886425.3120   5  14   2.2450   1.6124   5.1118  -0.7251  -1.4073   2.8446   0.00    0.0
2188 433290.000   2248127.3695    865685.7751   5886427.3987   5  14   2.2391   1.6120   5.0938  -0.7194  -1.4037   2.8315   0.00    0.0
2188 433320.000   2248127.6726    865685.5450   5886427.7329   5  14   2.2330   1.6117   5.0755  -0.7135  -1.3998   2.8181   0.00    0.0
2188 433350.000   2248127.8283    865685.0719   5886429.2035   5  15   2.1962   1.5993   4.8951  -0.6541  -1.3030   2.7199   0.00    0.0
2188 433380.000   2248128.0970    865684.4070   5886428.5961   5  15   2.1913   1.5992   4.8813  -0.6491  -1.3008   2.7090   0.00    0.0
2188 433410.000   2248128.4163    865684.7270   5886426.6498   5  15   2.1862   1.5991   4.8670  -0.6438  -1.2984   2.6978   0.00    0.0
2188 433440.000   2248128.1008    865685.4365   5886427.1554   5  15   2.1811   1.5991   4.8525  -0.6384  -1.2957   2.6864   0.00    0.0
2188 433470.000   2248126.6443    865684.7286   5886425.3084   5  15   2.1759   1.5991   4.8377  -0.6329  -1.2929   2.6748   0.00    0.0
2188 433500.000   2248127.9582    865685.4942   5886426.9900   5  15   2.1707   1.5991   4.8226  -0.6271  -1.2899   2.6629   0.00    0.0
2188 433530.000   2248127.2823    865685.1014   5886427.9057   5  15   2.1654   1.5992   4.8072  -0.6212  -1.2866   2.6508   0.00    0.0
2188 433560.000   2248127.9277    865684.7654   5886427.5956   5  15   2.1600   1.5992   4.7916  -0.6152  -1.2832   2.6385   0.00    0.0
2188 433590.000   2248128.0338    865685.3573   5886427.3244   5  15   2.1545   1.5993   4.7757  -0.6090  -1.2796   2.6260   0.00    0.0
2188 433620.000   2248126.9942    865685.1378   5886426.2977   5  15   2.1490   1.5995   4.7595  -0.6026  -1.2759   2.6133   0.00    0.0
2188 433650.000   2248126.8918    865685.9172   5886425.0277   5  15   2.1435   1.5997   4.7432  -0.5961  -1.2720   2.6005   0.00    0.0
2188 433680.000   2248127.3070    865685.1838   5886426.2699   5  15   2.1379   1.5999   4.7266  -0.5894  -1.2679   2.5874   0.00    0.0
2188 433710.000   2248127.1924    865684.4577   5886426.9685   5  15   2.1323   1.6001   4.7098  -0.5826  -1.2638   2.5742   0.00    0.0
2188 433740.000   2248127.1896    865684.6423   5886424.9257   5  15   2.1267   1.6004   4.6929  -0.5756  -1.2594   2.5608   0.00    0.0
2188 433770.000   2248128.2714    865685.1634   5886425.5316   5  14   2.1311   1.6079   4.8806  -0.5401  -1.3371   2.4899   0.00    0.0
2188 433800.000   2248127.9717    865684.8060   5886426.1254   5  15   2.1153   1.6010   4.6585  -0.5612  -1.2504   2.5337   0.00    0.0
2188 433830.000   2248127.7049    865685.5103   5886427.2339   5  15   2.1096   1.6014   4.6411  -0.5538  -1.2458   2.5199   0.00    0.0
2188 433860.000   2248127.7778    865684.8039   5886425.9961   5  15   2.1039   1.6018   4.6235  -0.5462  -1.2410   2.5059   0.00    0.0
2188 433890.000   2248127.8196    865684.9782   5886427.0343   5  15   2.0982   1.6023   4.6059  -0.5385  -1.2361   2.4919   0.00    0.0
2188 433920.000   2248128.5430    865685.5336   5886425.5769   5  15   2.0925   1.6028   4.5882  -0.5306  -1.2312   2.4778   0.00    0.0
2188 433950.000   2248127.7321    865685.6667   5886427.0598   5  15   2.0868   1.6033   4.5703  -0.5226  -1.2261   2.4635   0.00    0.0
2188 433980.000   2248127.0599    865684.6652   5886426.4420   5  15   2.0811   1.6039   4.5524  -0.5144  -1.2210   2.4492   0.00    0.0
2188 434010.000   2248127.5639    865685.0976   5886427.5157   5  15   2.0755   1.6045   4.5345  -0.5060  -1.2158   2.4348   0.00    0.0
2188 434040.000   2248127.1915    865685.5865   5886426.1768   5  14   2.1011   1.7761   4.5792   0.1648  -0.9442   2.4760   0.00    0.0
2188 434070.000   2248126.8548    865684.8641   5886424.9278   5  14   2.0955   1.7757   4.5624   0.1862  -0.9359   2.4622   0.00    0.0
2188 434100.000   2248127.4569    865684.8055   5886425.7086   5  14   2.0899   1.7754   4.5456   0.2052  -0.9277   2.4483   0.00    0.0
2188 434130.000   2248127.8232    865685.0129   5886425.4731   5  14   2.0843   1.7752   4.5287   0.2224  -0.9194   2.4342   0.00    0.0
2188 434160.000   2248127.0092    865684.8629   5886425.3800   5  14   2.0788   1.7750   4.5119   0.2382  -0.9112   2.4202   0.00    0.0
2188 434190.000   2248127.9138    865685.1546   5886426.8290   5  14   2.0732   1.7748   4.4950   0.2529  -0.9029   2.4060   0.00    0.0
2188 434220.000   2248127.1596    865685.4961   5886428.1302   5  14   2.0677   1.7747   4.4781   0.2666  -0.8947   2.3918   0.00    0.0
2188 434250.000   2248127.3002    865684.8790   5886427.7306   5  14   2.0622   1.7747   4.4613   0.2795  -0.8866   2.3775   0.00    0.0
2188 434280.000   2248127.4968    865684.8364   5886426.9770   5  14   2.0567   1.7746   4.4445   0.2917  -0.8785   2.3632   0.00    0.0
2188 434310.000   2248126.7581    865685.3353   5886425.1071   5  14   2.0513   1.7747   4.4278   0.3032  -0.8704   2.3488   0.00    0.0
2188 434340.000   2248127.7794    865685.3934   5886427.8378   5  14   2.0459   1.7747   4.4111   0.3142  -0.8624   2.3344   0.00    0.0
2188 434370.000   2248127.3570    865686.0387   5886426.7055   5  14   2.0406   1.7748   4.3945   0.3247  -0.8545   2.3200   0.00    0.0
2188 434400.000   2248127.5787    865684.4375   5886426.9131   5  14   2.0352   1.7750   4.3780   0.3347  -0.8466   2.3055   0.00    0.0
2188 434430.000   2248127.2094    865685.4223   5886428.8210   5  14   2.0300   1.7752   4.3615   0.3443  -0.8388   2.2910   0.00    0.0
2188 434460.000   2248126.5626    865684.8413   5886426.0709   5  14   2.0247   1.7754   4.3452   0.3535  -0.8312   2.2765   0.00    0.0
2188 434490.000   2248126.8014    865684.9704   5886427.1281   5  13   2.0396   1.7804   4.5169   0.4102  -0.9197   2.1792   0.00    0.0
2188 434520.000   2248127.8696    865684.9895   5886425.0312   5  14   2.0145   1.7760   4.3129   0.3707  -0.8161   2.2474   0.00    0.0
2188 434550.000   2248128.0797    865684.3156   5886426.8738   5  14   2.0094   1.7764   4.2969   0.3789  -0.8087   2.2328   0.00    0.0
2188 434580.000   2248128.5785    865685.8875   5886428.6830   5  14   2.0044   1.7768   4.2811   0.3868  -0.8014   2.2182   0.00    0.0
2188 434610.000   2248128.3191    865684.7120   5886427.3198   5  14   1.9994   1.7773   4.2655   0.3944  -0.7943   2.2036   0.00    0.0
2188 434640.000   2248127.6363    865684.9127   5886425.5981   5  14   1.9946   1.7778   4.2500   0.4017  -0.7873   2.1890   0.00    0.0
2188 434670.000   2248126.8470    865684.5607   5886426.9398   5  14   1.9897   1.7784   4.2347   0.4088  -0.7804   2.1744   0.00    0.0
2188 434700.000   2248128.1156    865684.4286   5886428.9276   5  14   1.9850   1.7790   4.2195   0.4156  -0.7737   2.1598   0.00    0.0
2188 434730.000   2248128.1948    865684.5839   5886428.3202   5  14   1.9803   1.7797   4.2046   0.4222  -0.7671   2.1452   0.00    0.0
2188 434760.000   2248127.5506    865685.0394   5886428.4244   5  14   1.9757   1.7804   4.1899   0.4286  -0.7607   2.1306   0.00    0.0
2188 434790.000   2248128.0396    865685.3422   5886426.0411   5  14   1.9712   1.7812   4.1754   0.4349  -0.7545   2.1160   0.00    0.0
2188 434820.000   2248127.7373    865685.6272   5886426.1205   5  14   1.9667   1.7820   4.1612   0.4409  -0.7484   2.1014   0.00    0.0
2188 434850.000   2248128.5617    865684.7391   5886426.7124   5  14   1.9623   1.7829   4.1471   0.4467  -0.7425   2.0868   0.00    0.0
2188 434880.000   2248126.9219    865685.5750   5886425.2339   5  14   1.9580   1.7838   4.1334   0.4524  -0.7368   2.0722   0.00    0.0
2188 434910.000   2248127.2345    865685.0441   5886426.4898   5  14   1.9538   1.7848   4.1198   0.4579  -0.7313   2.0576   0.00    0.0
2188 434940.000   2248128.4740    865684.5806   5886427.8151   5  14   1.9496   1.7858   4.1066   0.4632  -0.7260   2.0430   0.00    0.0
2188 434970.000   2248127.2556    865685.6103   5886426.1817   5  14   1.9456   1.7869   4.0937   0.4684  -0.7209   2.0285   0.00    0.0
2188 435000.000   2248128.3053    865684.4960   5886427.1497   5  14   1.9416   1.7880   4.0810   0.4735  -0.7160   2.0139   0.00    0.0
2188 435030.000   2248128.0464    865684.8282   5886426.8940   5  14   1.9377   1.7892   4.0687   0.4784  -0.7114   1.9993   0.00    0.0
2188 435060.000   2248127.5706    865684.2070   5886428.0932   5  14   1.9574   1.7854   4.9378   0.5056  -0.7024   1.7212   0.00    0.0
2188 435090.000   2248128.0529    865685.5545   5886428.1398   5  15   1.8412   1.7004   4.8986  -0.3154  -0.9040   1.5851   0.00    0.0
2188 435120.000   2248128.3156    865685.1592   5886427.4059   5  15   1.8393   1.7007   4.8977  -0.3092  -0.8981   1.5707   0.00    0.0
2188 435150.000   2248127.9240    865685.5262   5886426.5397   5  15   1.8374   1.7010   4.8966  -0.3030  -0.8922   1.5562   0.00    0.0
2188 435180.000   2248127.3539    865684.8832   5886425.1209   5  15   1.8356   1.7015   4.8954  -0.2968  -0.8864   1.5417   0.00    0.0
2188 435210.000   2248127.6735    865685.2797   5886428.1150   5  15   1.8339   1.7019   4.8940  -0.2904  -0.8806   1.5270   0.00    0.0
2188 435240.000   2248127.8763    865684.9146   5886426.3652   5  15   1.8323   1.7025   4.8925  -0.2840  -0.8749   1.5123   0.00    0.0
2188 435270.000   2248128.2996    865685.3310   5886427.3770   5  15   1.8307   1.7031   4.8909  -0.2775  -0.8693   1.4974   0.00    0.0
2188 435300.000   2248127.9235    865685.7207   5886427.2136   5  15   1.8293   1.7038   4.8891  -0.2710  -0.8638   1.4824   0.00    0.0
2188 435330.000   2248127.7555    865685.5659   5886424.8355   5  15   1.8279   1.7045   4.8873  -0.2643  -0.8585   1.4674   0.00    0.0
2188 435360.000   2248128.0663    865685.5629   5886425.3645   5  15   1.8266   1.7053   4.8853  -0.2576  -0.8532   1.4522   0.00    0.0
2188 435390.000   2248127.8021    865686.0965   5886428.0274   5  15   1.8253   1.7062   4.8832  -0.2507  -0.8481   1.4370   0.00    0.0
2188 435420.000   2248128.0341    865685.5711   5886426.2010   5  15   1.8242   1.7071   4.8810  -0.2437  -0.8432   1.4217   0.00    0.0
2188 435450.000   2248127.5505    865685.8325   5886427.7538   5  15   1.8231   1.7081   4.8788  -0.2367  -0.8384   1.4062   0.00    0.0
2188 435480.000   2248128.3043    865684.7262   5886428.9801   5  15   1.8221   1.7092   4.8764  -0.2294  -0.8338   1.3907   0.00    0.0
2188 435510.000   2248127.7622    865685.1502   5886426.4464   5  15   1.8212   1.7104   4.8740  -0.2221  -0.8294   1.3751   0.00    0.0
2188 435540.000   2248128.1061    865685.6259   5886427.3177   5  15   1.8204   1.7116   4.8715  -0.2146  -0.8252   1.3594   0.00    0.0
2188 435570.000   2248128.6428    865684.8468   5886427.5382   5  15   1.8197   1.7129   4.8689  -0.2069  -0.8213   1.3437   0.00    0.0
2188 435600.000   2248127.1811    865685.4682   5886426.9358   5  15   1.7302   1.7000   4.6970   0.2902  -0.6228   1.0242   0.00    0.0
2188 435630.000   2248126.8874    865685.8183   5886425.2275   5  15   1.7298   1.7019   4.6973   0.2926  -0.6233   1.0069   0.00    0.0
2188 435660.000   2248127.2447    865686.3200   5886425.1856   5  15   1.7294   1.7038   4.6976   0.2949  -0.6241   0.9896   0.00    0.0
2188 435690.000   2248127.6512    865685.3559   5886428.7300   5  15   1.7291   1.7058   4.6979   0.2973  -0.6253   0.9720   0.00    0.0
2188 435720.000   2248127.5410    865685.1874   5886427.3185   5  15   1.7288   1.7078   4.6982   0.2996  -0.6267   0.9544   0.00    0.0
2188 435750.000   2248127.8587    865685.1884   5886428.4127   5  15   1.7287   1.7100   4.6984   0.3019  -0.6286   0.9365   0.00    0.0
2188 435780.000   2248127.0397    865685.3587   5886427.6663   5  15   1.7286   1.7122   4.6987   0.3042  -0.6308   0.9185   0.00    0.0
2188 435810.000   2248127.3500    865685.8769   5886426.6197   5  15   1.7285   1.7144   4.6990   0.3064  -0.6334   0.9004   0.00    0.0
2188 435840.000   2248127.8083    865685.7253   5886427.4148   5  15   1.7285   1.7168   4.6994   0.3087  -0.6364   0.8821   0.00    0.0
2188 435870.000   2248127.6754    865685.8648   5886428.1115   5  15   1.7286   1.7193   4.6998   0.3109  -0.6398   0.8636   0.00    0.0
2188 435900.000   2248127.4464    865686.3614   5886426.5901   5  15   1.7288   1.7218   4.7003   0.3132  -0.6437   0.8450   0.00    0.0
2188 435930.000   2248127.3478    865684.9890   5886428.8190   5  14   1.7763   2.2628   6.7668  -0.7051  -2.7479   1.6324   0.00    0.0
2188 435960.000   2248126.8973    865684.9187   5886429.0255   5  14   1.7751   2.2655   6.7816  -0.6977  -2.7552   1.6157   0.00    0.0
2188 435990.000   2248126.8048    865685.8825   5886428.6394   5  14   1.7740   2.2680   6.7955  -0.6900  -2.7619   1.5986   0.00    0.0
2188 436020.000   2248128.0537    865686.5509   5886427.0639   5  13   1.9781   2.2713   6.9631  -0.7196  -2.7838   1.9443   0.00    0.0
2188 436050.000   2248126.9819    865685.3803   5886428.4996   5  13   1.9758   2.2735   6.9774  -0.7110  -2.7892   1.9314   0.00    0.0
2188 436080.000   2248126.9877    865684.8375   5886426.5628   5  13   1.9736   2.2757   6.9907  -0.7020  -2.7940   1.9182   0.00    0.0
2188 436110.000   2248127.9606    865684.9718   5886428.9167   5  13   1.9715   2.2777   7.0029  -0.6928  -2.7982   1.9046   0.00    0.0
2188 436140.000   2248127.5902    865685.6472   5886426.6823   5  12   2.0465   2.4433   7.2307   0.1500  -2.5111   2.1336   0.00    0.0
2188 436170.000   2248127.9023    865685.9122   5886429.6682   5  12   2.0441   2.4434   7.2505   0.1799  -2.5087   2.1257   0.00    0.0
2188 436200.000   2248128.1214    865686.0386   5886428.5770   5  12   2.0417   2.4433   7.2692   0.2061  -2.5058   2.1174   0.00    0.0
2188 436230.000   2248127.7170    865685.0880   5886430.8924   5  12   2.0394   2.4432   7.2870   0.2297  -2.5022   2.1088   0.00    0.0
2188 436260.000   2248127.9836    865685.5063   5886427.8138   5  12   2.0370   2.4430   7.3038   0.2515  -2.4980   2.0998   0.00    0.0
2188 436290.000   2248127.2769    865685.7908   5886429.3949   5  12   2.0347   2.4427   7.3196   0.2719  -2.4931   2.0905   0.00    0.0
2188 436320.000   2248127.7867    865685.6301   5886427.5034   5  12   2.0324   2.4423   7.3343   0.2912  -2.4875   2.0808   0.00    0.0
2188 436350.000   2248126.5000    865685.4647   5886425.3086   5  12   2.0302   2.4418   7.3479   0.3095  -2.4813   2.0708   0.00    0.0
2188 436380.000   2248127.6458    865684.9421   5886427.7747   5  12   2.0279   2.4412   7.3605   0.3270  -2.4744   2.0604   0.00    0.0
2188 436410.000   2248127.6863    865685.2681   5886428.2390   5  12   2.0257   2.4405   7.3719   0.3439  -2.4669   2.0497   0.00    0.0
2188 436440.000   2248127.6723    865685.1208   5886426.2622   5  12   2.0235   2.4397   7.3822   0.3602  -2.4587   2.0387   0.00    0.0
2188 436470.000   2248128.5281    865685.4669   5886433.7970   5  11   2.0905   2.6630  11.4569   0.8437  -3.9195  -0.7490   0.00    0.0
2188 436500.000   2248127.2409    865684.4201   5886427.1804   5  12   2.0191   2.4378   7.3993   0.3911  -2.4401   2.0155   0.00    0.0
2188 436530.000   2248127.6364    865684.9857   5886429.7367   5  12   2.0170   2.4368   7.4061   0.4059  -2.4299   2.0035   0.00    0.0
2188 436560.000   2248127.6596    865684.3972   5886431.5542   5  12   2.0149   2.4357   7.4117   0.4203  -2.4189   1.9911   0.00    0.0
2188 436590.000   2248128.1271    865684.2315   5886430.4762   5  12   2.0129   2.4344   7.4161   0.4342  -2.4072   1.9784   0.00    0.0
2188 436620.000   2248127.6988    865685.4404   5886429.2652   5  12   2.0108   2.4332   7.4194   0.4478  -2.3949   1.9654   0.00    0.0
2188 436650.000   2248127.1694    865685.4689   5886428.1917   5  12   2.0088   2.4318   7.4214   0.4611  -2.3819   1.9521   0.00    0.0
2188 436680.000   2248127.8167    865685.4855   5886426.9996   5  12   2.0069   2.4304   7.4222   0.4740  -2.3682   1.9385   0.00    0.0
2188 436710.000   2248127.2969    865684.9653   5886427.4804   5  12   2.0049   2.4290   7.4218   0.4866  -2.3538   1.9246   0.00    0.0
2188 436740.000   2248128.0079    865685.5331   5886428.0702   5  12   2.0031   2.4274   7.4202   0.4989  -2.3388   1.9105   0.00    0.0
2188 436770.000   2248128.2718    865686.0929   5886428.8586   5  12   2.0012   2.4259   7.4174   0.5109  -2.3231   1.8961   0.00    0.0
2188 436800.000   2248127.7800    865685.5238   5886427.9329   5  12   1.9994   2.4243   7.4134   0.5226  -2.3067   1.8814   0.00    0.0
2188 436830.000   2248127.9196    865684.9777   5886428.6413   5  12   1.9977   2.4226   7.4082   0.5341  -2.2897   1.8665   0.00    0.0
2188 436860.000   2248128.3746    865685.8409   5886427.1232   5  13   1.9946   2.1167   4.2316   0.6180   1.4044   1.7291   0.00    0.0
2188 436890.000   2248127.7686    865686.3205   5886428.0071   5  13   1.9932   2.1175   4.2359   0.6196   1.4179   1.7275   0.00    0.0
2188 436920.000   2248127.0660    865685.5075   5886426.4613   5  13   1.9919   2.1184   4.2405   0.6212   1.4311   1.7258   0.00    0.0
2188 436950.000   2248126.9694    865687.2072   5886424.6226   5  13   2.0425   1.8188   3.8402   0.5989   0.3219   1.7374   0.00    0.0
2188 436980.000   2248126.7747    865685.4003   5886424.7906   5  13   2.0414   1.8161   3.8452   0.6018   0.3553   1.7380   0.00    0.0
2188 437010.000   2248126.2680    865685.2946   5886426.2742   5  13   2.0404   1.8135   3.8505   0.6047   0.3858   1.7387   0.00    0.0
2188 437040.000   2248128.2348    865685.8112   5886428.3596   5  13   2.0393   1.8110   3.8560   0.6076   0.4141   1.7393   0.00    0.0
2188 437070.000   2248128.1066    865686.3781   5886428.6928   5  13   2.0382   1.8086   3.8619   0.6105   0.4406   1.7399   0.00    0.0
2188 437100.000   2248128.0257    865686.1540   5886426.8494   5  13   2.0372   1.8063   3.8680   0.6135   0.4656   1.7405   0.00    0.0
2188 437130.000   2248127.8336    865686.2080   5886426.2218   5  13   2.0361   1.8041   3.8744   0.6164   0.4893   1.7411   0.00    0.0
2188 437160.000   2248127.7893    865685.8992   5886427.3771   5  13   2.0351   1.8019   3.8810   0.6194   0.5120   1.7417   0.00    0.0
2188 437190.000   2248128.0669    865685.7576   5886427.8839   5  13   2.0341   1.7999   3.8878   0.6224   0.5338   1.7423   0.00    0.0
2188 437220.000   2248128.8810    865685.6449   5886428.0941   5  12   2.0689   1.7980   4.1449   0.6223   0.5674   1.5793   0.00    0.0
2188 437250.000   2248127.7049    865686.3003   5886426.1809   5  13   2.0321   1.7961   3.9022   0.6284   0.5750   1.7434   0.00    0.0
2188 437280.000   2248128.0270    865686.3789   5886426.6526   5  13   2.0312   1.7943   3.9098   0.6315   0.5946   1.7440   0.00    0.0
2188 437310.000   2248127.6113    865685.6090   5886426.1251   5  13   2.0303   1.7926   3.9175   0.6345   0.6137   1.7445   0.00    0.0
2188 437340.000   2248127.4504    865685.2547   5886427.1117   5  13   2.0294   1.7910   3.9254   0.6376   0.6323   1.7450   0.00    0.0
2188 437370.000   2248127.3701    865685.0532   5886427.1969   5  13   2.0285   1.7894   3.9335   0.6406   0.6504   1.7455   0.00    0.0
2188 437400.000   2248128.4395    865685.8522   5886427.1995   5  13   2.0276   1.7880   3.9418   0.6437   0.6681   1.7459   0.00    0.0
2188 437430.000   2248128.4301    865686.0164   5886427.3379   5  13   2.0268   1.7866   3.9502   0.6468   0.6855   1.7464   0.00    0.0
2188 437460.000   2248128.1361    865686.1228   5886426.1096   5  13   2.0260   1.7852   3.9588   0.6499   0.7025   1.7468   0.00    0.0
2188 437490.000   2248127.4227    865685.9920   5886425.3574   5  13   2.0252   1.7840   3.9676   0.6531   0.7191   1.7472   0.00    0.0
2188 437520.000   2248127.8153    865685.3704   5886427.8320   5  13   2.0245   1.7828   3.9765   0.6562   0.7355   1.7476   0.00    0.0
2188 437550.000   2248127.2791    865685.8018   5886427.7120   5  13   2.0237   1.7817   3.9855   0.6594   0.7516   1.7479   0.00    0.0
2188 437580.000   2248127.9337    865685.2775   5886429.8123   5  14   1.8246   1.7473   3.8249   0.8597   0.9923   1.4316   0.00    0.0
2188 437610.000   2248127.3400    865685.1163   5886426.6830   5  14   1.8235   1.7468   3.8365   0.8610   1.0019   1.4337   0.00    0.0
2188 437640.000   2248128.1915    865686.0851   5886426.6944   5  14   1.8225   1.7463   3.8483   0.8623   1.0114   1.4358   0.00    0.0
2188 437670.000   2248127.2046    865684.8258   5886426.3625   5  14   1.8215   1.7460   3.8603   0.8637   1.0209   1.4379   0.00    0.0
2188 437700.000   2248126.5726    865685.4739   5886426.2317   5  14   1.8205   1.7457   3.8724   0.8651   1.0304   1.4400   0.00    0.0
2188 437730.000   2248127.3381    865685.7819   5886425.3463   5  14   1.8196   1.7455   3.8845   0.8664   1.0399   1.4422   0.00    0.0
2188 437760.000   2248127.7214    865685.2769   5886425.3534   5  14   1.8188   1.7453   3.8968   0.8678   1.0493   1.4444   0.00    0.0
2188 437790.000   2248127.8259    865686.0375   5886426.3496   5  14   1.8180   1.7452   3.9092   0.8692   1.0588   1.4466   0.00    0.0
2188 437820.000   2248127.3630    865684.8085   5886426.0491   5  14   1.8172   1.7452   3.9217   0.8707   1.0682   1.4488   0.00    0.0
2188 437850.000   2248127.0034    865685.0823   5886426.7620   5  14   1.8165   1.7452   3.9343   0.8721   1.0776   1.4511   0.00    0.0
2188 437880.000   2248127.6771    865685.8637   5886425.3856   5  14   1.8159   1.7453   3.9470   0.8736   1.0870   1.4534   0.00    0.0
2188 437910.000   2248127.7833    865685.8278   5886425.9647   5  14   1.8153   1.7454   3.9597   0.8751   1.0964   1.4557   0.00    0.0
2188 437940.000   2248127.5262    865685.6758   5886426.7006   5  14   1.8147   1.7456   3.9725   0.8767   1.1058   1.4580   0.00    0.0
2188 437970.000   2248127.4019    865684.9584   5886427.3173   5  14   1.8142   1.7459   3.9854   0.8782   1.1152   1.4604   0.00    0.0
2188 438000.000   2248127.1479    865685.4502   5886426.1916   5  14   1.8138   1.7462   3.9983   0.8798   1.1246   1.4628   0.00    0.0
2188 438030.000   2248127.2948    865685.0704   5886425.5173   5  13   2.1264   1.7675   4.0904   1.0382   1.2260   1.7424   0.00    0.0
2188 438060.000   2248128.3103    865685.6548   5886427.5304   5  13   2.1255   1.7686   4.1063   1.0416   1.2378   1.7493   0.00    0.0
2188 438090.000   2248127.6623    865685.5105   5886427.9056   5  13   2.1247   1.7697   4.1224   1.0450   1.2496   1.7563   0.00    0.0
2188 438120.000   2248127.1844    865685.8082   5886427.2836   5  13   2.1239   1.7709   4.1385   1.0484   1.2614   1.7632   0.00    0.0
2188 438150.000   2248127.9747    865685.5571   5886426.0144   5  13   2.1231   1.7721   4.1547   1.0517   1.2732   1.7702   0.00    0.0
2188 438180.000   2248126.3316    865685.0818   5886425.6320   5  13   2.1223   1.7734   4.1710   1.0551   1.2851   1.7771   0.00    0.0
2188 438210.000   2248127.0472    865685.1342   5886426.6296   5  13   2.1215   1.7747   4.1873   1.0585   1.2970   1.7840   0.00    0.0
2188 438240.000   2248128.1097    865685.5340   5886426.9205   5  13   2.1208   1.7761   4.2037   1.0619   1.3088   1.7909   0.00    0.0
2188 438270.000   2248127.0667    865685.1997   5886425.9471   5  13   2.1201   1.7776   4.2201   1.0653   1.3207   1.7978   0.00    0.0
2188 438300.000   2248127.3099    865685.6523   5886426.4461   5  13   2.1193   1.7792   4.2365   1.0687   1.3326   1.8046   0.00    0.0
2188 438330.000   2248127.8395    865686.1278   5886426.2573   5  13   2.1186   1.7807   4.2529   1.0721   1.3445   1.8115   0.00    0.0
2188 438360.000   2248128.0788    865686.5362   5886426.9373   5  13   2.1179   1.7824   4.2694   1.0754   1.3564   1.8183   0.00    0.0
2188 438390.000   2248127.9083    865685.0905   5886426.4489   5  13   2.1173   1.7841   4.2859   1.0788   1.3683   1.8250   0.00    0.0
2188 438420.000   2248127.8729    865685.6004   5886427.3485   5  13   2.1166   1.7858   4.3023   1.0822   1.3802   1.8317   0.00    0.0
2188 438450.000   2248126.9341    865685.8411   5886424.4982   5  13   2.1159   1.7877   4.3187   1.0856   1.3922   1.8384   0.00    0.0
2188 438480.000   2248127.2592    865685.2887   5886426.4674   5  13   2.1153   1.7895   4.3351   1.0890   1.4040   1.8450   0.00    0.0
2188 438510.000   2248127.4550    865685.7873   5886427.5275   5  13   2.1146   1.7914   4.3514   1.0923   1.4159   1.8516   0.00    0.0
2188 438540.000   2248127.3378    865686.1056   5886427.0456   5  13   2.1140   1.7934   4.3677   1.0957   1.4278   1.8581   0.00    0.0
2188 438570.000   2248127.6399    865685.2355   5886426.5863   5  13   2.1133   1.7954   4.3839   1.0991   1.4396   1.8645   0.00    0.0
2188 438600.000   2248127.8510    865685.5543   5886426.1515   5  13   2.1127   1.7975   4.4000   1.1024   1.4515   1.8709   0.00    0.0
2188 438630.000   2248127.6309    865685.4086   5886427.8733   5  13   2.1121   1.7996   4.4160   1.1058   1.4633   1.8771   0.00    0.0
2188 438660.000   2248127.5944    865684.7023   5886425.7606   5  13   2.1114   1.8018   4.4319   1.1091   1.4750   1.8833   0.00    0.0
2188 438690.000   2248126.7408    865684.8715   5886425.4071   5  13   2.1108   1.8040   4.4477   1.1124   1.4868   1.8895   0.00    0.0
2188 438720.000   2248126.8941    865685.3598   5886425.2936   5  13   2.1101   1.8063   4.4634   1.1157   1.4985   1.8955   0.00    0.0
2188 438750.000   2248126.7277    865686.0115   5886425.8121   5  13   2.1095   1.8086   4.4789   1.1190   1.5101   1.9014   0.00    0.0
2188 438780.000   2248127.2487    865686.6428   5886427.0272   5  13   2.1088   1.8109   4.4943   1.1223   1.5217   1.9073   0.00    0.0
2188 438810.000   2248128.3293    865685.8643   5886428.6039   5  13   2.1082   1.8133   4.5095   1.1256   1.5333   1.9130   0.00    0.0
2188 438840.000   2248127.7745    865685.4599   5886427.8146   5  13   2.1075   1.8158   4.5245   1.1288   1.5447   1.9186   0.00    0.0
2188 438870.000   2248127.7768    865685.4424   5886425.5009   5  13   2.1068   1.8183   4.5393   1.1321   1.5562   1.9241   0.00    0.0
2188 438900.000   2248128.4153    865685.2636   5886427.0930   5  13   2.1062   1.8208   4.5539   1.1353   1.5675   1.9295   0.00    0.0
2188 438930.000   2248127.5999    865685.8178   5886426.8021   5  13   2.1055   1.8234   4.5683   1.1385   1.5788   1.9347   0.00    0.0
2188 438960.000   2248127.4655    865685.7565   5886427.6971   5  13   2.1048   1.8260   4.5824   1.1416   1.5900   1.9398   0.00    0.0
2188 438990.000   2248127.4555    865685.7767   5886428.8368   5  13   2.1041   1.8286   4.5963   1.1448   1.6011   1.9448   0.00    0.0
2188 439020.000   2248127.2511    865685.3780   5886425.9428   5  13   2.1033   1.8313   4.6099   1.1479   1.6121   1.9497   0.00    0.0
2188 439050.000   2248127.0727    865684.7949   5886425.2084   5  13   2.1026   1.8340   4.6233   1.1510   1.6230   1.9544   0.00    0.0
2188 439080.000   2248127.7273    865685.4992   5886425.4865   5  13   2.1019   1.8367   4.6364   1.1540   1.6339   1.9589   0.00    0.0
2188 439110.000   2248127.3891    865685.4366   5886427.2126   5  13   2.1011   1.8395   4.6491   1.1570   1.6446   1.9633   0.00    0.0
2188 439140.000   2248127.3807    865685.5836   5886426.7298   5  13   2.1003   1.8423   4.6615   1.1600   1.6551   1.9675   0.00    0.0
2188 439170.000   2248127.7097    865685.5997   5886425.6291   5  13   2.0995   1.8451   4.6736   1.1630   1.6656   1.9716   0.00    0.0
2188 439200.000   2248126.6444    865684.6038   5886424.9934   5  13   2.1533   1.8545   4.7901   1.1332   1.6289   2.0935   0.00    0.0
2188 439230.000   2248127.0532    865685.1811   5886426.6891   5  13   2.1530   1.8571   4.8039   1.1369   1.6402   2.0989   0.00    0.0
2188 439260.000   2248128.2016    865685.6704   5886427.9252   5  13   2.1527   1.8596   4.8172   1.1406   1.6513   2.1042   0.00    0.0
2188 439290.000   2248126.9036    865684.8513   5886425.0071   5  13   2.1524   1.8622   4.8302   1.1443   1.6623   2.1094   0.00    0.0
2188 439320.000   2248126.1424    865684.6949   5886424.8502   5  13   2.1520   1.8648   4.8428   1.1479   1.6732   2.1143   0.00    0.0
2188 439350.000   2248127.9519    865686.4919   5886427.8874   5  13   2.1516   1.8674   4.8550   1.1515   1.6839   2.1190   0.00    0.0
2188 439380.000   2248127.0134    865685.1841   5886427.2511   5  13   2.1512   1.8700   4.8667   1.1550   1.6945   2.1236   0.00    0.0
2188 439410.000   2248127.6657    865685.7465   5886427.8075   5  13   2.1508   1.8727   4.8781   1.1585   1.7049   2.1279   0.00    0.0
2188 439440.000   2248127.7070    865685.1602   5886426.0080   5  13   2.1503   1.8754   4.8890   1.1619   1.7152   2.1320   0.00    0.0
2188 439470.000   2248127.1865    865686.3796   5886423.8470   5  13   2.1498   1.8781   4.8994   1.1653   1.7253   2.1359   0.00    0.0
2188 439500.000   2248127.3197    865685.8964   5886425.7545   5  13   2.1493   1.8809   4.9093   1.1686   1.7352   2.1396   0.00    0.0
2188 439530.000   2248128.0497    865685.0383   5886426.3663   5  13   2.1488   1.8836   4.9188   1.1719   1.7450   2.1431   0.00    0.0
2188 439560.000   2248125.8878    865684.6344   5886424.0375   5  13   2.1482   1.8864   4.9278   1.1752   1.7546   2.1463   0.00    0.0
2188 439590.000   2248126.6344    865684.8179   5886423.5087   5  13   2.1476   1.8892   4.9363   1.1783   1.7640   2.1493   0.00    0.0
2188 439620.000   2248128.1106    865685.8400   5886427.2950   5  13   2.1470   1.8920   4.9442   1.1814   1.7731   2.1521   0.00    0.0
2188 439650.000   2248127.5952    865685.7310   5886426.0993   5  13   2.1463   1.8948   4.9516   1.1845   1.7821   2.1546   0.00    0.0
2188 439680.000   2248126.7577    865686.0834   5886425.1736   5  13   2.1456   1.8976   4.9585   1.1875   1.7909   2.1569   0.00    0.0
2188 439710.000   2248127.1203    865685.7368   5886424.7286   5  13   2.1449   1.9004   4.9649   1.1904   1.7994   2.1590   0.00    0.0
2188 439740.000   2248127.3595    865685.4325   5886426.7682   5  13   2.1441   1.9033   4.9707   1.1933   1.8078   2.1608   0.00    0.0
2188 439770.000   2248127.3132    865685.2490   5886426.4534   5  12   2.2486   1.9226   5.2630   1.2655   1.9310   2.4170   0.00    0.0
2188 439800.000   2248127.8980    865685.1225   5886428.5935   5  12   2.2485   1.9258   5.2743   1.2692   1.9412   2.4219   0.00    0.0
2188 439830.000   2248127.2269    865685.3393   5886427.2203   5  12   2.2483   1.9291   5.2849   1.2727   1.9511   2.4265   0.00    0.0
2188 439860.000   2248126.7995    865685.6133   5886426.0381   5  12   2.2481   1.9323   5.2950   1.2762   1.9608   2.4309   0.00    0.0
2188 439890.000   2248127.8302    865686.0402   5886427.5265   5  12   2.2478   1.9355   5.3043   1.2796   1.9702   2.4349   0.00    0.0
2188 439920.000   2248127.5387    865685.6762   5886427.4336   5  12   2.2475   1.9387   5.3131   1.2829   1.9793   2.4385   0.00    0.0
2188 439950.000   2248127.5235    865685.6512   5886427.4354   5  12   2.2471   1.9419   5.3211   1.2861   1.9882   2.4419   0.00    0.0
2188 439980.000   2248127.7547    865685.6419   5886426.9596   5  12   2.2466   1.9451   5.3285   1.2892   1.9968   2.4449   0.00    0.0
2188 440010.000   2248128.1450    865685.7597   5886428.1438   5  12   2.2461   1.9483   5.3352   1.2922   2.0050   2.4476   0.00    0.0
2188 440040.000   2248128.4754    865686.0206   5886429.2218   5  12   2.2455   1.9514   5.3411   1.2951   2.0130   2.4500   0.00    0.0
2188 440070.000   2248127.9651    865685.3308   5886427.9639   5  12   2.2449   1.9545   5.3464   1.2979   2.0206   2.4520   0.00    0.0
2188 440100.000   2248126.9530    865685.4318   5886426.1111   5  12   2.2442   1.9576   5.3509   1.3006   2.0280   2.4537   0.00    0.0
2188 440130.000   2248128.4433    865685.5591   5886427.9738   5  12   2.2434   1.9607   5.3548   1.3032   2.0350   2.4551   0.00    0.0
2188 440160.000   2248127.5910    865685.4385   5886428.3497   5  12   2.2426   1.9637   5.3579   1.3056   2.0417   2.4561   0.00    0.0
2188 440190.000   2248128.2579    865685.8479   5886428.6205   5  12   2.2417   1.9667   5.3603   1.3080   2.0480   2.4568   0.00    0.0
2188 440220.000   2248127.6444    865685.5791   5886427.3025   5  12   2.2407   1.9697   5.3619   1.3102   2.0540   2.4572   0.00    0.0
2188 440250.000   2248127.5282    865685.5840   5886427.3154   5  12   2.2397   1.9727   5.3628   1.3123   2.0597   2.4572   0.00    0.0
2188 440280.000   2248127.9663    865685.6217   5886428.7417   5  12   2.2386   1.9756   5.3630   1.3143   2.0650   2.4568   0.00    0.0
2188 440310.000   2248127.6933    865685.6181   5886426.9871   5  12   2.2375   1.9784   5.3624   1.3162   2.0700   2.4562   0.00    0.0
2188 440340.000   2248127.6962    865685.7171   5886426.2090   5  12   2.2363   1.9813   5.3611   1.3179   2.0746   2.4552   0.00    0.0
2188 440370.000   2248128.2482    865685.4850   5886427.0124   5  12   2.2351   1.9840   5.3591   1.3196   2.0789   2.4538   0.00    0.0
2188 440400.000   2248127.1992    865685.4874   5886425.5036   5  12   2.2338   1.9868   5.3563   1.3211   2.0828   2.4522   0.00    0.0
2188 440430.000   2248128.5517    865686.1364   5886427.0458   5  12   2.2324   1.9895   5.3529   1.3225   2.0864   2.4502   0.00    0.0
2188 440460.000   2248128.2849    865685.7228   5886428.5273   5  12   2.2310   1.9921   5.3487   1.3238   2.0896   2.4480   0.00    0.0
2188 440490.000   2248127.5659    865686.0959   5886428.3750   5  12   2.2296   1.9947   5.3438   1.3249   2.0925   2.4454   0.00    0.0
2188 440520.000   2248127.1392    865685.8657   5886427.6526   5  12   2.2281   1.9972   5.3382   1.3259   2.0950   2.4425   0.00    0.0
2188 440550.000   2248127.2805    865686.1412   5886428.3172   5  12   2.2265   1.9997   5.3319   1.3268   2.0971   2.4393   0.00    0.0
2188 440580.000   2248127.2478    865685.2080   5886426.5643   5  12   2.2249   2.0022   5.3250   1.3276   2.0989   2.4358   0.00    0.0
2188 440610.000   2248127.6934    865685.4349   5886427.6590   5  12   2.2233   2.0045   5.3174   1.3283   2.1004   2.4320   0.00    0.0
2188 440640.000   2248127.3315    865685.1627   5886426.2046   5  12   2.2217   2.0069   5.3091   1.3288   2.1015   2.4280   0.00    0.0
2188 440670.000   2248127.3012    865685.2562   5886429.3879   5  12   2.2200   2.0091   5.3002   1.3293   2.1022   2.4236   0.00    0.0
2188 440700.000   2248128.4983    865685.9505   5886429.6387   5  12   2.2182   2.0114   5.2907   1.3296   2.1026   2.4191   0.00    0.0
2188 440730.000   2248127.3862    865685.5489   5886426.9917   5  12   2.2165   2.0135   5.2806   1.3298   2.1027   2.4142   0.00    0.0
2188 440760.000   2248128.6058    865686.2485   5886430.8309   5  12   2.2147   2.0156   5.2698   1.3299   2.1024   2.4092   0.00    0.0
2188 440790.000   2248127.9396    865686.1276   5886428.3698   5  12   2.2129   2.0177   5.2585   1.3299   2.1018   2.4039   0.00    0.0
2188 440820.000   2248127.4461    865686.2952   5886427.4957   5  12   2.2111   2.0197   5.2467   1.3297   2.1009   2.3983   0.00    0.0
2188 440850.000   2248127.1850    865685.8992   5886428.6317   5  12   2.2092   2.0216   5.2343   1.3295   2.0996   2.3926   0.00    0.0
2188 440880.000   2248127.0106    865685.7426   5886426.4708   5  12   2.2074   2.0235   5.2214   1.3291   2.0981   2.3867   0.00    0.0
2188 440910.000   2248127.0487    865686.5268   5886428.2970   5  12   2.2055   2.0254   5.2079   1.3287   2.0962   2.3805   0.00    0.0
2188 440940.000   2248127.3186    865685.7559   5886427.8236   5  12   2.2037   2.0271   5.1940   1.3281   2.0940   2.3742   0.00    0.0
2188 440970.000   2248127.4493    865686.0845   5886428.0010   5  12   2.2018   2.0289   5.1797   1.3275   2.0915   2.3678   0.00    0.0
2188 441000.000   2248127.3581    865685.7078   5886425.1528   5  13   1.9558   1.6960   4.7654   0.7971   1.4625   1.8891   0.00    0.0
2188 441030.000   2248127.5217    865684.6501   5886426.3413   5  13   1.9552   1.6966   4.7569   0.7965   1.4641   1.8872   0.00    0.0
2188 441060.000   2248126.8453    865685.3505   5886426.1083   5  13   1.9546   1.6973   4.7481   0.7958   1.4656   1.8854   0.00    0.0
2188 441090.000   2248127.0375    865685.7618   5886426.1148   5  13   1.9541   1.6981   4.7390   0.7953   1.4671   1.8836   0.00    0.0
2188 441120.000   2248126.7226    865686.0196   5886425.2082   5  13   1.9537   1.6988   4.7297   0.7947   1.4684   1.8818   0.00    0.0
2188 441150.000   2248126.4917    865685.1472   5886424.7487   5  13   1.9534   1.6997   4.7201   0.7942   1.4697   1.8800   0.00    0.0
2188 441180.000   2248128.5445    865685.5197   5886426.7005   5  13   1.9532   1.7005   4.7102   0.7937   1.4708   1.8783   0.00    0.0
2188 441210.000   2248127.1004    865685.6621   5886426.2324   5  13   1.9530   1.7014   4.7001   0.7933   1.4718   1.8765   0.00    0.0
2188 441240.000   2248127.0726    865685.7487   5886426.0260   5  13   1.9529   1.7024   4.6898   0.7928   1.4728   1.8749   0.00    0.0
2188 441270.000   2248127.2290    865685.1430   5886427.2761   5  13   1.9529   1.7033   4.6793   0.7924   1.4736   1.8732   0.00    0.0
2188 441300.000   2248126.8971    865685.8882   5886426.6836   5  13   1.9529   1.7043   4.6685   0.7920   1.4742   1.8716   0.00    0.0
2188 441330.000   2248127.0434    865685.2321   5886426.3597   5  13   1.9530   1.7053   4.6575   0.7915   1.4748   1.8700   0.00    0.0
2188 441360.000   2248127.6550    865685.1249   5886427.0381   5  13   1.9532   1.7064   4.6463   0.7911   1.4752   1.8685   0.00    0.0
2188 441390.000   2248126.1407    865686.0143   5886425.0600   5  12   2.2569   1.7506   5.0835   0.4342   1.1706   2.4177   0.00    0.0
2188 441420.000   2248126.9683    865685.8895   5886426.2983   5  12   2.2573   1.7510   5.0758   0.4374   1.1725   2.4183   0.00    0.0
2188 441450.000   2248127.5714    865686.0075   5886426.5163   5  12   2.2578   1.7514   5.0676   0.4407   1.1744   2.4186   0.00    0.0
2188 441480.000   2248128.1488    865685.2440   5886428.5742   5  12   2.2581   1.7519   5.0589   0.4440   1.1762   2.4188   0.00    0.0
2188 441510.000   2248126.6235    865685.0836   5886425.8072   5  12   2.2585   1.7523   5.0498   0.4474   1.1780   2.4187   0.00    0.0
2188 441540.000   2248127.4686    865684.5157   5886428.2182   5  12   2.2588   1.7528   5.0403   0.4508   1.1798   2.4183   0.00    0.0
2188 441570.000   2248127.2507    865685.4652   5886428.4602   5  12   2.2591   1.7533   5.0303   0.4543   1.1816   2.4178   0.00    0.0
2188 441600.000   2248127.0079    865685.3364   5886427.8578   5  12   2.2593   1.7538   5.0199   0.4578   1.1832   2.4170   0.00    0.0
2188 441630.000   2248127.1231    865685.4209   5886427.8167   5  12   2.2595   1.7544   5.0091   0.4613   1.1849   2.4159   0.00    0.0
2188 441660.000   2248126.3752    865685.5885   5886425.8170   5  12   2.2597   1.7549   4.9978   0.4649   1.1865   2.4147   0.00    0.0
2188 441690.000   2248127.5597    865685.1704   5886428.4441   5  12   2.2598   1.7555   4.9862   0.4684   1.1880   2.4132   0.00    0.0
2188 441720.000   2248127.7417    865685.2240   5886427.4978   5  12   2.2599   1.7561   4.9741   0.4720   1.1895   2.4114   0.00    0.0
2188 441750.000   2248126.8062    865685.6260   5886426.2319   5  12   2.2599   1.7568   4.9616   0.4756   1.1909   2.4095   0.00    0.0
2188 441780.000   2248127.1442    865685.3562   5886426.1111   5  12   2.2599   1.7574   4.9488   0.4792   1.1922   2.4073   0.00    0.0
2188 441810.000   2248127.0583    865685.1719   5886428.2340   5  12   2.2599   1.7581   4.9355   0.4827   1.1935   2.4049   0.00    0.0
2188 441840.000   2248127.9051    865685.7923   5886429.0837   5  12   2.2598   1.7587   4.9219   0.4863   1.1947   2.4023   0.00    0.0
2188 441870.000   2248126.8740    865684.8161   5886428.5247   5  12   2.2596   1.7594   4.9080   0.4898   1.1958   2.3994   0.00    0.0
2188 441900.000   2248126.7714    865685.1872   5886424.8948   5  11   2.3025   1.7790   7.0192   0.5983   1.6532   2.8236   0.00    0.0
2188 441930.000   2248127.3834    865685.1980   5886428.2322   5  12   2.2592   1.7608   4.8790   0.4969   1.1978   2.3931   0.00    0.0
2188 441960.000   2248127.3433    865685.2515   5886426.7988   5  13   2.2208   1.3812   4.7647  -0.4489   0.6063   2.3035   0.00    0.0
2188 441990.000   2248127.5748    865685.3725   5886427.8234   5  13   2.2207   1.3801   4.7510  -0.4446   0.6141   2.3008   0.00    0.0
2188 442020.000   2248126.8595    865685.3299   5886427.2361   5  13   2.2206   1.3790   4.7370  -0.4402   0.6217   2.2979   0.00    0.0
2188 442050.000   2248126.8469    865684.7381   5886425.9334   5  13   2.2205   1.3781   4.7227  -0.4356   0.6293   2.2948   0.00    0.0
2188 442080.000   2248127.9342    865686.0164   5886427.2516   5  13   2.2203   1.3772   4.7081  -0.4309   0.6369   2.2915   0.00    0.0
2188 442110.000   2248127.3355    865685.6036   5886427.1572   5  13   2.2200   1.3763   4.6933  -0.4261   0.6444   2.2880   0.00    0.0
2188 442140.000   2248127.0487    865685.4606   5886426.0314   5  13   2.2198   1.3755   4.6782  -0.4211   0.6517   2.2844   0.00    0.0
2188 442170.000   2248127.8394    865685.7191   5886427.8593   5  13   2.2195   1.3747   4.6629  -0.4159   0.6590   2.2806   0.00    0.0
2188 442200.000   2248127.1217    865685.9831   5886427.5075   5  13   2.2191   1.3740   4.6473  -0.4107   0.6662   2.2766   0.00    0.0
2188 442230.000   2248127.1168    865685.4982   5886427.6490   5  13   2.2188   1.3734   4.6315  -0.4053   0.6734   2.2725   0.00    0.0
2188 442260.000   2248126.6178    865686.4072   5886427.8064   5  13   2.2184   1.3728   4.6155  -0.3997   0.6804   2.2682   0.00    0.0
2188 442290.000   2248127.3906    865685.2172   5886427.6605   5  13   2.2180   1.3722   4.5993  -0.3940   0.6872   2.2637   0.00    0.0
2188 442320.000   2248127.2380    865685.5423   5886427.3871   5  13   2.2175   1.3717   4.5829  -0.3882   0.6940   2.2591   0.00    0.0
2188 442350.000   2248126.9040    865685.1553   5886427.3649   5  13   2.2170   1.3712   4.5664  -0.3823   0.7007   2.2544   0.00    0.0
2188 442380.000   2248126.3520    865685.9130   5886426.3175   5  13   2.2165   1.3708   4.5496  -0.3761   0.7072   2.2495   0.00    0.0
2188 442410.000   2248127.2482    865685.9666   5886428.6631   5  13   2.2159   1.3704   4.5327  -0.3699   0.7137   2.2444   0.00    0.0
2188 442440.000   2248127.8935    865685.5758   5886427.5029   5  13   2.2154   1.3701   4.5157  -0.3635   0.7199   2.2393   0.00    0.0
2188 442470.000   2248127.6516    865684.6853   5886425.4923   5  13   2.2147   1.3698   4.4985  -0.3569   0.7261   2.2340   0.00    0.0
2188 442500.000   2248127.4409    865686.2018   5886427.4641   5  13   2.2141   1.3695   4.4811  -0.3502   0.7322   2.2285   0.00    0.0
2188 442530.000   2248126.6742    865685.4355   5886426.4093   5  13   2.2134   1.3693   4.4637  -0.3434   0.7381   2.2230   0.00    0.0
2188 442560.000   2248126.6976    865685.1683   5886427.9791   5  13   2.2128   1.3691   4.4461  -0.3363   0.7439   2.2173   0.00    0.0
2188 442590.000   2248126.5637    865685.1932   5886427.4657   5  13   2.2121   1.3690   4.4285  -0.3291   0.7495   2.2115   0.00    0.0
2188 442620.000   2248127.5902    865685.4811   5886426.2165   5  13   2.2113   1.3688   4.4107  -0.3217   0.7551   2.2057   0.00    0.0
2188 442650.000   2248127.5070    865685.9528   5886428.6936   5  13   2.2106   1.3688   4.3928  -0.3141   0.7605   2.1997   0.00    0.0
2188 442680.000   2248127.7047    865686.1453   5886427.8137   5  13   2.2098   1.3687   4.3749  -0.3063   0.7658   2.1936   0.00    0.0
2188 442710.000   2248127.9736    865685.6696   5886427.8013   5  14   2.2059   1.3306   3.9215  -0.2271  -0.1198   2.2375   0.00    0.0
2188 442740.000   2248127.6485    865686.1006   5886427.1607   5  14   2.2046   1.3302   3.9124  -0.2096  -0.0481   2.2341   0.00    0.0
2188 442770.000   2248127.9561    865685.9786   5886429.0690   5  14   2.2033   1.3299   3.9032  -0.1905   0.0991   2.2306   0.00    0.0
2188 442800.000   2248127.6930    865686.0465   5886427.2947   5  14   2.0760   1.3290   3.6636  -0.2399  -0.1735   1.9976   0.00    0.0
2188 442830.000   2248126.6552    865686.4068   5886426.7986   5  14   2.0750   1.3287   3.6561  -0.2278  -0.1461   1.9951   0.00    0.0
2188 442860.000   2248126.7438    865685.8162   5886426.7421   5  14   2.0740   1.3284   3.6486  -0.2150  -0.1119   1.9924   0.00    0.0
2188 442890.000   2248127.0853    865685.3829   5886425.2143   5  14   2.0730   1.3282   3.6411  -0.2012  -0.0600   1.9897   0.00    0.0
2188 442920.000   2248127.4676    865685.6964   5886426.7754   5  14   2.0719   1.3279   3.6336  -0.1864   0.0736   1.9868   0.00    0.0
2188 442950.000   2248127.5161    865686.1244   5886427.2388   5  14   2.0708   1.3277   3.6261  -0.1702   0.1204   1.9838   0.00    0.0
2188 442980.000   2248126.9299    865685.6198   5886426.3518   5  14   2.0697   1.3276   3.6186  -0.1522   0.1537   1.9806   0.00    0.0
2188 443010.000   2248126.1415    865685.9523   5886426.3884   5  14   2.0685   1.3275   3.6110  -0.1317   0.1812   1.9774   0.00    0.0
2188 443040.000   2248127.3371    865685.5086   5886426.9902   5  14   2.0673   1.3274   3.6034  -0.1074   0.2051   1.9740   0.00    0.0
2188 443070.000   2248127.0368    865685.4771   5886425.5291   5  14   2.0661   1.3273   3.5958  -0.0754   0.2266   1.9706   0.00    0.0
2188 443100.000   2248126.6848    865685.3890   5886425.2885   5  14   2.0649   1.3273   3.5882   0.0130   0.2463   1.9670   0.00    0.0
2188 443130.000   2248127.2108    865685.4837   5886426.8494   5  14   2.0636   1.3273   3.5805   0.0776   0.2646   1.9633   0.00    0.0
2188 443160.000   2248126.8194    865685.6495   5886425.6774   5  14   2.0623   1.3273   3.5728   0.1090   0.2817   1.9595   0.00    0.0
2188 443190.000   2248127.5430    865685.0740   5886426.8970   5  14   2.0609   1.3274   3.5651   0.1332   0.2979   1.9556   0.00    0.0
2188 443220.000   2248128.2772    865686.2069   5886427.1565   5  14   2.0596   1.3275   3.5574   0.1537   0.3132   1.9516   0.00    0.0
2188 443250.000   2248126.7813    865685.8457   5886425.2285   5  14   2.0582   1.3276   3.5496   0.1717   0.3278   1.9475   0.00    0.0
2188 443280.000   2248127.2464    865685.6279   5886426.1808   5  14   2.0568   1.3278   3.5418   0.1879   0.3418   1.9432   0.00    0.0
2188 443310.000   2248126.4676    865685.3700   5886426.7680   5  14   2.0554   1.3280   3.5340   0.2029   0.3552   1.9389   0.00    0.0
2188 443340.000   2248126.6413    865685.9056   5886426.0767   5  14   2.0539   1.3282   3.5261   0.2168   0.3680   1.9345   0.00    0.0
2188 443370.000   2248127.4777    865685.1928   5886426.0163   5  14   2.0524   1.3284   3.5182   0.2298   0.3804   1.9300   0.00    0.0
2188 443400.000   2248127.2533    865685.2121   5886426.7872   5  14   2.0509   1.3287   3.5103   0.2421   0.3924   1.9254   0.00    0.0
2188 443430.000   2248127.1766    865685.3259   5886426.8507   5  14   2.0494   1.3290   3.5024   0.2537   0.4039   1.9207   0.00    0.0
2188 443460.000   2248127.8420    865685.7145   5886425.4804   5  14   2.0479   1.3293   3.4944   0.2648   0.4151   1.9159   0.00    0.0
2188 443490.000   2248127.0585    865685.5771   5886424.4695   5  13   2.0480   1.3497   4.1062   0.2386  -0.5661   1.9569   0.00    0.0
2188 443520.000   2248127.4283    865685.4137   5886426.2807   5  14   2.0448   1.3301   3.4785   0.2856   0.4365   1.9060   0.00    0.0
2188 443550.000   2248127.1844    865685.3905   5886426.1763   5  14   2.0432   1.3305   3.4705   0.2954   0.4467   1.9010   0.00    0.0
2188 443580.000   2248127.0911    865685.5052   5886425.9348   5  14   2.0416   1.3309   3.4624   0.3049   0.4566   1.8958   0.00    0.0
2188 443610.000   2248126.9658    865685.5031   5886426.4108   5  14   2.0400   1.3314   3.4544   0.3140   0.4662   1.8906   0.00    0.0
2188 443640.000   2248126.7406    865685.8408   5886426.8097   5  14   2.0384   1.3319   3.4464   0.3227   0.4755   1.8853   0.00    0.0
2188 443670.000   2248126.4403    865685.5404   5886426.1336   5  13   2.0379   1.3520   4.0486   0.3073  -0.5055   1.9175   0.00    0.0
2188 443700.000   2248126.3948    865685.6572   5886425.4071   5  14   2.0352   1.3329   3.4302   0.3395   0.4934   1.8744   0.00    0.0
2188 443730.000   2248126.5319    865685.8009   5886425.3401   5  14   2.0335   1.3335   3.4222   0.3475   0.5020   1.8689   0.00    0.0
2188 443760.000   2248127.2984    865685.4037   5886427.0317   5  14   2.0319   1.3341   3.4141   0.3552   0.5104   1.8633   0.00    0.0
2188 443790.000   2248126.8974    865685.1988   5886426.1593   5  14   2.0302   1.3347   3.4061   0.3628   0.5186   1.8576   0.00    0.0
2188 443820.000   2248126.8179    865685.2589   5886425.1333   5  14   2.0286   1.3354   3.3980   0.3701   0.5265   1.8518   0.00    0.0
2188 443850.000   2248126.6521    865685.6140   5886426.5252   5  14   2.0269   1.3360   3.3900   0.3773   0.5342   1.8460   0.00    0.0
2188 443880.000   2248127.4535    865685.5603   5886425.5520   5  14   2.0253   1.3367   3.3819   0.3842   0.5418   1.8401   0.00    0.0
2188 443910.000   2248127.1369    865685.6463   5886424.9742   5  13   2.0241   1.3566   3.9720   0.3783  -0.4180   1.8585   0.00    0.0
2188 443940.000   2248127.3508    865685.8728   5886425.6676   5  14   2.0220   1.3382   3.3659   0.3976   0.5563   1.8282   0.00    0.0
2188 443970.000   2248125.8035    865686.3110   5886426.1401   5  14   2.0203   1.3389   3.3579   0.4040   0.5633   1.8221   0.00    0.0
2188 444000.000   2248126.7963    865686.3843   5886426.2829   5  14   2.0187   1.3397   3.3499   0.4103   0.5701   1.8160   0.00    0.0
2188 444030.000   2248126.9699    865685.4688   5886424.2085   5  14   2.0170   1.3405   3.3420   0.4164   0.5767   1.8098   0.00    0.0
2188 444060.000   2248127.3256    865685.8112   5886427.6901   5  14   2.0154   1.3413   3.3341   0.4224   0.5831   1.8036   0.00    0.0
2188 444090.000   2248127.7405    865685.9383   5886425.9729   5  14   2.0137   1.3422   3.3262   0.4282   0.5894   1.7973   0.00    0.0
2188 444120.000   2248127.5197    865686.2310   5886425.1455   5  13   2.0122   1.3619   3.9069   0.4290  -0.3337   1.8018   0.00    0.0
2188 444150.000   2248127.1961    865685.7957   5886427.3260   5  14   2.0105   1.3440   3.3106   0.4395   0.6016   1.7846   0.00    0.0
2188 444180.000   2248127.4361    865685.5877   5886425.2145   5  13   2.0089   1.3637   3.8889   0.4420  -0.3077   1.7848   0.00    0.0
2188 444210.000   2248126.8470    865685.5950   5886424.7096   5  14   2.0073   1.3458   3.2951   0.4502   0.6131   1.7717   0.00    0.0
2188 444240.000   2248126.9725    865686.3538   5886425.0181   5  13   2.0057   1.3656   3.8713   0.4544  -0.2806   1.7675   0.00    0.0
2188 444270.000   2248127.0775    865686.3825   5886426.2294   5  13   2.0042   1.3665   3.8626   0.4605  -0.2665   1.7587   0.00    0.0
2188 444300.000   2248126.6188    865685.9195   5886426.1241   5  14   1.8482   1.3196   3.8047  -0.2431  -0.5331   1.6086   0.00    0.0
2188 444330.000   2248127.4745    865686.5859   5886425.6960   5  14   1.8471   1.3199   3.7984  -0.2355  -0.5230   1.6026   0.00    0.0
2188 444360.000   2248127.7585    865685.5295   5886425.5989   5  15   1.8460   1.3028   3.1911  -0.2209   0.4185   1.5874   0.00    0.0
2188 444390.000   2248127.1168    865685.2660   5886425.6658   5  15   1.8450   1.3032   3.1856  -0.2135   0.4282   1.5827   0.00    0.0
2188 444420.000   2248127.4217    865685.4488   5886425.1053   5  15   1.8440   1.3037   3.1802  -0.2059   0.4377   1.5780   0.00    0.0
2188 444450.000   2248126.8422    865685.5928   5886424.9613   5  15   1.8431   1.3043   3.1748  -0.1980   0.4469   1.5733   0.00    0.0
2188 444480.000   2248126.3197    865686.1482   5886425.4493   5  14   1.8422   1.3217   3.7686  -0.1923  -0.4702   1.5716   0.00    0.0
2188 444510.000   2248127.4573    865685.9520   5886424.2874   5  14   1.8414   1.3221   3.7630  -0.1825  -0.4591   1.5653   0.00    0.0
2188 444540.000   2248127.9643    865685.7930   5886426.2050   5  15   1.8406   1.3060   3.1592  -0.1722   0.4733   1.5592   0.00    0.0
2188 444570.000   2248128.1011    865685.7946   5886425.5926   5  15   1.8399   1.3067   3.1541  -0.1627   0.4817   1.5544   0.00    0.0
2188 444600.000   2248127.9839    865686.5485   5886424.7281   5  14   1.8392   1.3236   3.7469  -0.1490  -0.4250   1.5461   0.00    0.0
2188 444630.000   2248127.3195    865686.2258   5886426.1662   5  15   1.8386   1.3080   3.1443  -0.1419   0.4979   1.5449   0.00    0.0
2188 444660.000   2248126.5122    865685.9271   5886425.1007   5  14   1.8380   1.3248   3.7370  -0.1217  -0.4013   1.5331   0.00    0.0
2188 444690.000   2248126.3558    865686.1255   5886423.9426   5  15   1.8374   1.3095   3.1348  -0.1178   0.5134   1.5353   0.00    0.0
2188 444720.000   2248127.1554    865685.6142   5886425.1305   5  15   1.8369   1.3103   3.1303  -0.1038   0.5209   1.5305   0.00    0.0
2188 444750.000   2248127.6227    865686.4184   5886423.9036   5  14   1.8365   1.3268   3.7234  -0.0618  -0.3642   1.5131   0.00    0.0
2188 444780.000   2248127.6193    865685.5593   5886426.1822   5  15   1.8360   1.3119   3.1214  -0.0678   0.5355   1.5208   0.00    0.0
2188 444810.000   2248126.8576    865685.6763   5886424.7830   5  14   1.8358   1.3283   3.7154   0.0587  -0.3382   1.4994   0.00    0.0
2188 444840.000   2248127.0609    865685.7421   5886425.3316   5  15   1.8353   1.3137   3.1131   0.0385   0.5494   1.5111   0.00    0.0
2188 444870.000   2248127.4221    865685.2836   5886425.4835   5  15   1.8351   1.3146   3.1091   0.0670   0.5561   1.5062   0.00    0.0
2188 444900.000   2248126.4833    865685.3225   5886427.1722   5  14   1.8691   1.3204   3.6244   0.2182   0.3258   1.2600   0.00    0.0
