% program   : RTKLIB ver.demo5 b34j
% inp file  : E:\GAMPII-GOOD\dataset_Win\obs\2021\351\MGEX\daily\kir83510.21o
% inp file  : E:\Navigation_Learn\GNSS\RTKLIB-b34k\data\data_IGM-A1_Vehicle_open_20211217-nsh\brdm3510.21p
% inp file  : E:\Navigation_Learn\GNSS\RTKLIB-b34k\data\data_IGM-A1_Vehicle_open_20211217-nsh\CAS0MGXRAP_20213510000_01D_01D_OSB.BIA
% obs start : 2021/12/17 00:00:00.0 GPST (week2188 432000.0s)
% obs end   : 2021/12/17 23:59:30.0 GPST (week2188 518370.0s)
% pos mode  : Single
% elev mask : 10.0 deg
% ionos opt : Iono-Free LC
% tropo opt : Saastamoinen
% ephemeris : Broadcast
% navi sys  : GPS BDS
%
% (x/y/z-ecef=WGS84,Q=1:fix,2:float,3:sbas,4:dgps,5:single,6:ppp,ns=# of satellites)
%  GPST              x-ecef(m)      y-ecef(m)      z-ecef(m)   Q  ns   sdx(m)   sdy(m)   sdz(m)  sdxy(m)  sdyz(m)  sdzx(m) age(s)  ratio
2188 432000.000   2248127.4826    865685.7373   5886426.8568   5  13   2.4301   1.7074   6.1917  -0.5469  -0.2532   3.3518   0.00    0.0
2188 432030.000   2248129.4032    865686.3484   5886430.0574   5  13   2.4298   1.7072   6.1895  -0.5541  -0.3131   3.3506   0.00    0.0
2188 432060.000   2248129.4446    865685.5276   5886430.1973   5  13   2.4293   1.7070   6.1862  -0.5612  -0.3630   3.3486   0.00    0.0
2188 432090.000   2248129.0888    865685.2575   5886430.1880   5  13   2.4284   1.7069   6.1816  -0.5681  -0.4064   3.3460   0.00    0.0
2188 432120.000   2248128.3032    865685.1342   5886427.1059   5  13   2.4273   1.7068   6.1760  -0.5749  -0.4453   3.3427   0.00    0.0
2188 432150.000   2248128.9247    865685.8296   5886429.3374   5  12   2.4516   1.7072   7.2084  -0.5939  -0.6199   3.5305   0.00    0.0
2188 432180.000   2248129.3220    865685.2727   5886430.3044   5  13   2.4243   1.7066   6.1611  -0.5879  -0.5132   3.3340   0.00    0.0
2188 432210.000   2248129.5509    865685.6668   5886432.5588   5  13   2.4224   1.7065   6.1520  -0.5941  -0.5435   3.3287   0.00    0.0
2188 432240.000   2248129.0072    865685.8996   5886429.0717   5  13   2.4202   1.7065   6.1418  -0.6002  -0.5717   3.3228   0.00    0.0
2188 432270.000   2248129.3292    865685.0661   5886432.2605   5  13   2.4177   1.7065   6.1305  -0.6061  -0.5983   3.3163   0.00    0.0
2188 432300.000   2248128.8427    865685.4357   5886429.5681   5  13   2.4150   1.7066   6.1182  -0.6118  -0.6233   3.3091   0.00    0.0
2188 432330.000   2248129.2867    865685.6360   5886432.2646   5  13   2.4121   1.7066   6.1048  -0.6173  -0.6469   3.3013   0.00    0.0
2188 432360.000   2248129.2785    865685.8510   5886430.5497   5  13   2.4089   1.7067   6.0904  -0.6226  -0.6693   3.2930   0.00    0.0
2188 432390.000   2248129.7846    865685.6851   5886430.8808   5  13   2.4055   1.7068   6.0750  -0.6278  -0.6905   3.2840   0.00    0.0
2188 432420.000   2248129.0271    865685.1819   5886429.7650   5  13   2.4018   1.7070   6.0587  -0.6327  -0.7107   3.2745   0.00    0.0
2188 432450.000   2248128.2790    865685.5784   5886428.5030   5  13   2.3980   1.7071   6.0415  -0.6375  -0.7299   3.2645   0.00    0.0
2188 432480.000   2248129.7648    865685.0580   5886430.9892   5  13   2.3939   1.7073   6.0233  -0.6421  -0.7482   3.2540   0.00    0.0
2188 432510.000   2248129.0589    865685.3217   5886428.3489   5  13   2.3896   1.7075   6.0044  -0.6465  -0.7657   3.2429   0.00    0.0
2188 432540.000   2248129.0470    865685.8409   5886429.2242   5  13   2.3852   1.7077   5.9845  -0.6507  -0.7823   3.2314   0.00    0.0
2188 432570.000   2248129.4909    865685.9633   5886430.8931   5  13   2.3806   1.7080   5.9639  -0.6548  -0.7982   3.2194   0.00    0.0
2188 432600.000   2248129.1916    865685.3046   5886430.8834   5  13   2.3758   1.7082   5.9426  -0.6586  -0.8134   3.2070   0.00    0.0
2188 432630.000   2248130.0951    865685.5615   5886433.2393   5  13   2.3708   1.7085   5.9205  -0.6623  -0.8279   3.1941   0.00    0.0
2188 432660.000   2248129.5784    865685.1170   5886430.6819   5  13   2.3657   1.7089   5.8978  -0.6658  -0.8417   3.1808   0.00    0.0
2188 432690.000   2248128.7758    865685.8613   5886429.4514   5  13   2.3605   1.7092   5.8744  -0.6691  -0.8549   3.1671   0.00    0.0
2188 432720.000   2248129.4677    865685.8821   5886430.0379   5  13   2.3551   1.7096   5.8503  -0.6723  -0.8675   3.1531   0.00    0.0
2188 432750.000   2248130.9738    865685.2492   5886432.5221   5  13   2.3496   1.7099   5.8257  -0.6753  -0.8795   3.1387   0.00    0.0
2188 432780.000   2248129.7732    865685.2759   5886431.0840   5  13   2.3440   1.7104   5.8006  -0.6781  -0.8910   3.1240   0.00    0.0
2188 432810.000   2248129.1347    865685.6623   5886432.4670   5  13   2.3382   1.7108   5.7749  -0.6808  -0.9020   3.1090   0.00    0.0
2188 432840.000   2248129.5994    865685.5919   5886430.9643   5  13   2.3324   1.7112   5.7488  -0.6833  -0.9125   3.0937   0.00    0.0
2188 432870.000   2248129.5927    865685.8351   5886432.4138   5  13   2.3265   1.7117   5.7222  -0.6856  -0.9225   3.0781   0.00    0.0
2188 432900.000   2248129.4002    865685.6234   5886432.9510   5  13   2.3205   1.7122   5.6953  -0.6878  -0.9320   3.0623   0.00    0.0
2188 432930.000   2248130.0672    865685.6620   5886432.1228   5  13   2.3145   1.7127   5.6679  -0.6899  -0.9411   3.0462   0.00    0.0
2188 432960.000   2248130.1391    865685.0870   5886431.6976   5  13   2.3084   1.7132   5.6402  -0.6918  -0.9498   3.0299   0.00    0.0
2188 432990.000   2248130.0341    865686.2983   5886431.5201   5  13   2.3022   1.7138   5.6122  -0.6935  -0.9580   3.0134   0.00    0.0
2188 433020.000   2248130.4785    865684.8991   5886434.4668   5  13   2.2960   1.7144   5.5840  -0.6951  -0.9659   2.9968   0.00    0.0
2188 433050.000   2248128.8226    865685.3098   5886430.7728   5  13   2.2898   1.7150   5.5555  -0.6966  -0.9734   2.9800   0.00    0.0
2188 433080.000   2248129.4589    865684.7030   5886431.7946   5  14   2.2789   1.6148   5.2125  -0.7554  -1.4233   2.9180   0.00    0.0
2188 433110.000   2248129.9304    865685.0476   5886431.1083   5  14   2.2736   1.6144   5.1966  -0.7509  -1.4213   2.9064   0.00    0.0
2188 433140.000   2248130.5157    865685.3045   5886432.0209   5  14   2.2681   1.6139   5.1803  -0.7461  -1.4191   2.8946   0.00    0.0
2188 433170.000   2248128.9657    865685.6687   5886430.0681   5  14   2.2625   1.6135   5.1637  -0.7411  -1.4166   2.8825   0.00    0.0
2188 433200.000   2248128.7818    865685.2969   5886429.4984   5  14   2.2568   1.6131   5.1467  -0.7360  -1.4137   2.8701   0.00    0.0
2188 433230.000   2248128.2356    865685.5217   5886428.8673   5  14   2.2509   1.6127   5.1294  -0.7306  -1.4107   2.8575   0.00    0.0
2188 433260.000   2248129.2456    865685.7739   5886429.1284   5  14   2.2450   1.6124   5.1118  -0.7251  -1.4073   2.8446   0.00    0.0
2188 433290.000   2248129.1326    865685.7633   5886431.2153   5  14   2.2391   1.6120   5.0938  -0.7194  -1.4037   2.8315   0.00    0.0
2188 433320.000   2248129.4322    865685.5322   5886431.5490   5  14   2.2330   1.6117   5.0755  -0.7135  -1.3998   2.8181   0.00    0.0
2188 433350.000   2248130.6934    865684.4660   5886436.8431   5  15   2.1962   1.5993   4.8951  -0.6541  -1.3030   2.7199   0.00    0.0
2188 433380.000   2248130.9382    865683.8025   5886436.1854   5  15   2.1913   1.5992   4.8813  -0.6491  -1.3008   2.7090   0.00    0.0
2188 433410.000   2248131.2332    865684.1241   5886434.1874   5  15   2.1862   1.5991   4.8670  -0.6438  -1.2984   2.6978   0.00    0.0
2188 433440.000   2248130.8928    865684.8355   5886434.6398   5  15   2.1811   1.5991   4.8525  -0.6384  -1.2957   2.6864   0.00    0.0
2188 433470.000   2248129.4110    865684.1295   5886432.7382   5  15   2.1759   1.5991   4.8377  -0.6329  -1.2929   2.6748   0.00    0.0
2188 433500.000   2248130.6991    865684.8974   5886434.3640   5  15   2.1707   1.5991   4.8226  -0.6271  -1.2899   2.6629   0.00    0.0
2188 433530.000   2248129.9970    865684.5070   5886435.2227   5  15   2.1654   1.5992   4.8072  -0.6212  -1.2866   2.6508   0.00    0.0
2188 433560.000   2248130.6158    865684.1736   5886434.8544   5  15   2.1600   1.5992   4.7916  -0.6152  -1.2832   2.6385   0.00    0.0
2188 433590.000   2248130.6949    865684.7684   5886434.5239   5  15   2.1545   1.5993   4.7757  -0.6090  -1.2796   2.6260   0.00    0.0
2188 433620.000   2248129.6280    865684.5519   5886433.4369   5  15   2.1490   1.5995   4.7595  -0.6026  -1.2759   2.6133   0.00    0.0
2188 433650.000   2248129.4980    865685.3344   5886432.1058   5  15   2.1435   1.5997   4.7432  -0.5961  -1.2720   2.6005   0.00    0.0
2188 433680.000   2248129.8852    865684.6042   5886433.2859   5  15   2.1379   1.5999   4.7266  -0.5894  -1.2679   2.5874   0.00    0.0
2188 433710.000   2248129.7425    865683.8815   5886433.9218   5  15   2.1323   1.6001   4.7098  -0.5826  -1.2638   2.5742   0.00    0.0
2188 433740.000   2248129.7113    865684.0696   5886431.8154   5  15   2.1267   1.6004   4.6929  -0.5756  -1.2594   2.5608   0.00    0.0
2188 433770.000   2248130.5934    865684.4684   5886433.5194   5  14   2.1311   1.6079   4.8806  -0.5401  -1.3371   2.4899   0.00    0.0
2188 433800.000   2248130.4361    865684.2406   5886432.8862   5  15   2.1153   1.6010   4.6585  -0.5612  -1.2504   2.5337   0.00    0.0
2188 433830.000   2248130.1404    865684.9488   5886433.9294   5  15   2.1096   1.6014   4.6411  -0.5538  -1.2458   2.5199   0.00    0.0
2188 433860.000   2248130.1842    865684.2463   5886432.6259   5  15   2.1039   1.6018   4.6235  -0.5462  -1.2410   2.5059   0.00    0.0
2188 433890.000   2248130.1968    865684.4246   5886433.5979   5  15   2.0982   1.6023   4.6059  -0.5385  -1.2361   2.4919   0.00    0.0
2188 433920.000   2248130.8911    865684.9841   5886432.0742   5  15   2.0925   1.6028   4.5882  -0.5306  -1.2312   2.4778   0.00    0.0
2188 433950.000   2248130.0508    865685.1214   5886433.4904   5  15   2.0868   1.6033   4.5703  -0.5226  -1.2261   2.4635   0.00    0.0
2188 433980.000   2248129.3493    865684.1240   5886432.8057   5  15   2.0811   1.6039   4.5524  -0.5144  -1.2210   2.4492   0.00    0.0
2188 434010.000   2248129.8240    865684.5608   5886433.8124   5  15   2.0755   1.6045   4.5345  -0.5060  -1.2158   2.4348   0.00    0.0
2188 434040.000   2248129.5003    865685.2179   5886432.5695   5  14   2.1011   1.7761   4.5792   0.1648  -0.9442   2.4760   0.00    0.0
2188 434070.000   2248129.1344    865684.4997   5886431.2551   5  14   2.0955   1.7757   4.5624   0.1862  -0.9359   2.4622   0.00    0.0
2188 434100.000   2248129.7073    865684.4453   5886431.9703   5  14   2.0899   1.7754   4.5456   0.2052  -0.9277   2.4483   0.00    0.0
2188 434130.000   2248130.0443    865684.6569   5886431.6693   5  14   2.0843   1.7752   4.5287   0.2224  -0.9194   2.4342   0.00    0.0
2188 434160.000   2248129.2012    865684.5110   5886431.5106   5  14   2.0788   1.7750   4.5118   0.2382  -0.9112   2.4202   0.00    0.0
2188 434190.000   2248130.0767    865684.8067   5886432.8941   5  14   2.0732   1.7748   4.4950   0.2529  -0.9029   2.4060   0.00    0.0
2188 434220.000   2248129.2934    865685.1522   5886434.1298   5  14   2.0677   1.7747   4.4781   0.2666  -0.8947   2.3918   0.00    0.0
2188 434250.000   2248129.4048    865684.5390   5886433.6650   5  14   2.0622   1.7747   4.4613   0.2795  -0.8866   2.3775   0.00    0.0
2188 434280.000   2248129.5726    865684.5002   5886432.8463   5  14   2.0567   1.7746   4.4445   0.2917  -0.8785   2.3632   0.00    0.0
2188 434310.000   2248128.8050    865685.0030   5886430.9116   5  14   2.0513   1.7747   4.4278   0.3032  -0.8704   2.3488   0.00    0.0
2188 434340.000   2248129.7975    865685.0648   5886433.5777   5  14   2.0459   1.7747   4.4111   0.3142  -0.8624   2.3344   0.00    0.0
2188 434370.000   2248129.3465    865685.7138   5886432.3811   5  14   2.0406   1.7748   4.3945   0.3247  -0.8545   2.3200   0.00    0.0
2188 434400.000   2248129.5397    865684.1161   5886432.5248   5  14   2.0352   1.7750   4.3780   0.3347  -0.8466   2.3055   0.00    0.0
2188 434430.000   2248129.1420    865685.1044   5886434.3691   5  14   2.0300   1.7752   4.3615   0.3443  -0.8388   2.2910   0.00    0.0
2188 434460.000   2248128.4670    865684.5268   5886431.5558   5  14   2.0247   1.7754   4.3452   0.3535  -0.8312   2.2765   0.00    0.0
2188 434490.000   2248128.4483    865684.5546   5886433.5911   5  13   2.0396   1.7804   4.5169   0.4102  -0.9197   2.1792   0.00    0.0
2188 434520.000   2248129.7180    865684.6815   5886430.3911   5  14   2.0145   1.7760   4.3129   0.3707  -0.8161   2.2474   0.00    0.0
2188 434550.000   2248129.9003    865684.0107   5886432.1720   5  14   2.0094   1.7764   4.2969   0.3789  -0.8087   2.2328   0.00    0.0
2188 434580.000   2248130.3716    865685.5857   5886433.9200   5  14   2.0044   1.7768   4.2811   0.3868  -0.8014   2.2182   0.00    0.0
2188 434610.000   2248130.0849    865684.4132   5886432.4960   5  14   1.9994   1.7773   4.2655   0.3944  -0.7943   2.2036   0.00    0.0
2188 434640.000   2248129.3749    865684.6167   5886430.7142   5  14   1.9946   1.7778   4.2500   0.4017  -0.7873   2.1890   0.00    0.0
2188 434670.000   2248128.5587    865684.2675   5886431.9964   5  14   1.9897   1.7784   4.2347   0.4088  -0.7804   2.1744   0.00    0.0
2188 434700.000   2248129.8005    865684.1380   5886433.9253   5  14   1.9850   1.7790   4.2195   0.4156  -0.7737   2.1598   0.00    0.0
2188 434730.000   2248129.8531    865684.2959   5886433.2596   5  14   1.9803   1.7797   4.2046   0.4222  -0.7671   2.1452   0.00    0.0
2188 434760.000   2248129.1826    865684.7538   5886433.3062   5  14   1.9757   1.7804   4.1899   0.4286  -0.7607   2.1306   0.00    0.0
2188 434790.000   2248129.6454    865685.0590   5886430.8660   5  14   1.9712   1.7812   4.1754   0.4349  -0.7545   2.1160   0.00    0.0
2188 434820.000   2248129.3172    865685.3463   5886430.8891   5  14   1.9667   1.7820   4.1612   0.4409  -0.7484   2.1014   0.00    0.0
2188 434850.000   2248130.1159    865684.4603   5886431.4255   5  14   1.9623   1.7829   4.1471   0.4467  -0.7425   2.0868   0.00    0.0
2188 434880.000   2248128.4506    865685.2982   5886429.8922   5  14   1.9580   1.7838   4.1334   0.4524  -0.7368   2.0722   0.00    0.0
2188 434910.000   2248128.7380    865684.7693   5886431.0941   5  14   1.9538   1.7848   4.1198   0.4579  -0.7313   2.0576   0.00    0.0
2188 434940.000   2248129.9524    865684.3076   5886432.3661   5  14   1.9496   1.7858   4.1066   0.4632  -0.7260   2.0430   0.00    0.0
2188 434970.000   2248128.7093    865685.3391   5886430.6802   5  14   1.9456   1.7869   4.0937   0.4684  -0.7209   2.0285   0.00    0.0
2188 435000.000   2248129.7344    865684.2264   5886431.5966   5  14   1.9416   1.7880   4.0810   0.4735  -0.7160   2.0139   0.00    0.0
2188 435030.000   2248129.4512    865684.5602   5886431.2899   5  14   1.9377   1.7892   4.0687   0.4784  -0.7114   1.9993   0.00    0.0
2188 435060.000   2248128.8028    865683.6274   5886436.9003   5  14   1.9574   1.7854   4.9378   0.5056  -0.7024   1.7212   0.00    0.0
2188 435090.000   2248129.1394    865684.8810   5886436.7906   5  15   1.8412   1.7004   4.8986  -0.3154  -0.9040   1.5851   0.00    0.0
2188 435120.000   2248129.3755    865684.4902   5886436.0104   5  15   1.8393   1.7007   4.8977  -0.3092  -0.8981   1.5707   0.00    0.0
2188 435150.000   2248128.9574    865684.8615   5886435.0970   5  15   1.8374   1.7010   4.8966  -0.3030  -0.8922   1.5562   0.00    0.0
2188 435180.000   2248128.3609    865684.2227   5886433.6301   5  15   1.8356   1.7015   4.8954  -0.2968  -0.8864   1.5417   0.00    0.0
2188 435210.000   2248128.6545    865684.6234   5886436.5751   5  15   1.8339   1.7019   4.8940  -0.2904  -0.8806   1.5270   0.00    0.0
2188 435240.000   2248128.8312    865684.2625   5886434.7754   5  15   1.8323   1.7025   4.8925  -0.2840  -0.8749   1.5123   0.00    0.0
2188 435270.000   2248129.2286    865684.6828   5886435.7365   5  15   1.8307   1.7031   4.8909  -0.2775  -0.8693   1.4974   0.00    0.0
2188 435300.000   2248128.8269    865685.0765   5886435.5216   5  15   1.8293   1.7038   4.8891  -0.2710  -0.8638   1.4824   0.00    0.0
2188 435330.000   2248128.6335    865684.9254   5886433.0911   5  15   1.8279   1.7045   4.8873  -0.2643  -0.8585   1.4674   0.00    0.0
2188 435360.000   2248128.9189    865684.9261   5886433.5671   5  15   1.8266   1.7053   4.8853  -0.2576  -0.8532   1.4522   0.00    0.0
2188 435390.000   2248128.6297    865685.4633   5886436.1762   5  15   1.8253   1.7062   4.8832  -0.2507  -0.8481   1.4370   0.00    0.0
2188 435420.000   2248128.8368    865684.9413   5886434.2954   5  15   1.8242   1.7071   4.8810  -0.2437  -0.8432   1.4217   0.00    0.0
2188 435450.000   2248128.3285    865685.2060   5886435.7931   5  15   1.8231   1.7081   4.8788  -0.2367  -0.8384   1.4062   0.00    0.0
2188 435480.000   2248129.0578    865684.1028   5886436.9638   5  15   1.8221   1.7092   4.8764  -0.2294  -0.8338   1.3907   0.00    0.0
2188 435510.000   2248128.4915    865684.5299   5886434.3739   5  15   1.8212   1.7104   4.8740  -0.2221  -0.8294   1.3751   0.00    0.0
2188 435540.000   2248128.8113    865685.0084   5886435.1885   5  15   1.8204   1.7116   4.8715  -0.2146  -0.8252   1.3594   0.00    0.0
2188 435570.000   2248129.3242    865684.2321   5886435.3518   5  15   1.8197   1.7129   4.8689  -0.2069  -0.8213   1.3437   0.00    0.0
2188 435600.000   2248127.5845    865684.9557   5886434.1148   5  15   1.7302   1.7000   4.6970   0.2902  -0.6228   1.0242   0.00    0.0
2188 435630.000   2248127.2719    865685.3052   5886432.3631   5  15   1.7298   1.7019   4.6973   0.2926  -0.6233   1.0069   0.00    0.0
2188 435660.000   2248127.6105    865685.8062   5886432.2774   5  15   1.7294   1.7038   4.6976   0.2949  -0.6241   0.9896   0.00    0.0
2188 435690.000   2248127.9986    865684.8412   5886435.7776   5  15   1.7291   1.7058   4.6979   0.2973  -0.6253   0.9720   0.00    0.0
2188 435720.000   2248127.8701    865684.6719   5886434.3216   5  15   1.7288   1.7078   4.6982   0.2996  -0.6267   0.9544   0.00    0.0
2188 435750.000   2248128.1698    865684.6718   5886435.3710   5  15   1.7287   1.7100   4.6984   0.3019  -0.6286   0.9365   0.00    0.0
2188 435780.000   2248127.3330    865684.8408   5886434.5795   5  15   1.7286   1.7122   4.6987   0.3042  -0.6308   0.9185   0.00    0.0
2188 435810.000   2248127.6258    865685.3576   5886433.4876   5  15   1.7285   1.7144   4.6990   0.3064  -0.6334   0.9004   0.00    0.0
2188 435840.000   2248128.0668    865685.2045   5886434.2371   5  15   1.7285   1.7168   4.6994   0.3087  -0.6364   0.8821   0.00    0.0
2188 435870.000   2248127.9169    865685.3423   5886434.8882   5  15   1.7286   1.7193   4.6998   0.3109  -0.6398   0.8636   0.00    0.0
2188 435900.000   2248127.6711    865685.8370   5886433.3210   5  15   1.7288   1.7218   4.7003   0.3131  -0.6437   0.8450   0.00    0.0
2188 435930.000   2248128.2345    865682.0370   5886443.5814   5  14   1.7763   2.2628   6.7668  -0.7051  -2.7479   1.6324   0.00    0.0
2188 435960.000   2248127.7550    865681.9707   5886443.7495   5  14   1.7751   2.2655   6.7816  -0.6977  -2.7552   1.6157   0.00    0.0
2188 435990.000   2248127.6334    865682.9397   5886443.3192   5  14   1.7740   2.2680   6.7955  -0.6900  -2.7619   1.5986   0.00    0.0
2188 436020.000   2248129.2334    865683.5888   5886442.3272   5  13   1.9781   2.2713   6.9631  -0.7196  -2.7838   1.9443   0.00    0.0
2188 436050.000   2248128.1300    865682.4266   5886443.7106   5  13   1.9758   2.2735   6.9774  -0.7110  -2.7892   1.9314   0.00    0.0
2188 436080.000   2248128.1039    865681.8935   5886441.7152   5  13   1.9736   2.2757   6.9907  -0.7020  -2.7940   1.9182   0.00    0.0
2188 436110.000   2248129.0448    865682.0389   5886444.0039   5  13   1.9715   2.2777   7.0029  -0.6928  -2.7982   1.9046   0.00    0.0
2188 436140.000   2248128.8507    865683.0555   5886442.3565   5  12   2.0465   2.4433   7.2307   0.1500  -2.5111   2.1336   0.00    0.0
2188 436170.000   2248129.1340    865683.3388   5886445.2926   5  12   2.0441   2.4434   7.2505   0.1799  -2.5087   2.1257   0.00    0.0
2188 436200.000   2248129.3240    865683.4845   5886444.1453   5  12   2.0417   2.4433   7.2692   0.2061  -2.5058   2.1174   0.00    0.0
2188 436230.000   2248128.8902    865682.5543   5886446.3981   5  12   2.0394   2.4432   7.2870   0.2297  -2.5022   2.1088   0.00    0.0
2188 436260.000   2248129.1271    865682.9940   5886443.2504   5  12   2.0370   2.4430   7.3038   0.2515  -2.4980   2.0998   0.00    0.0
2188 436290.000   2248128.3904    865683.3008   5886444.7559   5  12   2.0347   2.4427   7.3196   0.2719  -2.4931   2.0905   0.00    0.0
2188 436320.000   2248128.8700    865683.1635   5886442.7823   5  12   2.0324   2.4423   7.3343   0.2912  -2.4875   2.0808   0.00    0.0
2188 436350.000   2248127.5529    865683.0223   5886440.4988   5  12   2.0302   2.4418   7.3479   0.3095  -2.4813   2.0708   0.00    0.0
2188 436380.000   2248128.6682    865682.5249   5886442.8696   5  12   2.0279   2.4412   7.3605   0.3271  -2.4744   2.0604   0.00    0.0
2188 436410.000   2248128.6778    865682.8769   5886443.2322   5  12   2.0257   2.4405   7.3719   0.3439  -2.4669   2.0497   0.00    0.0
2188 436440.000   2248128.6330    865682.7565   5886441.1472   5  12   2.0235   2.4397   7.3822   0.3602  -2.4587   2.0387   0.00    0.0
2188 436470.000   2248127.3846    865678.9511   5886482.8473   5  11   2.0905   2.6629  11.4569   0.8437  -3.9195  -0.7490   0.00    0.0
2188 436500.000   2248128.1393    865682.1118   5886441.8297   5  12   2.0191   2.4378   7.3993   0.3911  -2.4401   2.0155   0.00    0.0
2188 436530.000   2248128.5036    865682.7067   5886444.2588   5  12   2.0170   2.4368   7.4061   0.4059  -2.4299   2.0035   0.00    0.0
2188 436560.000   2248128.4955    865682.1480   5886445.9428   5  12   2.0149   2.4357   7.4117   0.4203  -2.4189   1.9911   0.00    0.0
2188 436590.000   2248128.9316    865682.0128   5886444.7252   5  12   2.0129   2.4344   7.4161   0.4342  -2.4072   1.9784   0.00    0.0
2188 436620.000   2248128.4720    865683.2527   5886443.3687   5  12   2.0108   2.4332   7.4194   0.4478  -2.3949   1.9654   0.00    0.0
2188 436650.000   2248127.9113    865683.3129   5886442.1439   5  12   2.0088   2.4318   7.4214   0.4611  -2.3819   1.9521   0.00    0.0
2188 436680.000   2248128.5273    865683.3617   5886440.7947   5  12   2.0069   2.4304   7.4222   0.4740  -2.3682   1.9385   0.00    0.0
2188 436710.000   2248127.9762    865682.8741   5886441.1129   5  12   2.0049   2.4290   7.4218   0.4866  -2.3538   1.9246   0.00    0.0
2188 436740.000   2248128.6560    865683.4749   5886441.5347   5  12   2.0031   2.4274   7.4202   0.4989  -2.3388   1.9105   0.00    0.0
2188 436770.000   2248128.8889    865684.0682   5886442.1500   5  12   2.0012   2.4259   7.4174   0.5109  -2.3231   1.8961   0.00    0.0
2188 436800.000   2248128.3662    865683.5328   5886441.0462   5  12   1.9994   2.4243   7.4134   0.5226  -2.3067   1.8814   0.00    0.0
2188 436830.000   2248128.4751    865683.0208   5886441.5717   5  12   1.9976   2.4226   7.4082   0.5341  -2.2897   1.8665   0.00    0.0
2188 436860.000   2248128.7874    865685.6842   5886430.7177   5  13   1.9946   2.1167   4.2316   0.6180   1.4044   1.7291   0.00    0.0
2188 436890.000   2248128.1647    865686.1671   5886431.5507   5  13   1.9932   2.1175   4.2359   0.6196   1.4179   1.7275   0.00    0.0
2188 436920.000   2248127.4455    865685.3570   5886429.9539   5  13   1.9919   2.1184   4.2405   0.6212   1.4311   1.7258   0.00    0.0
2188 436950.000   2248125.3128    865686.3757   5886426.0114   5  13   2.0425   1.8188   3.8402   0.5989   0.3219   1.7374   0.00    0.0
2188 436980.000   2248125.1044    865684.5786   5886426.0989   5  13   2.0414   1.8161   3.8452   0.6018   0.3553   1.7380   0.00    0.0
2188 437010.000   2248124.5839    865684.4823   5886427.5023   5  13   2.0404   1.8135   3.8505   0.6047   0.3858   1.7387   0.00    0.0
2188 437040.000   2248126.5370    865685.0079   5886429.5075   5  13   2.0393   1.8110   3.8560   0.6076   0.4141   1.7393   0.00    0.0
2188 437070.000   2248126.3951    865685.5836   5886429.7608   5  13   2.0382   1.8086   3.8619   0.6105   0.4406   1.7399   0.00    0.0
2188 437100.000   2248126.3005    865685.3678   5886427.8374   5  13   2.0372   1.8063   3.8680   0.6135   0.4656   1.7405   0.00    0.0
2188 437130.000   2248126.0948    865685.4298   5886427.1298   5  13   2.0361   1.8041   3.8744   0.6164   0.4893   1.7411   0.00    0.0
2188 437160.000   2248126.0367    865685.1286   5886428.2052   5  13   2.0351   1.8019   3.8810   0.6194   0.5120   1.7417   0.00    0.0
2188 437190.000   2248126.3007    865684.9944   5886428.6319   5  13   2.0341   1.7999   3.8878   0.6224   0.5338   1.7423   0.00    0.0
2188 437220.000   2248126.8277    865684.8960   5886429.7758   5  12   2.0689   1.7980   4.1449   0.6223   0.5674   1.5793   0.00    0.0
2188 437250.000   2248125.9115    865685.5507   5886426.7684   5  13   2.0321   1.7961   3.9022   0.6284   0.5750   1.7434   0.00    0.0
2188 437280.000   2248126.2199    865685.6356   5886427.1596   5  13   2.0312   1.7943   3.9098   0.6315   0.5946   1.7440   0.00    0.0
2188 437310.000   2248125.7906    865684.8718   5886426.5513   5  13   2.0303   1.7926   3.9175   0.6345   0.6137   1.7445   0.00    0.0
2188 437340.000   2248125.6161    865684.5231   5886427.4570   5  13   2.0294   1.7910   3.9254   0.6376   0.6323   1.7450   0.00    0.0
2188 437370.000   2248125.5223    865684.3270   5886427.4610   5  13   2.0285   1.7894   3.9335   0.6406   0.6504   1.7455   0.00    0.0
2188 437400.000   2248126.5781    865685.1311   5886427.3822   5  13   2.0276   1.7880   3.9418   0.6437   0.6681   1.7459   0.00    0.0
2188 437430.000   2248126.5551    865685.3000   5886427.4387   5  13   2.0268   1.7866   3.9502   0.6468   0.6855   1.7464   0.00    0.0
2188 437460.000   2248126.2475    865685.4108   5886426.1281   5  13   2.0260   1.7852   3.9588   0.6499   0.7025   1.7468   0.00    0.0
2188 437490.000   2248125.5206    865685.2841   5886425.2934   5  13   2.0252   1.7840   3.9676   0.6531   0.7191   1.7472   0.00    0.0
2188 437520.000   2248125.8997    865684.6663   5886427.6851   5  13   2.0245   1.7828   3.9765   0.6562   0.7355   1.7476   0.00    0.0
2188 437550.000   2248125.3499    865685.1010   5886427.4817   5  13   2.0237   1.7817   3.9855   0.6594   0.7516   1.7479   0.00    0.0
2188 437580.000   2248126.2532    865684.4770   5886429.8444   5  14   1.8246   1.7473   3.8249   0.8597   0.9923   1.4316   0.00    0.0
2188 437610.000   2248125.6531    865684.3168   5886426.6379   5  14   1.8235   1.7468   3.8365   0.8610   1.0019   1.4337   0.00    0.0
2188 437640.000   2248126.4981    865685.2862   5886426.5715   5  14   1.8225   1.7463   3.8483   0.8623   1.0114   1.4358   0.00    0.0
2188 437670.000   2248125.5047    865684.0273   5886426.1610   5  14   1.8215   1.7460   3.8603   0.8637   1.0209   1.4379   0.00    0.0
2188 437700.000   2248124.8661    865684.6756   5886425.9509   5  14   1.8205   1.7457   3.8724   0.8651   1.0304   1.4400   0.00    0.0
2188 437730.000   2248125.6249    865684.9835   5886424.9853   5  14   1.8196   1.7455   3.8845   0.8664   1.0399   1.4422   0.00    0.0
2188 437760.000   2248126.0014    865684.4782   5886424.9115   5  14   1.8188   1.7453   3.8968   0.8678   1.0493   1.4444   0.00    0.0
2188 437790.000   2248126.0990    865685.2383   5886425.8260   5  14   1.8180   1.7452   3.9092   0.8692   1.0588   1.4466   0.00    0.0
2188 437820.000   2248125.6292    865684.0085   5886425.4429   5  14   1.8172   1.7452   3.9217   0.8707   1.0682   1.4488   0.00    0.0
2188 437850.000   2248125.2625    865684.2813   5886426.0723   5  14   1.8165   1.7452   3.9343   0.8721   1.0776   1.4511   0.00    0.0
2188 437880.000   2248125.9291    865685.0614   5886424.6117   5  14   1.8159   1.7453   3.9470   0.8736   1.0870   1.4534   0.00    0.0
2188 437910.000   2248126.0280    865685.0239   5886425.1056   5  14   1.8153   1.7454   3.9597   0.8751   1.0964   1.4557   0.00    0.0
2188 437940.000   2248125.7636    865684.8702   5886425.7555   5  14   1.8147   1.7456   3.9725   0.8767   1.1058   1.4580   0.00    0.0
2188 437970.000   2248125.6318    865684.1508   5886426.2854   5  14   1.8142   1.7459   3.9854   0.8782   1.1152   1.4604   0.00    0.0
2188 438000.000   2248125.3703    865684.6403   5886425.0719   5  14   1.8138   1.7462   3.9983   0.8798   1.1246   1.4628   0.00    0.0
2188 438030.000   2248124.8395    865684.0944   5886423.8249   5  13   2.1264   1.7675   4.0904   1.0382   1.2260   1.7424   0.00    0.0
2188 438060.000   2248125.8446    865684.6727   5886425.7362   5  13   2.1255   1.7686   4.1063   1.0416   1.2378   1.7493   0.00    0.0
2188 438090.000   2248125.1860    865684.5221   5886426.0085   5  13   2.1247   1.7697   4.1224   1.0450   1.2496   1.7563   0.00    0.0
2188 438120.000   2248124.6973    865684.8131   5886425.2824   5  13   2.1239   1.7709   4.1385   1.0484   1.2614   1.7632   0.00    0.0
2188 438150.000   2248125.4766    865684.5551   5886423.9080   5  13   2.1231   1.7721   4.1547   1.0517   1.2732   1.7702   0.00    0.0
2188 438180.000   2248123.8225    865684.0726   5886423.4194   5  13   2.1223   1.7734   4.1710   1.0551   1.2851   1.7771   0.00    0.0
2188 438210.000   2248124.5267    865684.1173   5886424.3096   5  13   2.1215   1.7747   4.1873   1.0585   1.2970   1.7840   0.00    0.0
2188 438240.000   2248125.5778    865684.5092   5886424.4920   5  13   2.1208   1.7761   4.2037   1.0619   1.3088   1.7909   0.00    0.0
2188 438270.000   2248124.5232    865684.1667   5886423.4090   5  13   2.1201   1.7776   4.2201   1.0653   1.3207   1.7978   0.00    0.0
2188 438300.000   2248124.7546    865684.6108   5886423.7972   5  13   2.1193   1.7792   4.2365   1.0687   1.3326   1.8046   0.00    0.0
2188 438330.000   2248125.2723    865685.0774   5886423.4966   5  13   2.1186   1.7807   4.2529   1.0721   1.3445   1.8115   0.00    0.0
2188 438360.000   2248125.4994    865685.4767   5886424.0638   5  13   2.1179   1.7824   4.2694   1.0754   1.3564   1.8183   0.00    0.0
2188 438390.000   2248125.3168    865684.0214   5886423.4615   5  13   2.1173   1.7841   4.2859   1.0788   1.3683   1.8250   0.00    0.0
2188 438420.000   2248125.2689    865684.5216   5886424.2463   5  13   2.1166   1.7858   4.3023   1.0822   1.3803   1.8317   0.00    0.0
2188 438450.000   2248124.3177    865684.7521   5886421.2800   5  13   2.1159   1.7877   4.3187   1.0856   1.3922   1.8384   0.00    0.0
2188 438480.000   2248124.6302    865684.1893   5886423.1324   5  13   2.1153   1.7895   4.3351   1.0890   1.4040   1.8450   0.00    0.0
2188 438510.000   2248124.8133    865684.6771   5886424.0747   5  13   2.1146   1.7914   4.3514   1.0923   1.4159   1.8516   0.00    0.0
2188 438540.000   2248124.6833    865684.9843   5886423.4742   5  13   2.1140   1.7934   4.3677   1.0957   1.4278   1.8581   0.00    0.0
2188 438570.000   2248124.9725    865684.1028   5886422.8953   5  13   2.1133   1.7954   4.3839   1.0991   1.4396   1.8645   0.00    0.0
2188 438600.000   2248125.1706    865684.4098   5886422.3402   5  13   2.1127   1.7975   4.4000   1.1024   1.4515   1.8709   0.00    0.0
2188 438630.000   2248124.9375    865684.2521   5886423.9408   5  13   2.1121   1.7996   4.4160   1.1058   1.4633   1.8771   0.00    0.0
2188 438660.000   2248124.8878    865683.5335   5886421.7062   5  13   2.1114   1.8018   4.4319   1.1091   1.4750   1.8833   0.00    0.0
2188 438690.000   2248124.0211    865683.6900   5886421.2300   5  13   2.1108   1.8040   4.4477   1.1124   1.4868   1.8895   0.00    0.0
2188 438720.000   2248124.1612    865684.1654   5886420.9934   5  13   2.1101   1.8063   4.4634   1.1157   1.4985   1.8955   0.00    0.0
2188 438750.000   2248123.9815    865684.8039   5886421.3880   5  13   2.1095   1.8086   4.4789   1.1190   1.5101   1.9014   0.00    0.0
2188 438780.000   2248124.4893    865685.4216   5886422.4788   5  13   2.1088   1.8109   4.4943   1.1223   1.5217   1.9073   0.00    0.0
2188 438810.000   2248125.5566    865684.6294   5886423.9306   5  13   2.1082   1.8133   4.5095   1.1256   1.5333   1.9130   0.00    0.0
2188 438840.000   2248124.9885    865684.2109   5886423.0161   5  13   2.1075   1.8158   4.5245   1.1288   1.5447   1.9186   0.00    0.0
2188 438870.000   2248124.9777    865684.1791   5886420.5768   5  13   2.1068   1.8183   4.5393   1.1321   1.5562   1.9241   0.00    0.0
2188 438900.000   2248125.6030    865683.9857   5886422.0430   5  13   2.1062   1.8208   4.5539   1.1353   1.5675   1.9295   0.00    0.0
2188 438930.000   2248124.7744    865684.5250   5886421.6261   5  13   2.1055   1.8234   4.5683   1.1385   1.5788   1.9347   0.00    0.0
2188 438960.000   2248124.6269    865684.4486   5886422.3948   5  13   2.1048   1.8260   4.5824   1.1416   1.5900   1.9398   0.00    0.0
2188 438990.000   2248124.6039    865684.4535   5886423.4083   5  13   2.1041   1.8286   4.5963   1.1448   1.6011   1.9448   0.00    0.0
2188 439020.000   2248124.3866    865684.0392   5886420.3880   5  13   2.1033   1.8313   4.6099   1.1479   1.6121   1.9497   0.00    0.0
2188 439050.000   2248124.1954    865683.4403   5886419.5274   5  13   2.1026   1.8340   4.6233   1.1510   1.6230   1.9544   0.00    0.0
2188 439080.000   2248124.8373    865684.1286   5886419.6795   5  13   2.1019   1.8367   4.6364   1.1540   1.6339   1.9589   0.00    0.0
2188 439110.000   2248124.4865    865684.0499   5886421.2800   5  13   2.1011   1.8395   4.6491   1.1570   1.6446   1.9633   0.00    0.0
2188 439140.000   2248124.4657    865684.1806   5886420.6718   5  13   2.1003   1.8423   4.6615   1.1600   1.6551   1.9675   0.00    0.0
2188 439170.000   2248124.7825    865684.1801   5886419.4463   5  13   2.0995   1.8451   4.6736   1.1630   1.6656   1.9716   0.00    0.0
2188 439200.000   2248123.5077    865683.2314   5886418.2777   5  13   2.1533   1.8545   4.7901   1.1332   1.6289   2.0935   0.00    0.0
2188 439230.000   2248123.8998    865683.7914   5886419.8365   5  13   2.1530   1.8571   4.8039   1.1369   1.6402   2.0989   0.00    0.0
2188 439260.000   2248125.0317    865684.2631   5886420.9363   5  13   2.1527   1.8596   4.8172   1.1406   1.6513   2.1042   0.00    0.0
2188 439290.000   2248123.7173    865683.4263   5886417.8825   5  13   2.1524   1.8622   4.8302   1.1443   1.6623   2.1094   0.00    0.0
2188 439320.000   2248122.9401    865683.2521   5886417.5907   5  13   2.1520   1.8648   4.8428   1.1479   1.6732   2.1143   0.00    0.0
2188 439350.000   2248124.7337    865685.0311   5886420.4939   5  13   2.1516   1.8674   4.8550   1.1515   1.6839   2.1190   0.00    0.0
2188 439380.000   2248123.7796    865683.7052   5886419.7247   5  13   2.1512   1.8700   4.8667   1.1550   1.6945   2.1236   0.00    0.0
2188 439410.000   2248124.4165    865684.2494   5886420.1492   5  13   2.1508   1.8727   4.8781   1.1585   1.7049   2.1279   0.00    0.0
2188 439440.000   2248124.4428    865683.6448   5886418.2190   5  13   2.1503   1.8754   4.8890   1.1619   1.7152   2.1320   0.00    0.0
2188 439470.000   2248123.9076    865684.8458   5886415.9286   5  13   2.1498   1.8781   4.8994   1.1653   1.7253   2.1359   0.00    0.0
2188 439500.000   2248124.0264    865684.3442   5886417.7084   5  13   2.1493   1.8809   4.9093   1.1686   1.7352   2.1396   0.00    0.0
2188 439530.000   2248124.7425    865683.4677   5886418.1939   5  13   2.1488   1.8836   4.9188   1.1719   1.7450   2.1431   0.00    0.0
2188 439560.000   2248122.5670    865683.0453   5886415.7406   5  13   2.1482   1.8864   4.9278   1.1752   1.7546   2.1463   0.00    0.0
2188 439590.000   2248123.3004    865683.2103   5886415.0891   5  13   2.1476   1.8892   4.9363   1.1783   1.7640   2.1493   0.00    0.0
2188 439620.000   2248124.7639    865684.2141   5886418.7547   5  13   2.1470   1.8920   4.9442   1.1814   1.7731   2.1521   0.00    0.0
2188 439650.000   2248124.2362    865684.0867   5886417.4403   5  13   2.1463   1.8948   4.9516   1.1845   1.7821   2.1546   0.00    0.0
2188 439680.000   2248123.3868    865684.4209   5886416.3980   5  13   2.1456   1.8976   4.9585   1.1875   1.7909   2.1569   0.00    0.0
2188 439710.000   2248123.7380    865684.0561   5886415.8389   5  13   2.1449   1.9004   4.9649   1.1904   1.7994   2.1590   0.00    0.0
2188 439740.000   2248123.9664    865683.7337   5886417.7667   5  13   2.1441   1.9033   4.9707   1.1933   1.8078   2.1608   0.00    0.0
2188 439770.000   2248127.0481    865684.6933   5886425.2594   5  12   2.2486   1.9226   5.2630   1.2655   1.9310   2.4170   0.00    0.0
2188 439800.000   2248127.6232    865684.5601   5886427.3635   5  12   2.2485   1.9258   5.2743   1.2692   1.9412   2.4219   0.00    0.0
2188 439830.000   2248126.9424    865684.7701   5886425.9543   5  12   2.2483   1.9291   5.2849   1.2727   1.9511   2.4265   0.00    0.0
2188 439860.000   2248126.5053    865685.0373   5886424.7361   5  12   2.2481   1.9323   5.2950   1.2762   1.9608   2.4309   0.00    0.0
2188 439890.000   2248127.5264    865685.4572   5886426.1886   5  12   2.2478   1.9355   5.3043   1.2796   1.9702   2.4349   0.00    0.0
2188 439920.000   2248127.2253    865685.0863   5886426.0599   5  12   2.2475   1.9387   5.3131   1.2829   1.9793   2.4385   0.00    0.0
2188 439950.000   2248127.2006    865685.0545   5886426.0259   5  12   2.2471   1.9419   5.3211   1.2861   1.9882   2.4419   0.00    0.0
2188 439980.000   2248127.4222    865685.0382   5886425.5146   5  12   2.2466   1.9451   5.3285   1.2892   1.9968   2.4449   0.00    0.0
2188 440010.000   2248127.8031    865685.1489   5886426.6635   5  12   2.2461   1.9483   5.3352   1.2922   2.0050   2.4476   0.00    0.0
2188 440040.000   2248128.1242    865685.4029   5886427.7065   5  12   2.2455   1.9514   5.3411   1.2951   2.0130   2.4500   0.00    0.0
2188 440070.000   2248127.6046    865684.7061   5886426.4138   5  12   2.2449   1.9545   5.3464   1.2979   2.0206   2.4520   0.00    0.0
2188 440100.000   2248126.5833    865684.7999   5886424.5264   5  12   2.2442   1.9576   5.3509   1.3006   2.0280   2.4537   0.00    0.0
2188 440130.000   2248128.0645    865684.9203   5886426.3550   5  12   2.2434   1.9607   5.3548   1.3032   2.0350   2.4551   0.00    0.0
2188 440160.000   2248127.2031    865684.7927   5886426.6970   5  12   2.2426   1.9637   5.3579   1.3056   2.0417   2.4561   0.00    0.0
2188 440190.000   2248127.8611    865685.1951   5886426.9343   5  12   2.2417   1.9667   5.3603   1.3080   2.0480   2.4568   0.00    0.0
2188 440220.000   2248127.2389    865684.9193   5886425.5833   5  12   2.2407   1.9697   5.3619   1.3102   2.0540   2.4572   0.00    0.0
2188 440250.000   2248127.1139    865684.9173   5886425.5637   5  12   2.2397   1.9727   5.3628   1.3123   2.0597   2.4572   0.00    0.0
2188 440280.000   2248127.5434    865684.9480   5886426.9578   5  12   2.2386   1.9756   5.3630   1.3143   2.0650   2.4568   0.00    0.0
2188 440310.000   2248127.2619    865684.9375   5886425.1717   5  12   2.2375   1.9784   5.3624   1.3162   2.0700   2.4562   0.00    0.0
2188 440340.000   2248127.2566    865685.0297   5886424.3625   5  12   2.2363   1.9813   5.3611   1.3179   2.0746   2.4552   0.00    0.0
2188 440370.000   2248127.8003    865684.7908   5886425.1354   5  12   2.2351   1.9840   5.3591   1.3196   2.0789   2.4539   0.00    0.0
2188 440400.000   2248126.7432    865684.7865   5886423.5966   5  12   2.2338   1.9868   5.3563   1.3211   2.0828   2.4522   0.00    0.0
2188 440430.000   2248128.0879    865685.4288   5886425.1094   5  12   2.2324   1.9895   5.3529   1.3225   2.0864   2.4502   0.00    0.0
2188 440460.000   2248127.8133    865685.0086   5886426.5622   5  12   2.2310   1.9921   5.3487   1.3238   2.0896   2.4480   0.00    0.0
2188 440490.000   2248127.0867    865685.3752   5886426.3820   5  12   2.2296   1.9947   5.3438   1.3249   2.0925   2.4454   0.00    0.0
2188 440520.000   2248126.6524    865685.1386   5886425.6322   5  12   2.2281   1.9972   5.3382   1.3259   2.0950   2.4425   0.00    0.0
2188 440550.000   2248126.7864    865685.4078   5886426.2700   5  12   2.2265   1.9997   5.3319   1.3268   2.0971   2.4393   0.00    0.0
2188 440580.000   2248126.7465    865684.4683   5886424.4911   5  12   2.2249   2.0022   5.3250   1.3276   2.0989   2.4358   0.00    0.0
2188 440610.000   2248127.1851    865684.6891   5886425.5604   5  12   2.2233   2.0045   5.3174   1.3283   2.1004   2.4320   0.00    0.0
2188 440640.000   2248126.8163    865684.4108   5886424.0815   5  12   2.2217   2.0069   5.3091   1.3288   2.1015   2.4280   0.00    0.0
2188 440670.000   2248126.7794    865684.4984   5886427.2409   5  12   2.2200   2.0091   5.3002   1.3293   2.1022   2.4236   0.00    0.0
2188 440700.000   2248127.9699    865685.1868   5886427.4686   5  12   2.2182   2.0114   5.2907   1.3296   2.1026   2.4191   0.00    0.0
2188 440730.000   2248126.8514    865684.7795   5886424.7992   5  12   2.2165   2.0135   5.2806   1.3298   2.1027   2.4142   0.00    0.0
2188 440760.000   2248128.0648    865685.4735   5886428.6168   5  12   2.2147   2.0156   5.2698   1.3299   2.1024   2.4092   0.00    0.0
2188 440790.000   2248127.3925    865685.3472   5886426.1348   5  12   2.2129   2.0177   5.2585   1.3299   2.1018   2.4039   0.00    0.0
2188 440820.000   2248126.8932    865685.5094   5886425.2405   5  12   2.2111   2.0197   5.2467   1.3297   2.1009   2.3983   0.00    0.0
2188 440850.000   2248126.6264    865685.1082   5886426.3572   5  12   2.2092   2.0216   5.2343   1.3295   2.0996   2.3926   0.00    0.0
2188 440880.000   2248126.4464    865684.9466   5886424.1777   5  12   2.2074   2.0235   5.2214   1.3291   2.0981   2.3867   0.00    0.0
2188 440910.000   2248126.4791    865685.7258   5886425.9861   5  12   2.2055   2.0254   5.2079   1.3287   2.0962   2.3805   0.00    0.0
2188 440940.000   2248126.7437    865684.9501   5886425.4956   5  12   2.2037   2.0271   5.1940   1.3281   2.0940   2.3742   0.00    0.0
2188 440970.000   2248126.8693    865685.2740   5886425.6566   5  12   2.2018   2.0289   5.1797   1.3275   2.0915   2.3678   0.00    0.0
2188 441000.000   2248127.0489    865685.1983   5886423.3386   5  13   1.9558   1.6960   4.7654   0.7971   1.4625   1.8891   0.00    0.0
2188 441030.000   2248127.2081    865684.1380   5886424.5092   5  13   1.9552   1.6966   4.7569   0.7965   1.4641   1.8872   0.00    0.0
2188 441060.000   2248126.5272    865684.8359   5886424.2587   5  13   1.9546   1.6973   4.7481   0.7958   1.4656   1.8854   0.00    0.0
2188 441090.000   2248126.7149    865685.2445   5886424.2480   5  13   1.9541   1.6981   4.7390   0.7953   1.4671   1.8836   0.00    0.0
2188 441120.000   2248126.3956    865685.4998   5886423.3247   5  13   1.9537   1.6988   4.7297   0.7947   1.4684   1.8818   0.00    0.0
2188 441150.000   2248126.1603    865684.6248   5886422.8488   5  13   1.9534   1.6997   4.7201   0.7942   1.4697   1.8800   0.00    0.0
2188 441180.000   2248128.2087    865684.9948   5886424.7845   5  13   1.9532   1.7005   4.7102   0.7937   1.4708   1.8783   0.00    0.0
2188 441210.000   2248126.7602    865685.1346   5886424.3007   5  13   1.9530   1.7014   4.7001   0.7933   1.4718   1.8765   0.00    0.0
2188 441240.000   2248126.7279    865685.2186   5886424.0790   5  13   1.9529   1.7024   4.6898   0.7928   1.4728   1.8749   0.00    0.0
2188 441270.000   2248126.8799    865684.6104   5886425.3142   5  13   1.9529   1.7033   4.6793   0.7924   1.4736   1.8732   0.00    0.0
2188 441300.000   2248126.5436    865685.3531   5886424.7071   5  13   1.9529   1.7043   4.6685   0.7920   1.4742   1.8716   0.00    0.0
2188 441330.000   2248126.6855    865684.6945   5886424.3691   5  13   1.9530   1.7053   4.6575   0.7915   1.4748   1.8700   0.00    0.0
2188 441360.000   2248127.2927    865684.5848   5886425.0336   5  13   1.9532   1.7064   4.6463   0.7911   1.4752   1.8685   0.00    0.0
2188 441390.000   2248125.6363    865685.5188   5886422.7874   5  12   2.2569   1.7506   5.0835   0.4342   1.1706   2.4177   0.00    0.0
2188 441420.000   2248126.4555    865685.3926   5886424.0046   5  12   2.2573   1.7510   5.0758   0.4374   1.1725   2.4183   0.00    0.0
2188 441450.000   2248127.0503    865685.5091   5886424.2018   5  12   2.2578   1.7514   5.0676   0.4407   1.1744   2.4186   0.00    0.0
2188 441480.000   2248127.6195    865684.7441   5886426.2396   5  12   2.2581   1.7519   5.0589   0.4440   1.1762   2.4188   0.00    0.0
2188 441510.000   2248126.0860    865684.5822   5886423.4530   5  12   2.2585   1.7523   5.0498   0.4474   1.1780   2.4187   0.00    0.0
2188 441540.000   2248126.9231    865684.0128   5886425.8449   5  12   2.2588   1.7528   5.0403   0.4508   1.1798   2.4183   0.00    0.0
2188 441570.000   2248126.6972    865684.9608   5886426.0684   5  12   2.2591   1.7533   5.0303   0.4543   1.1816   2.4178   0.00    0.0
2188 441600.000   2248126.4466    865684.8305   5886425.4481   5  12   2.2593   1.7538   5.0199   0.4578   1.1832   2.4170   0.00    0.0
2188 441630.000   2248126.5541    865684.9134   5886425.3896   5  12   2.2595   1.7544   5.0091   0.4613   1.1849   2.4159   0.00    0.0
2188 441660.000   2248125.7985    865685.0796   5886423.3732   5  12   2.2597   1.7549   4.9978   0.4649   1.1865   2.4147   0.00    0.0
2188 441690.000   2248126.9755    865684.6599   5886425.9841   5  12   2.2598   1.7555   4.9862   0.4684   1.1880   2.4132   0.00    0.0
2188 441720.000   2248127.1501    865684.7119   5886425.0222   5  12   2.2599   1.7561   4.9741   0.4720   1.1895   2.4114   0.00    0.0
2188 441750.000   2248126.2074    865685.1125   5886423.7413   5  12   2.2599   1.7568   4.9616   0.4756   1.1909   2.4095   0.00    0.0
2188 441780.000   2248126.5382    865684.8412   5886423.6061   5  12   2.2599   1.7574   4.9488   0.4792   1.1922   2.4073   0.00    0.0
2188 441810.000   2248126.4452    865684.6554   5886425.7153   5  12   2.2599   1.7581   4.9355   0.4827   1.1935   2.4049   0.00    0.0
2188 441840.000   2248127.2852    865685.2743   5886426.5518   5  12   2.2598   1.7587   4.9219   0.4863   1.1947   2.4023   0.00    0.0
2188 441870.000   2248126.2473    865684.2966   5886425.9802   5  12   2.2596   1.7594   4.9080   0.4898   1.1958   2.3994   0.00    0.0
2188 441900.000   2248126.9190    865685.1214   5886431.1743   5  11   2.3025   1.7790   7.0192   0.5983   1.6532   2.8236   0.00    0.0
2188 441930.000   2248126.7436    865684.6756   5886425.6644   5  12   2.2592   1.7608   4.8790   0.4969   1.1978   2.3931   0.00    0.0
2188 441960.000   2248126.7980    865684.9942   5886424.4590   5  13   2.2208   1.3812   4.7647  -0.4489   0.6063   2.3035   0.00    0.0
2188 441990.000   2248127.0231    865685.1145   5886425.4713   5  13   2.2207   1.3801   4.7510  -0.4446   0.6141   2.3008   0.00    0.0
2188 442020.000   2248126.3013    865685.0712   5886424.8722   5  13   2.2206   1.3790   4.7370  -0.4402   0.6217   2.2979   0.00    0.0
2188 442050.000   2248126.2825    865684.4786   5886423.5582   5  13   2.2205   1.3781   4.7227  -0.4356   0.6293   2.2948   0.00    0.0
2188 442080.000   2248127.3636    865685.7561   5886424.8657   5  13   2.2203   1.3772   4.7081  -0.4309   0.6369   2.2915   0.00    0.0
2188 442110.000   2248126.7589    865685.3425   5886424.7610   5  13   2.2200   1.3763   4.6933  -0.4261   0.6444   2.2880   0.00    0.0
2188 442140.000   2248126.4662    865685.1987   5886423.6255   5  13   2.2198   1.3755   4.6782  -0.4211   0.6517   2.2844   0.00    0.0
2188 442170.000   2248127.2511    865685.4562   5886425.4441   5  13   2.2195   1.3747   4.6629  -0.4159   0.6590   2.2806   0.00    0.0
2188 442200.000   2248126.5277    865685.7193   5886425.0835   5  13   2.2191   1.3740   4.6473  -0.4107   0.6662   2.2766   0.00    0.0
2188 442230.000   2248126.5172    865685.2334   5886425.2167   5  13   2.2188   1.3734   4.6315  -0.4053   0.6734   2.2725   0.00    0.0
2188 442260.000   2248126.0127    865686.1414   5886425.3663   5  13   2.2184   1.3728   4.6155  -0.3997   0.6804   2.2682   0.00    0.0
2188 442290.000   2248126.7802    865684.9503   5886425.2131   5  13   2.2180   1.3722   4.5993  -0.3940   0.6872   2.2637   0.00    0.0
2188 442320.000   2248126.6223    865685.2743   5886424.9328   5  13   2.2175   1.3717   4.5829  -0.3882   0.6940   2.2591   0.00    0.0
2188 442350.000   2248126.2833    865684.8863   5886424.9043   5  13   2.2170   1.3712   4.5664  -0.3823   0.7007   2.2544   0.00    0.0
2188 442380.000   2248125.7263    865685.6428   5886423.8509   5  13   2.2165   1.3708   4.5496  -0.3761   0.7072   2.2495   0.00    0.0
2188 442410.000   2248126.6176    865685.6952   5886426.1910   5  13   2.2159   1.3704   4.5327  -0.3699   0.7137   2.2444   0.00    0.0
2188 442440.000   2248127.2581    865685.3033   5886425.0258   5  13   2.2154   1.3701   4.5157  -0.3635   0.7200   2.2393   0.00    0.0
2188 442470.000   2248127.0116    865684.4115   5886423.0106   5  13   2.2147   1.3698   4.4985  -0.3569   0.7261   2.2340   0.00    0.0
2188 442500.000   2248126.7964    865685.9269   5886424.9781   5  13   2.2141   1.3695   4.4811  -0.3502   0.7322   2.2285   0.00    0.0
2188 442530.000   2248126.0253    865685.1594   5886423.9195   5  13   2.2134   1.3693   4.4637  -0.3434   0.7381   2.2230   0.00    0.0
2188 442560.000   2248126.0444    865684.8908   5886425.4859   5  13   2.2128   1.3691   4.4461  -0.3363   0.7439   2.2173   0.00    0.0
2188 442590.000   2248125.9064    865684.9145   5886424.9696   5  13   2.2121   1.3690   4.4285  -0.3291   0.7495   2.2115   0.00    0.0
2188 442620.000   2248126.9288    865685.2011   5886423.7177   5  13   2.2113   1.3688   4.4107  -0.3217   0.7551   2.2057   0.00    0.0
2188 442650.000   2248126.8416    865685.6715   5886426.1926   5  13   2.2106   1.3688   4.3928  -0.3141   0.7605   2.1997   0.00    0.0
2188 442680.000   2248127.0355    865685.8627   5886425.3108   5  13   2.2098   1.3687   4.3749  -0.3063   0.7658   2.1936   0.00    0.0
2188 442710.000   2248127.2695    865685.4718   5886425.8070   5  14   2.2059   1.3306   3.9215  -0.2271  -0.1198   2.2375   0.00    0.0
2188 442740.000   2248126.9388    865685.9016   5886425.1572   5  14   2.2046   1.3302   3.9124  -0.2096  -0.0481   2.2341   0.00    0.0
2188 442770.000   2248127.2408    865685.7783   5886427.0566   5  14   2.2033   1.3299   3.9032  -0.1905   0.0991   2.2306   0.00    0.0
2188 442800.000   2248127.1089    865685.8524   5886425.5192   5  14   2.0760   1.3290   3.6636  -0.2399  -0.1735   1.9976   0.00    0.0
2188 442830.000   2248126.0664    865686.2118   5886425.0147   5  14   2.0750   1.3287   3.6561  -0.2278  -0.1461   1.9951   0.00    0.0
2188 442860.000   2248126.1503    865685.6203   5886424.9499   5  14   2.0740   1.3284   3.6486  -0.2150  -0.1119   1.9924   0.00    0.0
2188 442890.000   2248126.4871    865685.1862   5886423.4138   5  14   2.0730   1.3282   3.6411  -0.2012  -0.0600   1.9897   0.00    0.0
2188 442920.000   2248126.8649    865685.4988   5886424.9669   5  14   2.0719   1.3279   3.6336  -0.1864   0.0736   1.9868   0.00    0.0
2188 442950.000   2248126.9090    865685.9258   5886425.4222   5  14   2.0708   1.3277   3.6261  -0.1702   0.1204   1.9838   0.00    0.0
2188 442980.000   2248126.3184    865685.4203   5886424.5274   5  14   2.0697   1.3276   3.6186  -0.1522   0.1537   1.9806   0.00    0.0
2188 443010.000   2248125.5259    865685.7517   5886424.5564   5  14   2.0685   1.3275   3.6110  -0.1317   0.1812   1.9774   0.00    0.0
2188 443040.000   2248126.7173    865685.3069   5886425.1506   5  14   2.0673   1.3274   3.6034  -0.1074   0.2051   1.9740   0.00    0.0
2188 443070.000   2248126.4130    865685.2744   5886423.6821   5  14   2.0661   1.3273   3.5958  -0.0754   0.2266   1.9706   0.00    0.0
2188 443100.000   2248126.0571    865685.1851   5886423.4342   5  14   2.0649   1.3273   3.5882   0.0130   0.2463   1.9670   0.00    0.0
2188 443130.000   2248126.5792    865685.2787   5886424.9880   5  14   2.0636   1.3273   3.5805   0.0776   0.2646   1.9633   0.00    0.0
2188 443160.000   2248126.1841    865685.4432   5886423.8091   5  14   2.0623   1.3273   3.5728   0.1090   0.2817   1.9595   0.00    0.0
2188 443190.000   2248126.9041    865684.8665   5886425.0218   5  14   2.0609   1.3274   3.5651   0.1332   0.2979   1.9556   0.00    0.0
2188 443220.000   2248127.6348    865685.9982   5886425.2746   5  14   2.0596   1.3275   3.5574   0.1537   0.3132   1.9516   0.00    0.0
2188 443250.000   2248126.1355    865685.6357   5886423.3401   5  14   2.0582   1.3276   3.5496   0.1717   0.3278   1.9475   0.00    0.0
2188 443280.000   2248126.5973    865685.4166   5886424.2861   5  14   2.0568   1.3278   3.5418   0.1879   0.3418   1.9432   0.00    0.0
2188 443310.000   2248125.8152    865685.1574   5886424.8671   5  14   2.0554   1.3280   3.5340   0.2029   0.3552   1.9389   0.00    0.0
2188 443340.000   2248125.9858    865685.6916   5886424.1697   5  14   2.0539   1.3282   3.5261   0.2168   0.3680   1.9345   0.00    0.0
2188 443370.000   2248126.8192    865684.9774   5886424.1034   5  14   2.0524   1.3284   3.5182   0.2298   0.3804   1.9300   0.00    0.0
2188 443400.000   2248126.5919    865684.9953   5886424.8686   5  14   2.0509   1.3287   3.5103   0.2421   0.3924   1.9254   0.00    0.0
2188 443430.000   2248126.5124    865685.1077   5886424.9265   5  14   2.0494   1.3290   3.5024   0.2537   0.4039   1.9207   0.00    0.0
2188 443460.000   2248127.1751    865685.4949   5886423.5508   5  14   2.0479   1.3293   3.4944   0.2648   0.4151   1.9159   0.00    0.0
2188 443490.000   2248126.5181    865684.9943   5886425.9341   5  13   2.0480   1.3497   4.1062   0.2386  -0.5661   1.9569   0.00    0.0
2188 443520.000   2248126.7564    865685.1911   5886424.3406   5  14   2.0448   1.3301   3.4785   0.2856   0.4365   1.9060   0.00    0.0
2188 443550.000   2248126.5100    865685.1664   5886424.2313   5  14   2.0432   1.3305   3.4705   0.2954   0.4467   1.9010   0.00    0.0
2188 443580.000   2248126.4144    865685.2796   5886423.9850   5  14   2.0416   1.3309   3.4624   0.3049   0.4566   1.8958   0.00    0.0
2188 443610.000   2248126.2869    865685.2760   5886424.4563   5  14   2.0400   1.3314   3.4544   0.3140   0.4662   1.8906   0.00    0.0
2188 443640.000   2248126.0597    865685.6121   5886424.8507   5  14   2.0384   1.3319   3.4464   0.3227   0.4755   1.8853   0.00    0.0
2188 443670.000   2248125.8624    865684.9533   5886427.5048   5  13   2.0379   1.3520   4.0486   0.3073  -0.5055   1.9175   0.00    0.0
2188 443700.000   2248125.7099    865685.4255   5886423.4394   5  14   2.0352   1.3329   3.4302   0.3395   0.4934   1.8744   0.00    0.0
2188 443730.000   2248125.8453    865685.5676   5886423.3683   5  14   2.0335   1.3335   3.4222   0.3475   0.5020   1.8689   0.00    0.0
2188 443760.000   2248126.6100    865685.1689   5886425.0559   5  14   2.0319   1.3341   3.4141   0.3552   0.5104   1.8633   0.00    0.0
2188 443790.000   2248126.2075    865684.9624   5886424.1796   5  14   2.0302   1.3347   3.4061   0.3628   0.5186   1.8576   0.00    0.0
2188 443820.000   2248126.1265    865685.0209   5886423.1499   5  14   2.0286   1.3354   3.3980   0.3701   0.5265   1.8518   0.00    0.0
2188 443850.000   2248125.9593    865685.3744   5886424.5382   5  14   2.0269   1.3360   3.3900   0.3773   0.5342   1.8460   0.00    0.0
2188 443880.000   2248126.7594    865685.3191   5886423.5615   5  14   2.0253   1.3367   3.3819   0.3842   0.5418   1.8401   0.00    0.0
2188 443910.000   2248126.5088    865685.0518   5886426.2327   5  13   2.0241   1.3566   3.9720   0.3783  -0.4180   1.8585   0.00    0.0
2188 443940.000   2248126.6543    865685.6285   5886423.6705   5  14   2.0220   1.3382   3.3659   0.3976   0.5563   1.8282   0.00    0.0
2188 443970.000   2248125.1059    865686.0651   5886424.1398   5  14   2.0203   1.3389   3.3579   0.4040   0.5633   1.8221   0.00    0.0
2188 444000.000   2248126.0978    865686.1368   5886424.2795   5  14   2.0187   1.3397   3.3499   0.4103   0.5701   1.8160   0.00    0.0
2188 444030.000   2248126.2705    865685.2197   5886422.2021   5  14   2.0170   1.3405   3.3420   0.4164   0.5767   1.8098   0.00    0.0
2188 444060.000   2248126.6254    865685.5605   5886425.6809   5  14   2.0154   1.3413   3.3341   0.4224   0.5831   1.8036   0.00    0.0
2188 444090.000   2248127.0396    865685.6860   5886423.9609   5  14   2.0137   1.3422   3.3262   0.4282   0.5894   1.7973   0.00    0.0
2188 444120.000   2248126.8482    865685.6286   5886426.3174   5  13   2.0122   1.3619   3.9069   0.4290  -0.3337   1.8018   0.00    0.0
2188 444150.000   2248126.4940    865685.5402   5886425.3087   5  14   2.0105   1.3440   3.3106   0.4395   0.6016   1.7846   0.00    0.0
2188 444180.000   2248126.7523    865684.9827   5886426.3639   5  13   2.0089   1.3637   3.8889   0.4420  -0.3077   1.7848   0.00    0.0
2188 444210.000   2248126.1441    865685.3363   5886422.6872   5  14   2.0073   1.3458   3.2951   0.4502   0.6131   1.7717   0.00    0.0
2188 444240.000   2248126.2765    865685.7462   5886426.1460   5  13   2.0057   1.3656   3.8713   0.4544  -0.2806   1.7675   0.00    0.0
2188 444270.000   2248126.3754    865685.7735   5886427.3469   5  13   2.0042   1.3665   3.8626   0.4605  -0.2665   1.7587   0.00    0.0
2188 444300.000   2248126.0846    865685.3901   5886427.3706   5  14   1.8482   1.3196   3.8047  -0.2431  -0.5331   1.6086   0.00    0.0
2188 444330.000   2248126.9361    865686.0568   5886426.9311   5  14   1.8471   1.3199   3.7984  -0.2355  -0.5230   1.6026   0.00    0.0
2188 444360.000   2248127.1931    865685.3272   5886423.6829   5  15   1.8460   1.3028   3.1911  -0.2209   0.4185   1.5874   0.00    0.0
2188 444390.000   2248126.5506    865685.0623   5886423.7452   5  15   1.8450   1.3032   3.1856  -0.2135   0.4282   1.5827   0.00    0.0
2188 444420.000   2248126.8547    865685.2437   5886423.1803   5  15   1.8440   1.3037   3.1802  -0.2059   0.4377   1.5780   0.00    0.0
2188 444450.000   2248126.2744    865685.3862   5886423.0318   5  15   1.8431   1.3043   3.1748  -0.1980   0.4469   1.5733   0.00    0.0
2188 444480.000   2248125.7596    865685.6196   5886426.6302   5  14   1.8422   1.3217   3.7686  -0.1923  -0.4702   1.5716   0.00    0.0
2188 444510.000   2248126.8928    865685.4234   5886425.4580   5  14   1.8414   1.3221   3.7630  -0.1825  -0.4591   1.5653   0.00    0.0
2188 444540.000   2248127.3944    865685.5819   5886424.2621   5  15   1.8406   1.3060   3.1592  -0.1722   0.4733   1.5592   0.00    0.0
2188 444570.000   2248127.5306    865685.5821   5886423.6452   5  15   1.8399   1.3067   3.1541  -0.1627   0.4817   1.5544   0.00    0.0
2188 444600.000   2248127.4060    865686.0197   5886425.8691   5  14   1.8392   1.3236   3.7469  -0.1490  -0.4250   1.5461   0.00    0.0
2188 444630.000   2248126.7480    865686.0102   5886424.2097   5  15   1.8386   1.3080   3.1443  -0.1419   0.4979   1.5449   0.00    0.0
2188 444660.000   2248125.9252    865685.3979   5886426.2231   5  14   1.8380   1.3248   3.7370  -0.1217  -0.4013   1.5331   0.00    0.0
2188 444690.000   2248125.7833    865685.9069   5886421.9770   5  15   1.8374   1.3095   3.1348  -0.1178   0.5134   1.5353   0.00    0.0
2188 444720.000   2248126.5825    865685.3940   5886423.1602   5  15   1.8369   1.3103   3.1303  -0.1038   0.5209   1.5305   0.00    0.0
2188 444750.000   2248127.0219    865685.8885   5886424.9998   5  14   1.8365   1.3268   3.7234  -0.0618  -0.3642   1.5131   0.00    0.0
2188 444780.000   2248127.0456    865685.3360   5886424.2024   5  15   1.8360   1.3119   3.1214  -0.0678   0.5355   1.5208   0.00    0.0
2188 444810.000   2248126.2474    865685.1457   5886425.8631   5  14   1.8358   1.3283   3.7154   0.0587  -0.3382   1.4994   0.00    0.0
2188 444840.000   2248126.4866    865685.5156   5886423.3421   5  15   1.8353   1.3137   3.1131   0.0385   0.5494   1.5111   0.00    0.0
2188 444870.000   2248126.8475    865685.0555   5886423.4889   5  15   1.8351   1.3146   3.1091   0.0670   0.5561   1.5062   0.00    0.0
2188 444900.000   2248126.0289    865685.1309   5886424.5395   5  14   1.8691   1.3204   3.6244   0.2182   0.3258   1.2600   0.00    0.0
