% program   : RTKLIB ver.demo5 b34j
% inp file  : E:\GAMPII-GOOD\dataset_Win\obs\2021\351\MGEX\daily\kir83510.21o
% inp file  : E:\GAMPII-GOOD\dataset_Win\obs\2021\351\MGEX\daily\kiru3510.21o
% inp file  : E:\Navigation_Learn\GNSS\RTKLIB-b34k\data\data_IGM-A1_Vehicle_open_20211217-nsh\brdm3510.21p
% obs start : 2021/12/17 00:00:00.0 GPST (week2188 432000.0s)
% obs end   : 2021/12/17 23:59:30.0 GPST (week2188 518370.0s)
% pos mode  : Kinematic
% freqs     : L1+L2/E5b
% solution  : Forward
% elev mask : 7.0 deg
% dynamics  : off
% tidecorr  : off
% ionos opt : Broadcast
% tropo opt : Saastamoinen
% ephemeris : Broadcast
% navi sys  : BDS
% amb res   : Continuous
% val thres : 3.0
% antenna1  : LEIAR25.R3      LEIT  ( 0.0000  0.0000  0.0030)
% antenna2  : SEPCHOKE_B3E6   SPKE  ( 0.0000  0.0000  0.0620)
% ref pos   :  2251420.5134    862817.4143   5885476.8935
%
% (x/y/z-ecef=WGS84,Q=1:fix,2:float,3:sbas,4:dgps,5:single,6:ppp,ns=# of satellites)
%  GPST              x-ecef(m)      y-ecef(m)      z-ecef(m)   Q  ns   sdx(m)   sdy(m)   sdz(m)  sdxy(m)  sdyz(m)  sdzx(m) age(s)  ratio
2188 432000.000   2248126.6962    865685.5892   5886424.7800   2  10   2.0155   1.4062   4.0896   0.5878   0.9538   1.5712   0.00    0.0
2188 432030.000   2248126.6716    865685.6839   5886425.0627   2  10   1.5754   1.1173   3.0519   0.4456   0.7386   1.0484   0.00    0.0
2188 432060.000   2248126.7744    865685.8028   5886424.6645   1  10   0.0266   0.0187   0.0596   0.0070   0.0143   0.0148   0.00    4.3
2188 432090.000   2248126.7700    865685.8012   5886424.6642   1  10   0.0266   0.0187   0.0594   0.0069   0.0143   0.0148   0.00    5.1
2188 432120.000   2248126.7658    865685.8007   5886424.6582   1  10   0.0266   0.0187   0.0593   0.0069   0.0143   0.0147   0.00    6.2
2188 432150.000   2248126.7712    865685.8016   5886424.6477   1  10   0.0265   0.0186   0.0591   0.0068   0.0144   0.0147   0.00    6.3
2188 432180.000   2248126.7640    865685.8017   5886424.6589   1  10   0.0265   0.0186   0.0589   0.0067   0.0144   0.0146   0.00    7.1
2188 432210.000   2248126.7709    865685.7985   5886424.6612   1  10   0.0265   0.0186   0.0587   0.0067   0.0144   0.0146   0.00    7.6
2188 432240.000   2248126.7803    865685.8108   5886424.6665   1  10   0.0264   0.0186   0.0586   0.0066   0.0145   0.0145   0.00    7.0
2188 432270.000   2248126.7755    865685.8051   5886424.6654   1  10   0.0264   0.0186   0.0584   0.0065   0.0145   0.0145   0.00    7.5
2188 432300.000   2248126.7725    865685.8010   5886424.6652   1  10   0.0264   0.0186   0.0583   0.0065   0.0145   0.0144   0.00    8.1
2188 432330.000   2248126.7724    865685.7967   5886424.6549   1  10   0.0263   0.0186   0.0581   0.0064   0.0146   0.0144   0.00    8.5
2188 432360.000   2248126.7736    865685.8009   5886424.6609   1  10   0.0263   0.0186   0.0580   0.0064   0.0146   0.0144   0.00    8.3
2188 432390.000   2248126.7692    865685.7962   5886424.6576   1  10   0.0263   0.0186   0.0578   0.0063   0.0146   0.0143   0.00    8.3
2188 432420.000   2248126.7713    865685.8001   5886424.6611   1  10   0.0262   0.0186   0.0577   0.0062   0.0147   0.0143   0.00    8.6
2188 432450.000   2248126.7787    865685.8016   5886424.6654   1  10   0.0262   0.0186   0.0575   0.0062   0.0147   0.0143   0.00    9.1
2188 432480.000   2248126.7773    865685.8014   5886424.6654   1  10   0.0262   0.0186   0.0574   0.0061   0.0147   0.0142   0.00    9.2
2188 432510.000   2248126.7701    865685.7954   5886424.6578   1  10   0.0261   0.0186   0.0573   0.0061   0.0148   0.0142   0.00    9.1
2188 432540.000   2248126.7776    865685.7953   5886424.6659   1  10   0.0261   0.0186   0.0572   0.0060   0.0148   0.0142   0.00    9.1
2188 432570.000   2248126.7714    865685.7984   5886424.6720   1  10   0.0261   0.0186   0.0571   0.0060   0.0149   0.0141   0.00    9.7
2188 432600.000   2248126.7761    865685.8010   5886424.6720   1  10   0.0261   0.0186   0.0569   0.0059   0.0149   0.0141   0.00   10.6
2188 432630.000   2248126.7770    865685.8032   5886424.6805   1  10   0.0260   0.0186   0.0568   0.0059   0.0149   0.0141   0.00   11.6
2188 432660.000   2248126.7851    865685.8039   5886424.6828   1  10   0.0260   0.0186   0.0567   0.0058   0.0150   0.0141   0.00   12.7
2188 432690.000   2248126.7725    865685.8075   5886424.6756   1  10   0.0260   0.0186   0.0566   0.0057   0.0150   0.0141   0.00   13.7
2188 432720.000   2248126.7710    865685.8067   5886424.6717   1  10   0.0260   0.0186   0.0565   0.0057   0.0151   0.0140   0.00   14.3
2188 432750.000   2248126.7759    865685.8102   5886424.6695   1  10   0.0259   0.0186   0.0564   0.0056   0.0151   0.0140   0.00   14.6
2188 432780.000   2248126.7750    865685.8070   5886424.6728   1  10   0.0259   0.0186   0.0563   0.0056   0.0151   0.0140   0.00   14.6
2188 432810.000   2248126.7763    865685.8089   5886424.6742   1  10   0.0259   0.0186   0.0563   0.0055   0.0152   0.0140   0.00   14.6
2188 432840.000   2248126.7748    865685.8069   5886424.6648   1  10   0.0259   0.0186   0.0562   0.0055   0.0152   0.0140   0.00   15.0
2188 432870.000   2248126.7777    865685.8098   5886424.6701   1  10   0.0259   0.0186   0.0561   0.0054   0.0153   0.0140   0.00   15.2
2188 432900.000   2248126.7725    865685.8054   5886424.6661   1  10   0.0258   0.0186   0.0560   0.0054   0.0153   0.0140   0.00   15.5
2188 432930.000   2248126.7754    865685.8040   5886424.6585   1  10   0.0258   0.0186   0.0559   0.0053   0.0154   0.0140   0.00   15.7
2188 432960.000   2248126.7746    865685.8051   5886424.6612   1  10   0.0258   0.0186   0.0559   0.0053   0.0154   0.0140   0.00   15.6
2188 432990.000   2248126.7768    865685.8065   5886424.6599   1  10   0.0258   0.0186   0.0558   0.0053   0.0154   0.0140   0.00   15.9
2188 433020.000   2248126.7779    865685.8017   5886424.6592   1  10   0.0258   0.0186   0.0557   0.0052   0.0155   0.0140   0.00   16.5
2188 433050.000   2248126.7798    865685.8006   5886424.6585   1   9   0.0258   0.0188   0.0574   0.0047   0.0169   0.0133   0.00   27.2
2188 433080.000   2248126.7783    865685.8038   5886424.6697   1   9   0.0258   0.0188   0.0573   0.0047   0.0169   0.0133   0.00   27.9
2188 433110.000   2248126.7789    865685.8003   5886424.6589   1   9   0.0257   0.0188   0.0572   0.0047   0.0169   0.0133   0.00   27.8
2188 433140.000   2248126.7747    865685.8021   5886424.6706   1   9   0.0257   0.0188   0.0571   0.0046   0.0169   0.0134   0.00   27.7
2188 433170.000   2248126.7718    865685.8019   5886424.6697   1   9   0.0257   0.0188   0.0570   0.0046   0.0169   0.0134   0.00   28.5
2188 433200.000   2248126.7728    865685.8011   5886424.6631   1   9   0.0257   0.0188   0.0569   0.0046   0.0169   0.0134   0.00   28.2
2188 433230.000   2248126.7800    865685.7977   5886424.6546   1   9   0.0257   0.0188   0.0568   0.0046   0.0169   0.0135   0.00   28.1
2188 433260.000   2248126.7746    865685.7944   5886424.6490   1   9   0.0256   0.0188   0.0567   0.0046   0.0169   0.0135   0.00   28.2
2188 433290.000   2248126.7804    865685.8017   5886424.6619   1   9   0.0256   0.0188   0.0566   0.0045   0.0169   0.0135   0.00   28.6
2188 433320.000   2248126.7797    865685.8004   5886424.6530   1   9   0.0256   0.0188   0.0565   0.0045   0.0169   0.0136   0.00   29.4
2188 433350.000   2248126.7791    865685.7962   5886424.6526   1   9   0.0256   0.0188   0.0564   0.0045   0.0169   0.0136   0.00   30.4
2188 433380.000   2248126.7835    865685.8036   5886424.6652   1   9   0.0256   0.0190   0.0576   0.0041   0.0179   0.0132   0.00   35.9
2188 433410.000   2248126.7790    865685.8030   5886424.6748   1   9   0.0256   0.0190   0.0575   0.0041   0.0178   0.0133   0.00   39.1
2188 433440.000   2248126.7740    865685.8006   5886424.6695   1   9   0.0256   0.0189   0.0573   0.0041   0.0178   0.0133   0.00   40.2
2188 433470.000   2248126.7798    865685.7989   5886424.6610   1   9   0.0256   0.0189   0.0572   0.0041   0.0178   0.0134   0.00   41.3
2188 433500.000   2248126.7728    865685.7981   5886424.6615   1   9   0.0256   0.0189   0.0571   0.0042   0.0177   0.0135   0.00   41.9
2188 433530.000   2248126.7764    865685.7972   5886424.6597   1   9   0.0255   0.0189   0.0570   0.0042   0.0177   0.0135   0.00   42.4
2188 433560.000   2248126.7749    865685.7988   5886424.6672   1   9   0.0255   0.0189   0.0569   0.0042   0.0177   0.0136   0.00   41.9
2188 433590.000   2248126.7679    865685.7963   5886424.6727   1   9   0.0255   0.0189   0.0568   0.0042   0.0176   0.0137   0.00   42.7
2188 433620.000   2248126.7735    865685.7997   5886424.6718   1   9   0.0255   0.0189   0.0567   0.0042   0.0176   0.0137   0.00   44.3
2188 433650.000   2248126.7682    865685.8020   5886424.6753   1   9   0.0255   0.0189   0.0566   0.0042   0.0176   0.0138   0.00   45.8
2188 433680.000   2248126.7766    865685.8016   5886424.6720   1   9   0.0255   0.0188   0.0565   0.0042   0.0175   0.0138   0.00   47.3
2188 433710.000   2248126.7718    865685.8015   5886424.6672   1   9   0.0255   0.0188   0.0564   0.0042   0.0175   0.0139   0.00   47.6
2188 433740.000   2248126.7715    865685.8005   5886424.6647   1   9   0.0255   0.0188   0.0563   0.0042   0.0175   0.0140   0.00   48.2
2188 433770.000   2248126.7690    865685.7984   5886424.6562   1   9   0.0255   0.0188   0.0562   0.0042   0.0175   0.0140   0.00   46.4
2188 433800.000   2248126.7743    865685.7993   5886424.6628   1   9   0.0255   0.0188   0.0562   0.0043   0.0174   0.0141   0.00   45.4
2188 433830.000   2248126.7774    865685.8027   5886424.6629   1   9   0.0255   0.0188   0.0561   0.0043   0.0174   0.0141   0.00   47.2
2188 433860.000   2248126.7774    865685.8080   5886424.6767   1   9   0.0254   0.0188   0.0560   0.0043   0.0174   0.0142   0.00   48.6
2188 433890.000   2248126.7771    865685.8111   5886424.6865   1   9   0.0254   0.0188   0.0560   0.0043   0.0174   0.0143   0.00   50.5
2188 433920.000   2248126.7746    865685.8099   5886424.6806   1   9   0.0254   0.0188   0.0559   0.0043   0.0174   0.0143   0.00   52.6
2188 433950.000   2248126.7769    865685.8045   5886424.6673   1   9   0.0254   0.0188   0.0558   0.0043   0.0173   0.0144   0.00   53.5
2188 433980.000   2248126.7717    865685.8087   5886424.6674   1   9   0.0254   0.0188   0.0558   0.0043   0.0173   0.0145   0.00   54.9
2188 434010.000   2248126.7803    865685.8044   5886424.6681   1   9   0.0254   0.0188   0.0557   0.0043   0.0173   0.0145   0.00   56.3
2188 434040.000   2248126.7839    865685.8054   5886424.6699   1   9   0.0254   0.0188   0.0557   0.0044   0.0173   0.0146   0.00   57.1
2188 434070.000   2248126.7729    865685.8072   5886424.6584   1   9   0.0254   0.0188   0.0556   0.0044   0.0173   0.0146   0.00   57.8
2188 434100.000   2248126.7810    865685.8157   5886424.6875   1   9   0.0254   0.0188   0.0556   0.0044   0.0173   0.0147   0.00   56.4
2188 434130.000   2248126.7805    865685.8139   5886424.6862   1   9   0.0254   0.0188   0.0556   0.0044   0.0173   0.0148   0.00   57.9
2188 434160.000   2248126.7809    865685.8112   5886424.6793   1   9   0.0254   0.0188   0.0555   0.0044   0.0173   0.0148   0.00   58.8
2188 434190.000   2248126.7789    865685.8158   5886424.6902   1   9   0.0254   0.0188   0.0555   0.0045   0.0173   0.0149   0.00   58.5
2188 434220.000   2248126.7734    865685.8070   5886424.6745   1   9   0.0254   0.0188   0.0555   0.0045   0.0173   0.0149   0.00   58.7
2188 434250.000   2248126.7775    865685.8039   5886424.6695   1   9   0.0254   0.0188   0.0554   0.0045   0.0172   0.0150   0.00   59.1
2188 434280.000   2248126.7749    865685.8050   5886424.6764   1   9   0.0254   0.0188   0.0554   0.0045   0.0172   0.0151   0.00   61.9
2188 434310.000   2248126.7753    865685.7997   5886424.6703   1   9   0.0254   0.0188   0.0554   0.0046   0.0172   0.0151   0.00   64.6
2188 434340.000   2248126.7782    865685.8061   5886424.6838   1   9   0.0254   0.0188   0.0554   0.0046   0.0172   0.0152   0.00   68.8
2188 434370.000   2248126.7726    865685.7991   5886424.6706   1   9   0.0254   0.0188   0.0554   0.0046   0.0172   0.0152   0.00   72.0
2188 434400.000   2248126.7776    865685.7968   5886424.6754   1   9   0.0255   0.0188   0.0554   0.0046   0.0172   0.0153   0.00   75.4
2188 434430.000   2248126.7810    865685.7999   5886424.6723   1   9   0.0255   0.0188   0.0554   0.0046   0.0172   0.0154   0.00   77.3
2188 434460.000   2248126.7771    865685.8087   5886424.6824   1   9   0.0255   0.0188   0.0554   0.0047   0.0173   0.0154   0.00   77.7
2188 434490.000   2248126.7824    865685.8090   5886424.6860   1   9   0.0255   0.0188   0.0554   0.0047   0.0173   0.0155   0.00   78.8
2188 434520.000   2248126.7850    865685.8148   5886424.6827   1   9   0.0255   0.0188   0.0554   0.0047   0.0173   0.0155   0.00   77.4
2188 434550.000   2248126.7927    865685.8156   5886424.6874   1   9   0.0255   0.0188   0.0554   0.0048   0.0173   0.0156   0.00   79.5
2188 434580.000   2248126.7818    865685.7997   5886424.6775   1   9   0.0255   0.0188   0.0554   0.0048   0.0173   0.0157   0.00   79.6
2188 434610.000   2248126.7708    865685.8033   5886424.6760   1   9   0.0255   0.0188   0.0554   0.0048   0.0173   0.0157   0.00   81.9
2188 434640.000   2248126.7693    865685.8083   5886424.6764   1   9   0.0255   0.0188   0.0554   0.0049   0.0173   0.0158   0.00   84.7
2188 434670.000   2248126.7590    865685.7979   5886424.6788   1   9   0.0255   0.0188   0.0555   0.0049   0.0173   0.0159   0.00   94.3
2188 434700.000   2248126.7633    865685.7905   5886424.6627   1   9   0.0255   0.0188   0.0555   0.0049   0.0173   0.0159   0.00  100.0
2188 434730.000   2248126.7727    865685.8011   5886424.6738   1   9   0.0255   0.0188   0.0555   0.0049   0.0173   0.0160   0.00  100.7
2188 434760.000   2248126.7738    865685.8042   5886424.6799   1   9   0.0256   0.0188   0.0556   0.0050   0.0174   0.0160   0.00  101.4
2188 434790.000   2248126.7746    865685.7992   5886424.6751   1   9   0.0256   0.0189   0.0556   0.0050   0.0174   0.0161   0.00  101.9
2188 434820.000   2248126.7803    865685.8016   5886424.6816   1   9   0.0256   0.0189   0.0556   0.0051   0.0174   0.0162   0.00  106.5
2188 434850.000   2248126.7689    865685.7992   5886424.6556   1   9   0.0256   0.0189   0.0557   0.0051   0.0174   0.0162   0.00  103.5
2188 434880.000   2248126.7743    865685.8020   5886424.6714   1   9   0.0256   0.0189   0.0557   0.0051   0.0174   0.0163   0.00   99.9
2188 434910.000   2248126.7799    865685.8088   5886424.6916   1   9   0.0256   0.0189   0.0558   0.0051   0.0175   0.0164   0.00   97.1
2188 434940.000   2248126.7771    865685.8085   5886424.6774   1   9   0.0256   0.0189   0.0558   0.0052   0.0175   0.0164   0.00   93.7
2188 434970.000   2248126.7784    865685.8052   5886424.6769   1   9   0.0256   0.0189   0.0559   0.0052   0.0175   0.0165   0.00   91.8
2188 435000.000   2248126.7782    865685.8057   5886424.6757   1   9   0.0257   0.0189   0.0560   0.0053   0.0175   0.0166   0.00   86.3
2188 435030.000   2248126.7801    865685.8042   5886424.6772   1   9   0.0257   0.0190   0.0560   0.0053   0.0176   0.0166   0.00   83.7
2188 435060.000   2248126.7720    865685.7971   5886424.6658   1   9   0.0257   0.0190   0.0561   0.0054   0.0176   0.0167   0.00   84.4
2188 435090.000   2248126.7749    865685.7949   5886424.6663   1   9   0.0257   0.0190   0.0562   0.0054   0.0176   0.0168   0.00   84.2
2188 435120.000   2248126.7828    865685.8027   5886424.6859   1   9   0.0257   0.0190   0.0563   0.0055   0.0176   0.0169   0.00   83.5
2188 435150.000   2248126.7732    865685.8056   5886424.6680   1   9   0.0257   0.0190   0.0564   0.0055   0.0177   0.0169   0.00   83.3
2188 435180.000   2248126.7912    865685.8111   5886424.6757   1   9   0.0258   0.0190   0.0564   0.0055   0.0177   0.0170   0.00   82.4
2188 435210.000   2248126.7708    865685.8009   5886424.6720   1   9   0.0258   0.0191   0.0565   0.0056   0.0177   0.0171   0.00   82.1
2188 435240.000   2248126.7657    865685.7980   5886424.6761   1   9   0.0258   0.0191   0.0566   0.0056   0.0178   0.0172   0.00   84.9
2188 435270.000   2248126.7666    865685.8114   5886424.6760   1   9   0.0258   0.0191   0.0567   0.0057   0.0178   0.0172   0.00   85.4
2188 435300.000   2248126.7759    865685.8161   5886424.6858   1   9   0.0258   0.0191   0.0568   0.0057   0.0179   0.0173   0.00   84.1
2188 435330.000   2248126.7700    865685.8114   5886424.6762   1   9   0.0258   0.0191   0.0570   0.0058   0.0179   0.0174   0.00   84.0
2188 435360.000   2248126.7739    865685.8022   5886424.6758   1   9   0.0259   0.0191   0.0571   0.0058   0.0179   0.0175   0.00   84.7
2188 435390.000   2248126.7741    865685.8079   5886424.6894   1   9   0.0259   0.0192   0.0572   0.0059   0.0180   0.0176   0.00   86.3
2188 435420.000   2248126.7778    865685.8072   5886424.6780   1   9   0.0259   0.0192   0.0573   0.0059   0.0180   0.0176   0.00   85.8
2188 435450.000   2248126.7689    865685.8013   5886424.6750   1   9   0.0259   0.0192   0.0574   0.0060   0.0181   0.0177   0.00   87.0
2188 435480.000   2248126.7757    865685.8020   5886424.6713   1   9   0.0260   0.0192   0.0576   0.0060   0.0181   0.0178   0.00   86.1
2188 435510.000   2248126.7693    865685.8007   5886424.6617   1   9   0.0260   0.0193   0.0577   0.0061   0.0182   0.0179   0.00   83.8
2188 435540.000   2248126.7825    865685.8036   5886424.6793   1   9   0.0287   0.0193   0.0584   0.0067   0.0184   0.0206   0.00   64.6
2188 435570.000   2248126.7747    865685.7990   5886424.6655   1   9   0.0274   0.0193   0.0583   0.0065   0.0184   0.0194   0.00   64.5
2188 435600.000   2248126.7814    865685.7959   5886424.6673   1   9   0.0269   0.0193   0.0584   0.0065   0.0184   0.0190   0.00   64.2
2188 435630.000   2248126.7807    865685.7999   5886424.6682   1   9   0.0267   0.0194   0.0585   0.0065   0.0184   0.0189   0.00   63.5
2188 435660.000   2248126.7841    865685.8080   5886424.6702   1   9   0.0266   0.0194   0.0586   0.0065   0.0185   0.0189   0.00   61.9
2188 435690.000   2248126.7777    865685.8040   5886424.6682   1   9   0.0265   0.0194   0.0588   0.0065   0.0186   0.0189   0.00   60.4
2188 435720.000   2248126.7798    865685.8011   5886424.6688   1   9   0.0265   0.0194   0.0589   0.0066   0.0186   0.0189   0.00   60.1
2188 435750.000   2248126.7913    865685.8049   5886424.6734   1   9   0.0265   0.0195   0.0591   0.0066   0.0187   0.0189   0.00   59.6
2188 435780.000   2248126.7684    865685.7945   5886424.6657   1   9   0.0305   0.0219   0.0596   0.0140   0.0203   0.0212   0.00   58.5
2188 435810.000   2248126.7795    865685.8049   5886424.6745   1   9   0.0286   0.0208   0.0597   0.0111   0.0197   0.0203   0.00   59.1
2188 435840.000   2248126.7762    865685.8062   5886424.6772   1   9   0.0280   0.0204   0.0598   0.0100   0.0195   0.0201   0.00   58.7
2188 435870.000   2248126.7779    865685.8099   5886424.6698   1   9   0.0276   0.0203   0.0600   0.0094   0.0194   0.0200   0.00   57.5
2188 435900.000   2248126.7741    865685.8081   5886424.6677   1   9   0.0274   0.0202   0.0602   0.0090   0.0195   0.0199   0.00   57.1
2188 435930.000   2248126.7699    865685.8024   5886424.6593   1   9   0.0273   0.0201   0.0604   0.0088   0.0195   0.0200   0.00   56.3
2188 435960.000   2248126.7791    865685.8070   5886424.6652   1   8   0.0281   0.0201   0.0610   0.0090   0.0197   0.0211   0.00   54.9
2188 435990.000   2248126.7640    865685.8011   5886424.6567   1   8   0.0280   0.0201   0.0612   0.0089   0.0197   0.0212   0.00   53.1
2188 436020.000   2248126.7475    865685.7832   5886424.6445   1   8   0.0280   0.0201   0.0614   0.0088   0.0198   0.0212   0.00   50.3
2188 436050.000   2248126.7711    865685.7949   5886424.6551   1   8   0.0279   0.0201   0.0617   0.0088   0.0199   0.0213   0.00   48.4
2188 436080.000   2248126.7737    865685.7978   5886424.6564   1   8   0.0279   0.0202   0.0620   0.0087   0.0199   0.0214   0.00   46.0
2188 436110.000   2248126.7703    865685.7980   5886424.6554   1   8   0.0278   0.0202   0.0622   0.0087   0.0200   0.0215   0.00   43.9
2188 436140.000   2248126.7821    865685.8060   5886424.6743   1   8   0.0278   0.0202   0.0625   0.0087   0.0201   0.0215   0.00   42.4
2188 436170.000   2248126.7668    865685.7944   5886424.6597   1   8   0.0275   0.0202   0.0626   0.0086   0.0201   0.0212   0.00   40.6
2188 436200.000   2248126.7573    865685.7798   5886424.6383   1   8   0.0273   0.0202   0.0629   0.0085   0.0202   0.0212   0.00   39.2
2188 436230.000   2248126.7532    865685.7764   5886424.6284   1   8   0.0273   0.0203   0.0631   0.0085   0.0203   0.0212   0.00   37.7
2188 436260.000   2248126.7587    865685.7837   5886424.6349   1   8   0.0272   0.0203   0.0634   0.0085   0.0204   0.0212   0.00   36.8
2188 436290.000   2248126.7767    865685.7908   5886424.6517   1   8   0.0271   0.0203   0.0637   0.0085   0.0205   0.0213   0.00   35.4
2188 436320.000   2248126.7676    865685.7884   5886424.6483   1   8   0.0271   0.0204   0.0640   0.0085   0.0206   0.0213   0.00   33.9
2188 436350.000   2248126.7827    865685.8030   5886424.6561   1   8   0.0271   0.0204   0.0644   0.0085   0.0207   0.0214   0.00   32.3
2188 436380.000   2248126.7721    865685.7926   5886424.6544   1   8   0.0270   0.0204   0.0647   0.0086   0.0208   0.0215   0.00   31.2
2188 436410.000   2248126.7695    865685.7846   5886424.6476   1   8   0.0270   0.0205   0.0650   0.0086   0.0209   0.0216   0.00   30.8
2188 436440.000   2248126.7547    865685.7741   5886424.6503   1   7   0.0271   0.0216   0.0683   0.0097   0.0241   0.0229   0.00    4.2
2188 436470.000   2248126.7667    865685.7852   5886424.6562   1   7   0.0271   0.0217   0.0687   0.0097   0.0242   0.0230   0.00    4.1
2188 436500.000   2248126.7631    865685.7902   5886424.6516   1   7   0.0270   0.0217   0.0691   0.0098   0.0243   0.0231   0.00    4.0
2188 436530.000   2248126.7606    865685.7852   5886424.6455   1   7   0.0270   0.0217   0.0695   0.0098   0.0244   0.0232   0.00    4.0
2188 436560.000   2248126.7708    865685.7934   5886424.6469   1   7   0.0275   0.0218   0.0704   0.0102   0.0248   0.0242   0.00   27.1
2188 436590.000   2248126.7731    865685.7927   5886424.6551   1   7   0.0275   0.0219   0.0709   0.0102   0.0249   0.0243   0.00   26.7
2188 436620.000   2248126.7651    865685.7940   5886424.6350   1   7   0.0274   0.0219   0.0713   0.0102   0.0250   0.0243   0.00   26.4
2188 436650.000   2248126.7672    865685.7935   5886424.6354   1   7   0.0274   0.0219   0.0717   0.0103   0.0252   0.0244   0.00   26.1
2188 436680.000   2248126.7785    865685.7987   5886424.6519   1   7   0.0273   0.0231   0.0762   0.0110   0.0286   0.0258   0.00   12.4
2188 436710.000   2248126.7810    865685.7951   5886424.6400   1   7   0.0271   0.0219   0.0726   0.0099   0.0252   0.0243   0.00   10.1
2188 436740.000   2248126.7858    865685.8019   5886424.6409   1   8   0.0271   0.0219   0.0730   0.0099   0.0254   0.0244   0.00   10.2
2188 436770.000   2248126.7803    865685.7963   5886424.6368   1   9   0.0267   0.0231   0.0773   0.0107   0.0288   0.0253   0.00   13.1
2188 436800.000   2248126.7887    865685.7972   5886424.6517   1   9   0.0265   0.0229   0.0738   0.0105   0.0273   0.0249   0.00   13.3
2188 436830.000   2248126.7878    865685.7981   5886424.6462   1   9   0.0264   0.0228   0.0726   0.0104   0.0268   0.0248   0.00   13.6
2188 436860.000   2248126.7847    865685.7994   5886424.6534   1   9   0.0263   0.0228   0.0720   0.0104   0.0265   0.0248   0.00   13.9
2188 436890.000   2248126.7853    865685.8041   5886424.6541   1   9   0.0262   0.0227   0.0717   0.0104   0.0263   0.0248   0.00   14.3
2188 436920.000   2248126.7810    865685.8008   5886424.6407   1   9   0.0261   0.0227   0.0715   0.0104   0.0262   0.0247   0.00   14.7
2188 436950.000   2248126.7843    865685.8003   5886424.6435   1   9   0.0261   0.0227   0.0714   0.0104   0.0261   0.0248   0.00   15.1
2188 436980.000   2248126.7805    865685.8000   5886424.6497   1   9   0.0260   0.0227   0.0713   0.0104   0.0260   0.0248   0.00   15.5
2188 437010.000   2248126.7800    865685.8015   5886424.6612   1   9   0.0260   0.0227   0.0712   0.0104   0.0259   0.0248   0.00   15.9
2188 437040.000   2248126.7770    865685.7981   5886424.6515   1   9   0.0258   0.0227   0.0711   0.0103   0.0258   0.0247   0.00    3.2
2188 437070.000   2248126.7704    865685.7919   5886424.6378   1   9   0.0258   0.0227   0.0711   0.0103   0.0257   0.0248   0.00    3.3
2188 437100.000   2248126.7732    865685.7949   5886424.6363   1   9   0.0257   0.0227   0.0711   0.0103   0.0256   0.0248   0.00    3.5
2188 437130.000   2248126.7758    865685.7943   5886424.6432   1   9   0.0257   0.0227   0.0711   0.0103   0.0255   0.0248   0.00    3.8
2188 437160.000   2248126.7765    865685.7949   5886424.6444   1   9   0.0256   0.0227   0.0710   0.0104   0.0255   0.0249   0.00    4.0
2188 437190.000   2248126.7764    865685.8018   5886424.6413   1   9   0.0256   0.0227   0.0710   0.0104   0.0254   0.0249   0.00    4.2
2188 437220.000   2248126.7792    865685.8093   5886424.6505   1   9   0.0256   0.0227   0.0710   0.0104   0.0253   0.0250   0.00    4.4
2188 437250.000   2248126.7751    865685.8088   5886424.6417   1   9   0.0255   0.0227   0.0710   0.0104   0.0253   0.0250   0.00    4.6
2188 437280.000   2248126.7726    865685.8036   5886424.6372   1   9   0.0255   0.0227   0.0710   0.0104   0.0252   0.0250   0.00    5.0
2188 437310.000   2248126.7678    865685.7964   5886424.6234   1   9   0.0254   0.0227   0.0710   0.0104   0.0251   0.0251   0.00    5.2
2188 437340.000   2248126.7601    865685.7910   5886424.6087   1   9   0.0254   0.0227   0.0710   0.0104   0.0250   0.0251   0.00    5.4
2188 437370.000   2248126.7594    865685.7953   5886424.6177   1   9   0.0254   0.0227   0.0710   0.0104   0.0250   0.0252   0.00    5.6
2188 437400.000   2248126.7632    865685.7969   5886424.6334   1   9   0.0253   0.0228   0.0710   0.0104   0.0249   0.0252   0.00    5.8
2188 437430.000   2248126.7615    865685.7978   5886424.6226   1   9   0.0253   0.0228   0.0710   0.0104   0.0248   0.0253   0.00    6.0
2188 437460.000   2248126.7664    865685.7991   5886424.6278   1   9   0.0252   0.0228   0.0710   0.0104   0.0248   0.0253   0.00    6.4
2188 437490.000   2248126.7692    865685.7984   5886424.6305   1   9   0.0252   0.0228   0.0710   0.0105   0.0247   0.0253   0.00    6.7
2188 437520.000   2248126.7669    865685.7996   5886424.6410   1   8   0.0253   0.0228   0.0771   0.0105   0.0249   0.0270   0.00    7.0
2188 437550.000   2248126.7696    865685.7944   5886424.6303   1   8   0.0253   0.0228   0.0770   0.0105   0.0248   0.0270   0.00    7.4
2188 437580.000   2248126.7699    865685.7948   5886424.6306   1   8   0.0253   0.0228   0.0769   0.0106   0.0248   0.0271   0.00    7.7
2188 437610.000   2248126.7744    865685.7927   5886424.6368   1   8   0.0252   0.0228   0.0767   0.0106   0.0247   0.0271   0.00    8.1
2188 437640.000   2248126.7730    865685.7968   5886424.6240   1   8   0.0251   0.0228   0.0765   0.0105   0.0245   0.0270   0.00    4.7
2188 437670.000   2248126.7811    865685.7998   5886424.6389   1   8   0.0251   0.0228   0.0746   0.0105   0.0239   0.0269   0.00    3.2
2188 437700.000   2248126.7808    865685.7990   5886424.6384   1   8   0.0251   0.0228   0.0745   0.0105   0.0238   0.0269   0.00    3.4
2188 437730.000   2248126.7773    865685.8014   5886424.6425   1   8   0.0250   0.0228   0.0743   0.0105   0.0237   0.0269   0.00    3.5
2188 437760.000   2248126.7747    865685.8052   5886424.6389   1   8   0.0250   0.0228   0.0742   0.0105   0.0236   0.0269   0.00    3.6
2188 437790.000   2248126.7688    865685.8029   5886424.6342   1   8   0.0250   0.0228   0.0740   0.0105   0.0235   0.0269   0.00    3.7
2188 437820.000   2248126.7679    865685.8038   5886424.6432   1   8   0.0250   0.0228   0.0739   0.0105   0.0234   0.0269   0.00    3.8
2188 437850.000   2248126.7650    865685.8041   5886424.6357   1   8   0.0249   0.0229   0.0737   0.0105   0.0233   0.0270   0.00    3.9
2188 437880.000   2248126.7698    865685.8041   5886424.6484   1   8   0.0249   0.0229   0.0736   0.0105   0.0232   0.0270   0.00    4.0
2188 437910.000   2248126.7677    865685.8036   5886424.6533   1   8   0.0249   0.0229   0.0734   0.0105   0.0231   0.0270   0.00    4.2
2188 437940.000   2248126.7658    865685.7952   5886424.6476   1   8   0.0248   0.0229   0.0732   0.0105   0.0230   0.0270   0.00    4.3
2188 437970.000   2248126.7617    865685.7958   5886424.6410   1   8   0.0248   0.0229   0.0731   0.0105   0.0230   0.0270   0.00    4.5
2188 438000.000   2248126.7620    865685.7949   5886424.6409   1   8   0.0248   0.0229   0.0729   0.0105   0.0229   0.0270   0.00    4.6
2188 438030.000   2248126.7631    865685.7909   5886424.6384   1   8   0.0248   0.0230   0.0727   0.0106   0.0228   0.0270   0.00    4.8
2188 438060.000   2248126.7617    865685.7971   5886424.6346   1   9   0.0247   0.0230   0.0726   0.0106   0.0227   0.0270   0.00    4.9
2188 438090.000   2248126.7657    865685.7935   5886424.6402   1   9   0.0245   0.0226   0.0712   0.0099   0.0213   0.0263   0.00    5.1
2188 438120.000   2248126.7704    865685.7910   5886424.6427   1   9   0.0244   0.0224   0.0707   0.0096   0.0206   0.0260   0.00    5.3
2188 438150.000   2248126.7682    865685.7923   5886424.6490   1   9   0.0243   0.0223   0.0702   0.0095   0.0202   0.0259   0.00    5.5
2188 438180.000   2248126.7636    865685.7942   5886424.6376   1   9   0.0243   0.0223   0.0699   0.0093   0.0199   0.0257   0.00    5.6
2188 438210.000   2248126.7672    865685.7934   5886424.6401   1   9   0.0242   0.0222   0.0696   0.0093   0.0196   0.0257   0.00    5.8
2188 438240.000   2248126.7666    865685.7949   5886424.6378   1   9   0.0242   0.0222   0.0693   0.0092   0.0194   0.0256   0.00    6.0
2188 438270.000   2248126.7663    865685.7942   5886424.6371   1   9   0.0241   0.0222   0.0691   0.0091   0.0191   0.0255   0.00    6.2
2188 438300.000   2248126.7684    865685.7919   5886424.6481   1   9   0.0242   0.0221   0.0714   0.0090   0.0187   0.0262   0.00    6.6
2188 438330.000   2248126.7678    865685.7956   5886424.6545   1   9   0.0241   0.0221   0.0710   0.0089   0.0185   0.0261   0.00    6.8
2188 438360.000   2248126.7700    865685.7964   5886424.6501   1   9   0.0241   0.0221   0.0706   0.0089   0.0183   0.0261   0.00    7.0
2188 438390.000   2248126.7695    865685.8011   5886424.6519   1   9   0.0241   0.0221   0.0703   0.0088   0.0181   0.0260   0.00    7.2
2188 438420.000   2248126.7730    865685.7968   5886424.6681   1   9   0.0240   0.0221   0.0699   0.0087   0.0179   0.0259   0.00    7.4
2188 438450.000   2248126.7731    865685.7929   5886424.6648   1   9   0.0240   0.0221   0.0696   0.0087   0.0177   0.0258   0.00    7.7
2188 438480.000   2248126.7706    865685.7978   5886424.6616   1   9   0.0239   0.0220   0.0692   0.0086   0.0175   0.0257   0.00    7.9
2188 438510.000   2248126.7704    865685.7971   5886424.6706   1   9   0.0239   0.0220   0.0689   0.0086   0.0173   0.0257   0.00    8.1
2188 438540.000   2248126.7718    865685.7978   5886424.6713   1   9   0.0239   0.0220   0.0686   0.0085   0.0171   0.0256   0.00    8.4
2188 438570.000   2248126.7738    865685.8010   5886424.6730   1   9   0.0238   0.0220   0.0683   0.0085   0.0169   0.0255   0.00    8.7
2188 438600.000   2248126.7790    865685.8036   5886424.6788   1   9   0.0238   0.0220   0.0680   0.0084   0.0167   0.0255   0.00    9.0
2188 438630.000   2248126.7816    865685.8039   5886424.6767   1   9   0.0238   0.0220   0.0677   0.0084   0.0165   0.0254   0.00    9.4
2188 438660.000   2248126.7821    865685.8013   5886424.6788   1   9   0.0237   0.0220   0.0674   0.0083   0.0164   0.0253   0.00    9.7
2188 438690.000   2248126.7784    865685.7961   5886424.6791   1   9   0.0237   0.0220   0.0671   0.0082   0.0162   0.0253   0.00   10.1
2188 438720.000   2248126.7794    865685.7903   5886424.6738   1   9   0.0237   0.0220   0.0668   0.0082   0.0160   0.0252   0.00   10.5
2188 438750.000   2248126.7799    865685.7948   5886424.6719   1   9   0.0236   0.0219   0.0665   0.0081   0.0158   0.0251   0.00   10.9
2188 438780.000   2248126.7883    865685.7978   5886424.6845   1   9   0.0236   0.0219   0.0662   0.0081   0.0157   0.0251   0.00   11.3
2188 438810.000   2248126.7822    865685.7981   5886424.6787   1   9   0.0236   0.0219   0.0660   0.0081   0.0155   0.0250   0.00   11.8
2188 438840.000   2248126.7804    865685.8004   5886424.6793   1   9   0.0235   0.0219   0.0657   0.0080   0.0154   0.0250   0.00   12.2
2188 438870.000   2248126.7735    865685.7953   5886424.6657   1   9   0.0235   0.0219   0.0655   0.0080   0.0152   0.0249   0.00   12.5
2188 438900.000   2248126.7712    865685.7960   5886424.6664   1   9   0.0235   0.0219   0.0652   0.0079   0.0150   0.0249   0.00   12.8
2188 438930.000   2248126.7742    865685.7987   5886424.6784   1   9   0.0234   0.0219   0.0650   0.0079   0.0149   0.0248   0.00   13.2
2188 438960.000   2248126.7726    865685.7974   5886424.6790   1   9   0.0234   0.0218   0.0646   0.0076   0.0144   0.0247   0.00    4.3
2188 438990.000   2248126.7725    865685.7942   5886424.6716   1   9   0.0233   0.0218   0.0644   0.0076   0.0143   0.0246   0.00    4.5
2188 439020.000   2248126.7753    865685.7936   5886424.6724   1   9   0.0233   0.0218   0.0641   0.0076   0.0141   0.0246   0.00    4.7
2188 439050.000   2248126.7689    865685.7967   5886424.6682   1   9   0.0233   0.0218   0.0639   0.0075   0.0140   0.0245   0.00    4.8
2188 439080.000   2248126.7687    865685.7978   5886424.6708   1   9   0.0233   0.0218   0.0637   0.0075   0.0138   0.0245   0.00    5.0
2188 439110.000   2248126.7690    865685.7945   5886424.6687   1   9   0.0233   0.0218   0.0635   0.0074   0.0137   0.0245   0.00    5.1
2188 439140.000   2248126.7709    865685.7982   5886424.6765   1   9   0.0232   0.0218   0.0633   0.0074   0.0136   0.0244   0.00    5.3
2188 439170.000   2248126.7705    865685.7973   5886424.6600   1   9   0.0232   0.0218   0.0631   0.0074   0.0134   0.0244   0.00    5.5
2188 439200.000   2248126.7729    865685.7962   5886424.6630   1   9   0.0232   0.0218   0.0629   0.0073   0.0133   0.0244   0.00    5.7
2188 439230.000   2248126.7747    865685.7941   5886424.6718   1   9   0.0232   0.0217   0.0627   0.0073   0.0132   0.0243   0.00    5.9
2188 439260.000   2248126.7707    865685.7992   5886424.6634   1   9   0.0231   0.0217   0.0626   0.0072   0.0131   0.0243   0.00    6.1
2188 439290.000   2248126.7738    865685.7972   5886424.6694   1   9   0.0231   0.0217   0.0624   0.0072   0.0130   0.0243   0.00    6.4
2188 439320.000   2248126.7743    865685.7944   5886424.6683   1   9   0.0231   0.0217   0.0622   0.0072   0.0128   0.0243   0.00    6.6
2188 439350.000   2248126.7729    865685.7945   5886424.6668   1   9   0.0231   0.0217   0.0620   0.0071   0.0127   0.0242   0.00    6.8
2188 439380.000   2248126.7731    865685.7954   5886424.6716   1   9   0.0231   0.0217   0.0619   0.0071   0.0126   0.0242   0.00    7.0
2188 439410.000   2248126.7726    865685.7948   5886424.6682   1   9   0.0231   0.0217   0.0617   0.0071   0.0125   0.0242   0.00    7.3
2188 439440.000   2248126.7717    865685.7921   5886424.6604   1   9   0.0230   0.0217   0.0616   0.0070   0.0124   0.0242   0.00    7.5
2188 439470.000   2248126.7758    865685.7972   5886424.6698   1   9   0.0230   0.0217   0.0614   0.0070   0.0123   0.0241   0.00    7.7
2188 439500.000   2248126.7758    865685.7935   5886424.6640   1   9   0.0230   0.0217   0.0613   0.0070   0.0122   0.0241   0.00    7.9
2188 439530.000   2248126.7725    865685.8000   5886424.6621   1   9   0.0230   0.0217   0.0611   0.0070   0.0121   0.0241   0.00    8.2
2188 439560.000   2248126.7736    865685.8023   5886424.6624   1   9   0.0230   0.0217   0.0610   0.0069   0.0120   0.0241   0.00    8.4
2188 439590.000   2248126.7708    865685.7982   5886424.6607   1   9   0.0230   0.0217   0.0608   0.0069   0.0119   0.0241   0.00    8.7
2188 439620.000   2248126.7740    865685.7965   5886424.6668   1   9   0.0230   0.0217   0.0607   0.0069   0.0118   0.0240   0.00    8.9
2188 439650.000   2248126.7743    865685.7940   5886424.6654   1   9   0.0229   0.0217   0.0606   0.0068   0.0118   0.0240   0.00    9.2
2188 439680.000   2248126.7721    865685.7927   5886424.6620   1   9   0.0229   0.0217   0.0605   0.0068   0.0117   0.0240   0.00    9.5
2188 439710.000   2248126.7727    865685.7953   5886424.6678   1   9   0.0229   0.0217   0.0603   0.0068   0.0116   0.0240   0.00    9.8
2188 439740.000   2248126.7717    865685.7939   5886424.6652   1   9   0.0229   0.0218   0.0602   0.0068   0.0115   0.0240   0.00   10.1
2188 439770.000   2248126.7726    865685.7929   5886424.6650   1   9   0.0229   0.0217   0.0601   0.0067   0.0115   0.0240   0.00   10.4
2188 439800.000   2248126.7737    865685.7963   5886424.6630   1   9   0.0229   0.0218   0.0600   0.0067   0.0114   0.0240   0.00   10.7
2188 439830.000   2248126.7754    865685.7991   5886424.6636   1   9   0.0229   0.0218   0.0599   0.0067   0.0113   0.0240   0.00   11.1
2188 439860.000   2248126.7760    865685.7983   5886424.6683   1   9   0.0229   0.0218   0.0598   0.0067   0.0113   0.0240   0.00   11.4
2188 439890.000   2248126.7762    865685.7986   5886424.6679   1   9   0.0229   0.0218   0.0597   0.0066   0.0112   0.0240   0.00   11.8
2188 439920.000   2248126.7761    865685.7959   5886424.6628   1   9   0.0229   0.0218   0.0596   0.0066   0.0112   0.0240   0.00   12.1
2188 439950.000   2248126.7733    865685.7941   5886424.6597   1   9   0.0229   0.0218   0.0595   0.0066   0.0111   0.0240   0.00   12.4
2188 439980.000   2248126.7726    865685.7916   5886424.6586   1   9   0.0229   0.0218   0.0594   0.0066   0.0111   0.0240   0.00   12.8
2188 440010.000   2248126.7713    865685.7923   5886424.6566   1   9   0.0229   0.0218   0.0593   0.0066   0.0110   0.0240   0.00   13.0
2188 440040.000   2248126.7747    865685.7939   5886424.6601   1   9   0.0229   0.0218   0.0593   0.0066   0.0110   0.0240   0.00   13.3
2188 440070.000   2248126.7750    865685.7962   5886424.6617   1   9   0.0229   0.0218   0.0592   0.0066   0.0109   0.0240   0.00   13.6
2188 440100.000   2248126.7772    865685.7980   5886424.6643   1   9   0.0229   0.0218   0.0591   0.0066   0.0109   0.0240   0.00   14.0
2188 440130.000   2248126.7764    865685.7954   5886424.6597   1   9   0.0229   0.0218   0.0590   0.0066   0.0109   0.0240   0.00   14.3
2188 440160.000   2248126.7753    865685.7970   5886424.6586   1   9   0.0229   0.0218   0.0590   0.0066   0.0108   0.0240   0.00   14.7
2188 440190.000   2248126.7772    865685.8012   5886424.6629   1   9   0.0229   0.0218   0.0589   0.0065   0.0108   0.0240   0.00   15.1
2188 440220.000   2248126.7803    865685.8019   5886424.6638   1   9   0.0229   0.0218   0.0588   0.0065   0.0108   0.0240   0.00   15.6
2188 440250.000   2248126.7785    865685.7956   5886424.6634   1   9   0.0229   0.0218   0.0588   0.0065   0.0108   0.0240   0.00   16.0
2188 440280.000   2248126.7808    865685.7933   5886424.6615   1   9   0.0229   0.0218   0.0587   0.0065   0.0108   0.0240   0.00   16.4
2188 440310.000   2248126.7849    865685.7991   5886424.6620   1   9   0.0229   0.0218   0.0587   0.0065   0.0107   0.0240   0.00   17.0
2188 440340.000   2248126.7845    865685.8007   5886424.6638   1   9   0.0229   0.0218   0.0586   0.0066   0.0107   0.0240   0.00   17.5
2188 440370.000   2248126.7772    865685.7938   5886424.6590   1   9   0.0229   0.0219   0.0586   0.0065   0.0107   0.0241   0.00   17.9
2188 440400.000   2248126.7724    865685.7933   5886424.6612   1   9   0.0229   0.0219   0.0586   0.0065   0.0107   0.0241   0.00   18.3
2188 440430.000   2248126.7700    865685.7950   5886424.6614   1   9   0.0229   0.0219   0.0585   0.0066   0.0107   0.0241   0.00   18.7
2188 440460.000   2248126.7698    865685.7943   5886424.6593   1   9   0.0229   0.0219   0.0585   0.0065   0.0107   0.0241   0.00   19.0
2188 440490.000   2248126.7725    865685.7976   5886424.6625   1   9   0.0229   0.0219   0.0585   0.0066   0.0107   0.0241   0.00   19.3
2188 440520.000   2248126.7742    865685.7996   5886424.6568   1   9   0.0229   0.0219   0.0584   0.0066   0.0107   0.0242   0.00   19.7
2188 440550.000   2248126.7722    865685.8012   5886424.6518   1   9   0.0229   0.0219   0.0584   0.0066   0.0107   0.0242   0.00   20.0
2188 440580.000   2248126.7732    865685.8001   5886424.6536   1   9   0.0229   0.0219   0.0584   0.0066   0.0108   0.0242   0.00   20.3
2188 440610.000   2248126.7713    865685.7999   5886424.6540   1   9   0.0230   0.0219   0.0584   0.0066   0.0108   0.0242   0.00   20.7
2188 440640.000   2248126.7768    865685.8026   5886424.6577   1   9   0.0230   0.0219   0.0583   0.0066   0.0108   0.0243   0.00   21.1
2188 440670.000   2248126.7768    865685.8035   5886424.6530   1   9   0.0230   0.0219   0.0583   0.0066   0.0108   0.0243   0.00   21.5
2188 440700.000   2248126.7705    865685.7987   5886424.6523   1   9   0.0230   0.0220   0.0583   0.0066   0.0108   0.0243   0.00   21.9
2188 440730.000   2248126.7717    865685.7994   5886424.6566   1   9   0.0230   0.0220   0.0583   0.0066   0.0109   0.0243   0.00   22.2
2188 440760.000   2248126.7694    865685.8021   5886424.6576   1   9   0.0230   0.0220   0.0583   0.0067   0.0109   0.0244   0.00   22.6
2188 440790.000   2248126.7713    865685.8019   5886424.6619   1  10   0.0230   0.0220   0.0583   0.0067   0.0109   0.0244   0.00   23.0
2188 440820.000   2248126.7701    865685.7998   5886424.6605   1  10   0.0229   0.0220   0.0581   0.0067   0.0110   0.0241   0.00   23.5
2188 440850.000   2248126.7736    865685.7998   5886424.6602   1  10   0.0226   0.0220   0.0577   0.0068   0.0111   0.0236   0.00   23.9
2188 440880.000   2248126.7744    865685.7973   5886424.6655   1  10   0.0225   0.0220   0.0576   0.0068   0.0111   0.0235   0.00   24.3
2188 440910.000   2248126.7732    865685.7980   5886424.6641   1  10   0.0224   0.0220   0.0575   0.0069   0.0111   0.0234   0.00   24.9
2188 440940.000   2248126.7732    865685.7971   5886424.6565   1  10   0.0224   0.0220   0.0575   0.0069   0.0112   0.0233   0.00   25.4
2188 440970.000   2248126.7749    865685.7977   5886424.6583   1  10   0.0224   0.0221   0.0574   0.0069   0.0112   0.0233   0.00   26.1
2188 441000.000   2248126.7749    865685.7991   5886424.6580   1  10   0.0223   0.0221   0.0574   0.0069   0.0113   0.0233   0.00   26.6
2188 441030.000   2248126.7752    865685.7991   5886424.6571   1  10   0.0223   0.0221   0.0574   0.0070   0.0113   0.0233   0.00   27.2
2188 441060.000   2248126.7734    865685.7972   5886424.6563   1  10   0.0223   0.0221   0.0574   0.0070   0.0114   0.0233   0.00   27.7
2188 441090.000   2248126.7733    865685.7961   5886424.6535   1  10   0.0223   0.0221   0.0574   0.0070   0.0114   0.0233   0.00   28.3
2188 441120.000   2248126.7735    865685.7980   5886424.6651   1  10   0.0223   0.0221   0.0574   0.0071   0.0115   0.0233   0.00   28.9
2188 441150.000   2248126.7729    865685.7963   5886424.6614   1  10   0.0223   0.0221   0.0574   0.0071   0.0115   0.0233   0.00   29.5
2188 441180.000   2248126.7762    865685.8000   5886424.6601   1  10   0.0223   0.0221   0.0575   0.0071   0.0116   0.0233   0.00   30.1
2188 441210.000   2248126.7771    865685.8004   5886424.6647   1  10   0.0223   0.0222   0.0575   0.0072   0.0116   0.0233   0.00   30.7
2188 441240.000   2248126.7815    865685.8026   5886424.6683   1  10   0.0223   0.0222   0.0575   0.0072   0.0117   0.0233   0.00   31.5
2188 441270.000   2248126.7823    865685.8005   5886424.6673   1  10   0.0223   0.0222   0.0575   0.0072   0.0117   0.0233   0.00   32.2
2188 441300.000   2248126.7830    865685.8043   5886424.6725   1  10   0.0223   0.0222   0.0576   0.0073   0.0118   0.0234   0.00   32.9
2188 441330.000   2248126.7787    865685.8025   5886424.6703   1  10   0.0223   0.0222   0.0576   0.0073   0.0118   0.0234   0.00   33.6
2188 441360.000   2248126.7766    865685.8012   5886424.6615   1  10   0.0223   0.0222   0.0577   0.0073   0.0119   0.0234   0.00   34.1
2188 441390.000   2248126.7792    865685.8024   5886424.6687   1   9   0.0226   0.0229   0.0587   0.0085   0.0142   0.0242   0.00   38.6
2188 441420.000   2248126.7763    865685.7988   5886424.6644   1   9   0.0226   0.0229   0.0587   0.0085   0.0142   0.0242   0.00   39.1
2188 441450.000   2248126.7749    865685.7992   5886424.6610   1   9   0.0225   0.0229   0.0588   0.0085   0.0141   0.0242   0.00   39.9
2188 441480.000   2248126.7743    865685.7981   5886424.6676   1   9   0.0225   0.0229   0.0588   0.0085   0.0141   0.0242   0.00   40.6
2188 441510.000   2248126.7740    865685.8035   5886424.6636   1   9   0.0225   0.0229   0.0589   0.0085   0.0141   0.0243   0.00   41.5
2188 441540.000   2248126.7724    865685.8009   5886424.6549   1   9   0.0225   0.0228   0.0589   0.0085   0.0141   0.0243   0.00   42.1
2188 441570.000   2248126.7727    865685.8007   5886424.6592   1   9   0.0225   0.0228   0.0590   0.0085   0.0141   0.0243   0.00   42.7
2188 441600.000   2248126.7748    865685.8022   5886424.6628   1   9   0.0225   0.0228   0.0590   0.0085   0.0141   0.0243   0.00   43.2
2188 441630.000   2248126.7725    865685.8005   5886424.6629   1   9   0.0225   0.0228   0.0591   0.0085   0.0141   0.0243   0.00   43.7
2188 441660.000   2248126.7726    865685.8012   5886424.6579   1   9   0.0225   0.0228   0.0591   0.0085   0.0141   0.0243   0.00   44.1
2188 441690.000   2248126.7731    865685.8011   5886424.6618   1   9   0.0225   0.0228   0.0592   0.0085   0.0141   0.0243   0.00    5.0
2188 441720.000   2248126.7714    865685.7996   5886424.6567   1   9   0.0225   0.0228   0.0592   0.0085   0.0141   0.0243   0.00    5.0
2188 441750.000   2248126.7684    865685.7982   5886424.6512   1   9   0.0225   0.0228   0.0593   0.0085   0.0141   0.0243   0.00    5.2
2188 441780.000   2248126.7686    865685.7999   5886424.6529   1   9   0.0225   0.0228   0.0593   0.0085   0.0141   0.0243   0.00    5.4
2188 441810.000   2248126.7691    865685.8010   5886424.6541   1   9   0.0225   0.0228   0.0594   0.0085   0.0141   0.0244   0.00    5.5
2188 441840.000   2248126.7706    865685.8041   5886424.6562   1   9   0.0225   0.0228   0.0595   0.0085   0.0141   0.0244   0.00    5.7
2188 441870.000   2248126.7716    865685.8033   5886424.6653   1   9   0.0225   0.0228   0.0596   0.0085   0.0141   0.0244   0.00    5.9
2188 441900.000   2248126.7749    865685.8021   5886424.6669   1   9   0.0225   0.0228   0.0597   0.0085   0.0141   0.0245   0.00    6.2
2188 441930.000   2248126.7758    865685.8049   5886424.6671   1   9   0.0225   0.0228   0.0598   0.0085   0.0141   0.0245   0.00    6.4
2188 441960.000   2248126.7748    865685.8056   5886424.6711   1   9   0.0225   0.0228   0.0599   0.0086   0.0140   0.0246   0.00    6.7
2188 441990.000   2248126.7727    865685.8034   5886424.6645   1   9   0.0225   0.0228   0.0600   0.0086   0.0140   0.0246   0.00    7.0
2188 442020.000   2248126.7719    865685.8010   5886424.6626   1   9   0.0225   0.0228   0.0601   0.0086   0.0140   0.0246   0.00    7.3
2188 442050.000   2248126.7729    865685.7991   5886424.6589   1   9   0.0225   0.0228   0.0602   0.0086   0.0140   0.0247   0.00    7.7
2188 442080.000   2248126.7741    865685.7998   5886424.6639   1   9   0.0226   0.0228   0.0603   0.0086   0.0141   0.0247   0.00    8.0
2188 442110.000   2248126.7698    865685.7994   5886424.6534   1   9   0.0226   0.0228   0.0605   0.0086   0.0141   0.0248   0.00    8.3
2188 442140.000   2248126.7719    865685.8017   5886424.6640   1   9   0.0226   0.0228   0.0606   0.0086   0.0141   0.0248   0.00    8.6
2188 442170.000   2248126.7736    865685.8036   5886424.6678   1   9   0.0226   0.0228   0.0607   0.0086   0.0141   0.0249   0.00    9.0
2188 442200.000   2248126.7757    865685.8029   5886424.6678   1   9   0.0226   0.0228   0.0609   0.0087   0.0141   0.0250   0.00    9.4
2188 442230.000   2248126.7711    865685.8021   5886424.6593   1   9   0.0226   0.0228   0.0610   0.0087   0.0141   0.0250   0.00    9.6
2188 442260.000   2248126.7698    865685.7992   5886424.6626   1   9   0.0226   0.0228   0.0611   0.0087   0.0141   0.0251   0.00    9.9
2188 442290.000   2248126.7702    865685.8025   5886424.6611   1   9   0.0227   0.0228   0.0613   0.0087   0.0141   0.0251   0.00   10.2
2188 442320.000   2248126.7713    865685.8030   5886424.6599   1   9   0.0227   0.0229   0.0615   0.0088   0.0141   0.0252   0.00   10.4
2188 442350.000   2248126.7718    865685.8025   5886424.6687   1   9   0.0227   0.0229   0.0616   0.0088   0.0141   0.0253   0.00   10.7
2188 442380.000   2248126.7717    865685.8009   5886424.6684   1   9   0.0227   0.0229   0.0618   0.0088   0.0141   0.0253   0.00   10.9
2188 442410.000   2248126.7750    865685.8013   5886424.6681   1   9   0.0227   0.0229   0.0620   0.0088   0.0141   0.0254   0.00   11.1
2188 442440.000   2248126.7723    865685.8021   5886424.6604   1   9   0.0228   0.0229   0.0621   0.0088   0.0141   0.0255   0.00   11.4
2188 442470.000   2248126.7685    865685.8034   5886424.6537   1   9   0.0228   0.0229   0.0623   0.0089   0.0141   0.0256   0.00   11.6
2188 442500.000   2248126.7666    865685.8035   5886424.6512   1   9   0.0228   0.0229   0.0625   0.0089   0.0141   0.0256   0.00   11.8
2188 442530.000   2248126.7654    865685.8029   5886424.6512   1   9   0.0228   0.0229   0.0627   0.0089   0.0141   0.0257   0.00   12.1
2188 442560.000   2248126.7653    865685.7995   5886424.6477   1   9   0.0228   0.0229   0.0629   0.0089   0.0141   0.0258   0.00   12.4
2188 442590.000   2248126.7669    865685.8000   5886424.6506   1   9   0.0229   0.0229   0.0631   0.0090   0.0141   0.0259   0.00   12.6
2188 442620.000   2248126.7674    865685.8021   5886424.6575   1   9   0.0229   0.0229   0.0633   0.0090   0.0142   0.0260   0.00   12.9
2188 442650.000   2248126.7665    865685.8033   5886424.6475   1   9   0.0229   0.0230   0.0635   0.0090   0.0142   0.0261   0.00   13.2
2188 442680.000   2248126.7687    865685.8042   5886424.6586   1   9   0.0229   0.0230   0.0637   0.0091   0.0142   0.0262   0.00   13.5
2188 442710.000   2248126.7676    865685.8037   5886424.6534   1   9   0.0230   0.0230   0.0640   0.0091   0.0142   0.0263   0.00   13.8
2188 442740.000   2248126.7698    865685.8046   5886424.6567   1   9   0.0230   0.0230   0.0642   0.0091   0.0142   0.0263   0.00   14.2
2188 442770.000   2248126.7704    865685.8042   5886424.6528   1   9   0.0230   0.0230   0.0644   0.0092   0.0142   0.0264   0.00   14.5
2188 442800.000   2248126.7717    865685.8008   5886424.6560   1   9   0.0231   0.0230   0.0647   0.0092   0.0142   0.0265   0.00   14.9
2188 442830.000   2248126.7711    865685.8010   5886424.6509   1   9   0.0231   0.0230   0.0649   0.0092   0.0142   0.0267   0.00   15.2
2188 442860.000   2248126.7661    865685.8013   5886424.6440   1   9   0.0231   0.0231   0.0652   0.0093   0.0142   0.0268   0.00   15.6
2188 442890.000   2248126.7667    865685.8048   5886424.6406   1   9   0.0231   0.0231   0.0654   0.0093   0.0143   0.0269   0.00   15.9
2188 442920.000   2248126.7668    865685.8049   5886424.6400   1   9   0.0232   0.0231   0.0657   0.0093   0.0143   0.0270   0.00   16.3
2188 442950.000   2248126.7651    865685.8061   5886424.6342   1   9   0.0232   0.0231   0.0660   0.0094   0.0143   0.0271   0.00   16.7
2188 442980.000   2248126.7683    865685.8069   5886424.6438   1   9   0.0232   0.0231   0.0663   0.0094   0.0143   0.0272   0.00   17.1
2188 443010.000   2248126.7688    865685.8062   5886424.6454   1   9   0.0233   0.0231   0.0665   0.0095   0.0143   0.0273   0.00   17.7
2188 443040.000   2248126.7698    865685.8031   5886424.6494   1   9   0.0233   0.0232   0.0668   0.0095   0.0143   0.0275   0.00   18.1
2188 443070.000   2248126.7699    865685.8034   5886424.6463   1   9   0.0233   0.0232   0.0671   0.0096   0.0144   0.0276   0.00   18.6
2188 443100.000   2248126.7668    865685.8026   5886424.6412   1   9   0.0234   0.0232   0.0674   0.0096   0.0144   0.0277   0.00   19.0
2188 443130.000   2248126.7655    865685.8000   5886424.6394   1   9   0.0234   0.0232   0.0678   0.0096   0.0144   0.0278   0.00   19.5
2188 443160.000   2248126.7640    865685.7979   5886424.6367   1   9   0.0235   0.0232   0.0681   0.0097   0.0144   0.0280   0.00   19.9
2188 443190.000   2248126.7640    865685.7979   5886424.6341   1   9   0.0235   0.0233   0.0684   0.0097   0.0144   0.0281   0.00   20.4
2188 443220.000   2248126.7658    865685.8008   5886424.6463   1  10   0.0235   0.0233   0.0687   0.0098   0.0145   0.0282   0.00   20.8
2188 443250.000   2248126.7679    865685.8001   5886424.6438   1  10   0.0235   0.0232   0.0667   0.0096   0.0132   0.0278   0.00   21.2
2188 443280.000   2248126.7654    865685.8021   5886424.6427   1  10   0.0235   0.0232   0.0661   0.0096   0.0127   0.0277   0.00   21.7
2188 443310.000   2248126.7653    865685.8030   5886424.6427   1   9   0.0236   0.0233   0.0676   0.0097   0.0134   0.0282   0.00   22.1
2188 443340.000   2248126.7666    865685.8021   5886424.6485   1   9   0.0236   0.0233   0.0677   0.0098   0.0133   0.0282   0.00   22.7
2188 443370.000   2248126.7661    865685.8029   5886424.6427   1   9   0.0237   0.0233   0.0679   0.0098   0.0132   0.0283   0.00   23.3
2188 443400.000   2248126.7666    865685.8021   5886424.6410   1   9   0.0237   0.0233   0.0680   0.0099   0.0131   0.0284   0.00   23.9
2188 443430.000   2248126.7702    865685.8042   5886424.6509   1   9   0.0237   0.0233   0.0682   0.0099   0.0131   0.0285   0.00   24.5
2188 443460.000   2248126.7734    865685.8043   5886424.6535   1   8   0.0242   0.0234   0.0696   0.0099   0.0128   0.0297   0.00   27.3
2188 443490.000   2248126.7772    865685.8031   5886424.6601   1   8   0.0247   0.0234   0.0709   0.0098   0.0126   0.0308   0.00   28.6
2188 443520.000   2248126.7768    865685.8058   5886424.6630   1   8   0.0247   0.0234   0.0711   0.0099   0.0126   0.0308   0.00   29.3
2188 443550.000   2248126.7779    865685.8042   5886424.6632   1   8   0.0247   0.0234   0.0712   0.0099   0.0125   0.0309   0.00   29.9
2188 443580.000   2248126.7755    865685.8022   5886424.6645   1   8   0.0247   0.0235   0.0714   0.0100   0.0125   0.0309   0.00   30.2
2188 443610.000   2248126.7749    865685.8031   5886424.6535   1   9   0.0249   0.0236   0.0761   0.0104   0.0147   0.0321   0.00   30.7
2188 443640.000   2248126.7762    865685.8060   5886424.6574   1   9   0.0248   0.0235   0.0720   0.0101   0.0125   0.0311   0.00   31.1
2188 443670.000   2248126.7780    865685.8044   5886424.6586   1   9   0.0247   0.0235   0.0706   0.0100   0.0116   0.0307   0.00   31.6
2188 443700.000   2248126.7796    865685.8037   5886424.6568   1   9   0.0247   0.0235   0.0699   0.0100   0.0111   0.0306   0.00   32.2
2188 443730.000   2248126.7802    865685.8049   5886424.6569   1   9   0.0247   0.0235   0.0694   0.0100   0.0107   0.0305   0.00   32.9
2188 443760.000   2248126.7850    865685.8056   5886424.6672   1   9   0.0247   0.0235   0.0692   0.0101   0.0104   0.0304   0.00   33.7
2188 443790.000   2248126.7781    865685.8041   5886424.6590   1   9   0.0247   0.0236   0.0690   0.0101   0.0101   0.0304   0.00   34.2
2188 443820.000   2248126.7762    865685.8025   5886424.6629   1   9   0.0247   0.0236   0.0689   0.0101   0.0099   0.0304   0.00   34.8
2188 443850.000   2248126.7799    865685.8039   5886424.6690   1   9   0.0247   0.0236   0.0688   0.0102   0.0097   0.0303   0.00   35.4
2188 443880.000   2248126.7775    865685.8023   5886424.6612   1   9   0.0247   0.0236   0.0687   0.0102   0.0095   0.0303   0.00   35.9
2188 443910.000   2248126.7756    865685.8011   5886424.6597   1   9   0.0247   0.0237   0.0687   0.0103   0.0093   0.0303   0.00   36.4
2188 443940.000   2248126.7740    865685.8035   5886424.6500   1   9   0.0247   0.0237   0.0686   0.0103   0.0091   0.0303   0.00   36.9
2188 443970.000   2248126.7743    865685.8018   5886424.6565   1   9   0.0247   0.0237   0.0686   0.0104   0.0089   0.0303   0.00   37.4
2188 444000.000   2248126.7726    865685.8007   5886424.6529   1   9   0.0247   0.0237   0.0686   0.0104   0.0087   0.0304   0.00   37.9
2188 444030.000   2248126.7730    865685.8017   5886424.6522   1   9   0.0247   0.0238   0.0686   0.0104   0.0085   0.0304   0.00   38.3
2188 444060.000   2248126.7729    865685.8031   5886424.6549   1   9   0.0247   0.0238   0.0686   0.0105   0.0084   0.0304   0.00   38.6
2188 444090.000   2248126.7731    865685.8022   5886424.6515   1   9   0.0247   0.0238   0.0686   0.0105   0.0082   0.0304   0.00   39.0
2188 444120.000   2248126.7741    865685.8025   5886424.6559   1   9   0.0247   0.0239   0.0686   0.0106   0.0080   0.0304   0.00   39.3
2188 444150.000   2248126.7747    865685.8033   5886424.6632   1   9   0.0247   0.0239   0.0686   0.0107   0.0078   0.0304   0.00   39.5
2188 444180.000   2248126.7776    865685.8023   5886424.6666   1   9   0.0247   0.0239   0.0686   0.0107   0.0076   0.0304   0.00   39.8
2188 444210.000   2248126.7744    865685.8010   5886424.6574   1   9   0.0247   0.0240   0.0686   0.0108   0.0075   0.0305   0.00   40.0
2188 444240.000   2248126.7737    865685.8020   5886424.6560   1   9   0.0248   0.0240   0.0686   0.0108   0.0073   0.0305   0.00   40.3
2188 444270.000   2248126.7725    865685.8032   5886424.6543   1   9   0.0248   0.0240   0.0686   0.0109   0.0071   0.0305   0.00   40.5
2188 444300.000   2248126.7760    865685.8023   5886424.6596   1   9   0.0248   0.0241   0.0686   0.0109   0.0069   0.0305   0.00   40.8
2188 444330.000   2248126.7749    865685.8032   5886424.6627   1   9   0.0248   0.0241   0.0686   0.0110   0.0068   0.0305   0.00   41.0
2188 444360.000   2248126.7751    865685.8032   5886424.6675   1   9   0.0248   0.0241   0.0686   0.0110   0.0066   0.0306   0.00   41.3
2188 444390.000   2248126.7744    865685.8022   5886424.6682   1   9   0.0248   0.0242   0.0687   0.0111   0.0064   0.0306   0.00   41.6
2188 444420.000   2248126.7744    865685.8043   5886424.6626   1   9   0.0248   0.0242   0.0687   0.0112   0.0062   0.0306   0.00   41.8
2188 444450.000   2248126.7769    865685.8042   5886424.6684   1   9   0.0248   0.0243   0.0687   0.0112   0.0061   0.0306   0.00   42.0
2188 444480.000   2248126.7738    865685.7999   5886424.6584   1   9   0.0249   0.0243   0.0687   0.0113   0.0059   0.0306   0.00   42.3
2188 444510.000   2248126.7743    865685.7997   5886424.6603   1   9   0.0248   0.0243   0.0678   0.0113   0.0047   0.0305   0.00    7.7
2188 444540.000   2248126.7722    865685.7994   5886424.6581   1   9   0.0249   0.0244   0.0678   0.0114   0.0045   0.0305   0.00    7.9
2188 444570.000   2248126.7734    865685.7986   5886424.6554   1   9   0.0249   0.0244   0.0678   0.0114   0.0043   0.0305   0.00    8.2
2188 444600.000   2248126.7773    865685.8018   5886424.6640   1   9   0.0249   0.0245   0.0678   0.0115   0.0040   0.0305   0.00    8.5
2188 444630.000   2248126.7782    865685.8027   5886424.6657   1   9   0.0249   0.0245   0.0679   0.0116   0.0038   0.0305   0.00    8.7
2188 444660.000   2248126.7753    865685.8006   5886424.6601   1   9   0.0249   0.0245   0.0679   0.0116   0.0036   0.0306   0.00    9.0
2188 444690.000   2248126.7705    865685.8002   5886424.6536   1   9   0.0249   0.0246   0.0679   0.0117   0.0034   0.0306   0.00    9.3
2188 444720.000   2248126.7733    865685.8006   5886424.6561   1   9   0.0250   0.0246   0.0679   0.0118   0.0032   0.0306   0.00    9.6
2188 444750.000   2248126.7738    865685.8012   5886424.6536   1   9   0.0250   0.0247   0.0679   0.0118   0.0030   0.0306   0.00    9.9
2188 444780.000   2248126.7729    865685.8012   5886424.6420   1   9   0.0250   0.0247   0.0679   0.0119   0.0027   0.0307   0.00   10.2
2188 444810.000   2248126.7708    865685.7984   5886424.6365   1   9   0.0248   0.0247   0.0671   0.0121   0.0043   0.0301   0.00   10.5
2188 444840.000   2248126.7757    865685.8007   5886424.6487   1   9   0.0247   0.0248   0.0667   0.0123   0.0047   0.0299   0.00   10.8
