% program   : RTKPOST ver.2.4.3 b34
% inp file  : E:\GAMPII-GOOD\dataset_Win\obs\2021\351\MGEX\daily\kir83510.21o
% inp file  : E:\GAMPII-GOOD\dataset_Win\obs\2021\351\MGEX\daily\kiru3510.21o
% inp file  : E:\Navigation_Learn\GNSS\RTKLIB-b34k\data\data_IGM-A1_Vehicle_open_20211217-nsh\brdm3510.21p
% obs start : 2021/12/17 00:00:00.0 GPST (week2188 432000.0s)
% obs end   : 2021/12/17 23:59:30.0 GPST (week2188 518370.0s)
% pos mode  : Kinematic
% freqs     : L1+2
% solution  : Forward
% elev mask : 7.0 deg
% dynamics  : off
% tidecorr  : off
% ionos opt : Broadcast
% tropo opt : Saastamoinen
% ephemeris : Broadcast
% navi sys  : GPS
% amb res   : Continuous
% val thres : 3.0
% antenna1  : LEIAR25.R3      LEIT  ( 0.0000  0.0000  0.0030)
% antenna2  : SEPCHOKE_B3E6   SPKE  ( 0.0000  0.0000  0.0620)
% ref pos   :  2251420.5134    862817.4143   5885476.8935
%
% (x/y/z-ecef=WGS84,Q=1:fix,2:float,3:sbas,4:dgps,5:single,6:ppp,ns=# of satellites)
%  GPST              x-ecef(m)      y-ecef(m)      z-ecef(m)   Q  ns   sdx(m)   sdy(m)   sdz(m)  sdxy(m)  sdyz(m)  sdzx(m) age(s)  ratio
2188 432000.000   2248126.7803    865685.8052   5886424.6784   1   9   0.0057   0.0037   0.0176   0.0014   0.0026   0.0084   0.00   10.3
2188 432030.000   2248126.7775    865685.8027   5886424.6704   1   9   0.0059   0.0040   0.0175   0.0018   0.0025   0.0083   0.00   11.4
2188 432060.000   2248126.7819    865685.8091   5886424.6916   1   9   0.0055   0.0039   0.0173   0.0016   0.0026   0.0082   0.00   17.9
2188 432090.000   2248126.7717    865685.8009   5886424.6585   1   9   0.0053   0.0037   0.0172   0.0011   0.0026   0.0081   0.00   20.1
2188 432120.000   2248126.7770    865685.7996   5886424.6761   1   9   0.0057   0.0034   0.0170   0.0019   0.0026   0.0081   0.00   23.8
2188 432150.000   2248126.7757    865685.8007   5886424.6690   1   9   0.0056   0.0038   0.0169   0.0001   0.0026   0.0080   0.00   26.8
2188 432180.000   2248126.7764    865685.8015   5886424.6655   1   9   0.0055   0.0036   0.0167   0.0012   0.0025   0.0079   0.00   26.7
2188 432210.000   2248126.7817    865685.8000   5886424.6900   1   9   0.0056   0.0036   0.0166   0.0016   0.0026   0.0078   0.00   28.4
2188 432240.000   2248126.7864    865685.8066   5886424.7001   1   9   0.0054   0.0038   0.0165   0.0014   0.0028   0.0078   0.00   29.0
2188 432270.000   2248126.7806    865685.8015   5886424.6966   1   9   0.0052   0.0041   0.0163   0.0013   0.0025   0.0077   0.00   34.1
2188 432300.000   2248126.7848    865685.8047   5886424.7066   1   9   0.0054   0.0039   0.0162   0.0020   0.0027   0.0077   0.00   39.3
2188 432330.000   2248126.7770    865685.8036   5886424.6872   1   9   0.0054   0.0041   0.0160   0.0017   0.0026   0.0075   0.00   43.8
2188 432360.000   2248126.7742    865685.7996   5886424.6714   1   9   0.0052   0.0038   0.0159   0.0010   0.0028   0.0074   0.00   41.8
2188 432390.000   2248126.7788    865685.8039   5886424.6824   1   9   0.0055   0.0033   0.0158   0.0016   0.0026   0.0073   0.00   41.7
2188 432420.000   2248126.7838    865685.8053   5886424.6894   1   9   0.0053   0.0032   0.0156   0.0012   0.0026   0.0073   0.00   43.8
2188 432450.000   2248126.7764    865685.8068   5886424.6747   1   9   0.0053   0.0036   0.0155   0.0009   0.0026   0.0072   0.00   46.1
2188 432480.000   2248126.7795    865685.8068   5886424.6825   1   9   0.0056   0.0037   0.0154   0.0015   0.0027   0.0070   0.00   49.7
2188 432510.000   2248126.7788    865685.8067   5886424.6760   1   9   0.0049   0.0037   0.0153   0.0017   0.0026   0.0070   0.00   51.9
2188 432540.000   2248126.7784    865685.8053   5886424.6797   1   9   0.0049   0.0043   0.0152   0.0012   0.0029   0.0070   0.00   52.7
2188 432570.000   2248126.7814    865685.8048   5886424.6851   1   9   0.0053   0.0038   0.0150   0.0020   0.0029   0.0068   0.00   52.5
2188 432600.000   2248126.7809    865685.8037   5886424.6827   1   9   0.0051   0.0034   0.0149   0.0018   0.0026   0.0067   0.00   53.5
2188 432630.000   2248126.7783    865685.8043   5886424.6783   1   9   0.0051   0.0035   0.0148   0.0008   0.0027   0.0068   0.00   56.8
2188 432660.000   2248126.7818    865685.7988   5886424.6878   1   9   0.0051   0.0038   0.0147   0.0015   0.0026   0.0067   0.00   60.0
2188 432690.000   2248126.7819    865685.7992   5886424.6852   1   9   0.0050   0.0037   0.0146   0.0018   0.0027   0.0066   0.00   66.4
2188 432720.000   2248126.7797    865685.8017   5886424.6854   1   9   0.0052   0.0037   0.0145   0.0020   0.0027   0.0065   0.00   73.0
2188 432750.000   2248126.7812    865685.8004   5886424.6876   1   9   0.0051   0.0043   0.0144   0.0015   0.0029   0.0064   0.00   70.5
2188 432780.000   2248126.7764    865685.8034   5886424.6730   1   9   0.0051   0.0037   0.0143   0.0010   0.0027   0.0064   0.00   71.4
2188 432810.000   2248126.7747    865685.8012   5886424.6683   1   9   0.0047   0.0034   0.0142   0.0010   0.0026   0.0063   0.00   73.2
2188 432840.000   2248126.7732    865685.7969   5886424.6508   1   9   0.0048   0.0042   0.0141   0.0013   0.0028   0.0062   0.00   74.5
2188 432870.000   2248126.7775    865685.8001   5886424.6681   1   9   0.0050   0.0041   0.0140   0.0011   0.0028   0.0061   0.00   79.6
2188 432900.000   2248126.7768    865685.7980   5886424.6681   1   9   0.0050   0.0035   0.0139  -0.0001   0.0027   0.0060   0.00   81.0
2188 432930.000   2248126.7737    865685.7987   5886424.6653   1   9   0.0050   0.0045   0.0138   0.0013   0.0027   0.0060   0.00   80.4
2188 432960.000   2248126.7803    865685.8001   5886424.6714   1   9   0.0047   0.0046   0.0137   0.0017   0.0028   0.0060   0.00   80.7
2188 432990.000   2248126.7755    865685.8026   5886424.6541   1   9   0.0047   0.0036   0.0137   0.0005   0.0027   0.0058   0.00   79.1
2188 433020.000   2248126.7725    865685.8006   5886424.6452   1   9   0.0050   0.0037   0.0136   0.0012   0.0025   0.0058   0.00   78.0
2188 433050.000   2248126.7759    865685.8040   5886424.6586   1   9   0.0053   0.0038   0.0135   0.0024   0.0027   0.0058   0.00   77.9
2188 433080.000   2248126.7694    865685.8021   5886424.6505   1   9   0.0050   0.0040   0.0134   0.0014   0.0028   0.0056   0.00   77.9
2188 433110.000   2248126.7636    865685.8001   5886424.6417   1   9   0.0050   0.0029   0.0133   0.0012   0.0025   0.0056   0.00   78.0
2188 433140.000   2248126.7720    865685.8016   5886424.6549   1   9   0.0049   0.0040   0.0132   0.0008   0.0027   0.0056   0.00   78.3
2188 433170.000   2248126.7694    865685.8004   5886424.6560   1   9   0.0050   0.0042   0.0132   0.0022   0.0028   0.0056   0.00   73.9
2188 433200.000   2248126.7745    865685.8063   5886424.6517   1   9   0.0050   0.0046   0.0132   0.0018   0.0028   0.0054   0.00   73.3
2188 433230.000   2248126.7688    865685.8051   5886424.6400   1  10   0.0048   0.0048   0.0131   0.0017   0.0030   0.0054   0.00   72.9
2188 433260.000   2248126.7697    865685.8037   5886424.6402   1  10   0.0049   0.0044   0.0126   0.0014   0.0020   0.0053   0.00   71.3
2188 433290.000   2248126.7718    865685.8047   5886424.6407   1  10   0.0050   0.0037   0.0124   0.0005   0.0019   0.0052   0.00   73.6
2188 433320.000   2248126.7732    865685.8070   5886424.6495   1  10   0.0046   0.0041   0.0123   0.0014   0.0020   0.0050   0.00   76.0
2188 433350.000   2248126.7814    865685.8082   5886424.6577   1  10   0.0047   0.0041   0.0122   0.0016   0.0017   0.0051   0.00   79.8
2188 433380.000   2248126.7777    865685.8061   5886424.6544   1  10   0.0048   0.0041   0.0122   0.0017   0.0017   0.0049   0.00   80.7
2188 433410.000   2248126.7782    865685.8056   5886424.6625   1  10   0.0048   0.0036   0.0120   0.0011   0.0010   0.0051   0.00   84.5
2188 433440.000   2248126.7816    865685.8104   5886424.6673   1  10   0.0050   0.0043   0.0120   0.0014   0.0018   0.0048   0.00   94.4
2188 433470.000   2248126.7772    865685.8045   5886424.6482   1  10   0.0047   0.0047   0.0120   0.0019   0.0016   0.0047   0.00   98.4
2188 433500.000   2248126.7778    865685.8045   5886424.6617   1  10   0.0046   0.0034   0.0119   0.0013   0.0016   0.0048   0.00  102.7
2188 433530.000   2248126.7751    865685.8053   5886424.6700   1  10   0.0047   0.0046   0.0118   0.0020   0.0017   0.0048   0.00  106.9
2188 433560.000   2248126.7784    865685.8083   5886424.6756   1  10   0.0049   0.0045   0.0118   0.0016   0.0013   0.0047   0.00  109.9
2188 433590.000   2248126.7799    865685.8014   5886424.6682   1  10   0.0048   0.0036   0.0117   0.0005   0.0011   0.0046   0.00  109.8
2188 433620.000   2248126.7767    865685.8058   5886424.6779   1  10   0.0049   0.0041   0.0117   0.0004   0.0011   0.0046   0.00  113.4
2188 433650.000   2248126.7839    865685.8128   5886424.6747   1  10   0.0047   0.0039   0.0116  -0.0009   0.0014   0.0046   0.00  115.0
2188 433680.000   2248126.7816    865685.8113   5886424.6759   1  10   0.0046   0.0041   0.0116   0.0015   0.0013   0.0045   0.00  118.1
2188 433710.000   2248126.7813    865685.8100   5886424.6634   1  10   0.0046   0.0044   0.0116   0.0011   0.0017   0.0045   0.00  117.9
2188 433740.000   2248126.7837    865685.8106   5886424.6689   1  10   0.0047   0.0034   0.0115   0.0014   0.0009   0.0043   0.00  122.5
2188 433770.000   2248126.7838    865685.8120   5886424.6712   1  10   0.0046   0.0045   0.0115   0.0020   0.0016   0.0044   0.00  125.9
2188 433800.000   2248126.7827    865685.8082   5886424.6604   1  10   0.0047   0.0048   0.0115   0.0019   0.0014   0.0043   0.00  125.9
2188 433830.000   2248126.7827    865685.8074   5886424.6657   1  10   0.0047   0.0039   0.0114   0.0020  -0.0004   0.0044   0.00  128.0
2188 433860.000   2248126.7761    865685.8111   5886424.6654   1  10   0.0048   0.0043   0.0115   0.0014   0.0013   0.0040   0.00  133.8
2188 433890.000   2248126.7745    865685.8101   5886424.6631   1  10   0.0046   0.0044   0.0114   0.0017  -0.0008   0.0042   0.00  138.5
2188 433920.000   2248126.7726    865685.8150   5886424.6628   1  10   0.0049   0.0037   0.0114  -0.0011   0.0011   0.0041   0.00  144.8
2188 433950.000   2248126.7790    865685.8175   5886424.6586   1  10   0.0048   0.0041   0.0114   0.0011   0.0008   0.0041   0.00  143.3
2188 433980.000   2248126.7746    865685.8123   5886424.6663   1  10   0.0049   0.0047   0.0114   0.0014   0.0009   0.0041   0.00  139.6
2188 434010.000   2248126.7730    865685.8160   5886424.6686   1  10   0.0045   0.0038   0.0114   0.0017   0.0013   0.0040   0.00  145.1
2188 434040.000   2248126.7720    865685.8115   5886424.6685   1  10   0.0046   0.0043   0.0114   0.0007   0.0010   0.0039   0.00  150.1
2188 434070.000   2248126.7725    865685.8134   5886424.6501   1  10   0.0047   0.0041   0.0114   0.0021   0.0006   0.0039   0.00  156.5
2188 434100.000   2248126.7753    865685.8063   5886424.6749   1  10   0.0047   0.0041   0.0113   0.0009  -0.0009   0.0039   0.00  161.1
2188 434130.000   2248126.7773    865685.8037   5886424.6685   1  10   0.0049   0.0044   0.0113   0.0010  -0.0005   0.0039   0.00   18.9
2188 434160.000   2248126.7814    865685.8057   5886424.6652   1  10   0.0044   0.0039   0.0113   0.0022  -0.0011   0.0038   0.00   20.9
2188 434190.000   2248126.7810    865685.8086   5886424.6527   1  10   0.0044   0.0038   0.0113   0.0019   0.0012   0.0037   0.00   22.8
2188 434220.000   2248126.7817    865685.8129   5886424.6507   1  10   0.0049   0.0045   0.0113   0.0011  -0.0015   0.0035   0.00   24.5
2188 434250.000   2248126.7715    865685.8082   5886424.6562   1  10   0.0049   0.0044   0.0113   0.0014  -0.0012   0.0036   0.00   26.8
2188 434280.000   2248126.7687    865685.8053   5886424.6414   1  10   0.0047   0.0040   0.0114   0.0018  -0.0008   0.0034   0.00   28.7
2188 434310.000   2248126.7770    865685.8046   5886424.6561   1  10   0.0051   0.0042   0.0113   0.0006  -0.0017   0.0036   0.00   30.7
2188 434340.000   2248126.7632    865685.8002   5886424.6570   1  10   0.0049   0.0044   0.0114   0.0018  -0.0009   0.0035   0.00   32.0
2188 434370.000   2248126.7769    865685.7990   5886424.6533   1  10   0.0047   0.0044   0.0114   0.0018  -0.0010   0.0034   0.00   33.2
2188 434400.000   2248126.7816    865685.8027   5886424.6574   1  10   0.0047   0.0041   0.0114   0.0025  -0.0012   0.0031   0.00   34.6
2188 434430.000   2248126.7771    865685.8038   5886424.6531   1  10   0.0048   0.0045   0.0115   0.0014  -0.0021   0.0035   0.00   36.8
2188 434460.000   2248126.7763    865685.8052   5886424.6437   1  10   0.0049   0.0046   0.0114   0.0012  -0.0019   0.0036   0.00   38.8
2188 434490.000   2248126.7731    865685.8027   5886424.6620   1  10   0.0048   0.0048   0.0115   0.0013  -0.0022   0.0031   0.00   40.3
2188 434520.000   2248126.7724    865685.8025   5886424.6624   1  10   0.0050   0.0041   0.0115   0.0019  -0.0015   0.0032   0.00   42.3
2188 434550.000   2248126.7585    865685.8032   5886424.6576   1  10   0.0049   0.0046   0.0116   0.0023  -0.0019   0.0031   0.00   43.4
2188 434580.000   2248126.7654    865685.8053   5886424.6613   1  10   0.0052   0.0040   0.0116   0.0020  -0.0016   0.0030   0.00   44.6
2188 434610.000   2248126.7647    865685.7993   5886424.6577   1  10   0.0051   0.0046   0.0118   0.0023  -0.0019   0.0032   0.00   46.2
2188 434640.000   2248126.7711    865685.8070   5886424.6542   1  10   0.0050   0.0047   0.0119   0.0012  -0.0022   0.0032   0.00   45.7
2188 434670.000   2248126.7765    865685.8054   5886424.6512   1  10   0.0049   0.0046   0.0118   0.0014  -0.0019   0.0031   0.00   46.0
2188 434700.000   2248126.7807    865685.8039   5886424.6540   1  10   0.0048   0.0044   0.0119   0.0022  -0.0018   0.0030   0.00   46.9
2188 434730.000   2248126.7861    865685.8056   5886424.6534   1  10   0.0046   0.0044   0.0120   0.0020  -0.0022   0.0027   0.00   48.0
2188 434760.000   2248126.7913    865685.8056   5886424.6542   1  10   0.0048   0.0047   0.0120   0.0016  -0.0025   0.0027   0.00   49.2
2188 434790.000   2248126.7927    865685.8101   5886424.6574   1  10   0.0049   0.0048   0.0121   0.0015  -0.0023   0.0027   0.00   49.0
2188 434820.000   2248126.7806    865685.8081   5886424.6522   1  10   0.0049   0.0048   0.0133   0.0009  -0.0028   0.0019   0.00   51.0
2188 434850.000   2248126.7835    865685.8130   5886424.6607   1  10   0.0049   0.0046   0.0134   0.0022  -0.0023   0.0016   0.00   51.3
2188 434880.000   2248126.7771    865685.7998   5886424.6595   1  10   0.0047   0.0047   0.0135   0.0020  -0.0027   0.0014   0.00   51.5
2188 434910.000   2248126.7737    865685.8048   5886424.6463   1  10   0.0049   0.0047   0.0135   0.0020  -0.0031   0.0013   0.00   53.2
2188 434940.000   2248126.7749    865685.8058   5886424.6429   1  10   0.0048   0.0048   0.0136   0.0018  -0.0031   0.0010   0.00   55.2
2188 434970.000   2248126.7780    865685.8001   5886424.6638   1  10   0.0049   0.0043   0.0137   0.0015  -0.0032   0.0013   0.00   55.7
2188 435000.000   2248126.7785    865685.8063   5886424.6458   1  10   0.0048   0.0043   0.0138   0.0025  -0.0028  -0.0003   0.00   57.9
2188 435030.000   2248126.7756    865685.8040   5886424.6456   1  10   0.0049   0.0049   0.0139   0.0017  -0.0034  -0.0004   0.00   59.2
2188 435060.000   2248126.7764    865685.8033   5886424.6524   1  10   0.0049   0.0042   0.0140   0.0023  -0.0031  -0.0009   0.00   60.1
2188 435090.000   2248126.7773    865685.8079   5886424.6504   1  10   0.0048   0.0044   0.0141   0.0026  -0.0033  -0.0014   0.00   60.3
2188 435120.000   2248126.7787    865685.8078   5886424.6565   1   9   0.0049   0.0049   0.0158   0.0022  -0.0039  -0.0028   0.00   59.0
2188 435150.000   2248126.7728    865685.8064   5886424.6742   1   9   0.0051   0.0045   0.0159   0.0018  -0.0037  -0.0028   0.00   60.8
2188 435180.000   2248126.7720    865685.8058   5886424.6855   1   9   0.0047   0.0044   0.0160   0.0028  -0.0040  -0.0029   0.00   60.8
2188 435210.000   2248126.7663    865685.8062   5886424.6728   1   9   0.0050   0.0044   0.0161   0.0028  -0.0041  -0.0030   0.00   61.9
2188 435240.000   2248126.7631    865685.8024   5886424.6589   1   9   0.0047   0.0041   0.0162   0.0025  -0.0041  -0.0030   0.00   62.4
2188 435270.000   2248126.7696    865685.8048   5886424.6651   1   9   0.0050   0.0045   0.0163   0.0022  -0.0043  -0.0031   0.00   62.0
2188 435300.000   2248126.7753    865685.8048   5886424.6679   1   9   0.0052   0.0048   0.0164   0.0027  -0.0044  -0.0032   0.00   60.1
2188 435330.000   2248126.7719    865685.8023   5886424.6625   1   9   0.0051   0.0045   0.0166   0.0023  -0.0047  -0.0032   0.00   60.0
2188 435360.000   2248126.7716    865685.7994   5886424.6654   1   9   0.0052   0.0048   0.0167   0.0025  -0.0047  -0.0034   0.00   59.6
2188 435390.000   2248126.7575    865685.8004   5886424.6591   1   9   0.0050   0.0044   0.0168   0.0030  -0.0047  -0.0035   0.00   60.0
2188 435420.000   2248126.7621    865685.8004   5886424.6515   1   9   0.0052   0.0043   0.0170   0.0031  -0.0048  -0.0035   0.00   62.3
2188 435450.000   2248126.7685    865685.8050   5886424.6562   1   9   0.0051   0.0046   0.0171   0.0026  -0.0049  -0.0037   0.00   62.4
2188 435480.000   2248126.7719    865685.8098   5886424.6614   1   9   0.0052   0.0047   0.0173   0.0025  -0.0053  -0.0037   0.00   61.6
2188 435510.000   2248126.7758    865685.8059   5886424.6571   1   9   0.0047   0.0043   0.0174   0.0029  -0.0052  -0.0038   0.00   11.1
2188 435540.000   2248126.7736    865685.8002   5886424.6587   1   9   0.0046   0.0046   0.0176   0.0029  -0.0053  -0.0039   0.00   11.1
2188 435570.000   2248126.7722    865685.7975   5886424.6430   1   9   0.0050   0.0050   0.0177   0.0022  -0.0055  -0.0039   0.00   11.8
2188 435600.000   2248126.7725    865685.8050   5886424.6527   1   9   0.0049   0.0051   0.0179   0.0025  -0.0056  -0.0041   0.00   12.2
2188 435630.000   2248126.7766    865685.8056   5886424.6517   1   9   0.0050   0.0050   0.0181   0.0023  -0.0057  -0.0041   0.00   12.6
2188 435660.000   2248126.7742    865685.8078   5886424.6614   1   9   0.0050   0.0047   0.0183   0.0029  -0.0057  -0.0042   0.00   13.0
2188 435690.000   2248126.7616    865685.8114   5886424.6340   1   9   0.0051   0.0050   0.0185   0.0025  -0.0060  -0.0043   0.00   14.3
2188 435720.000   2248126.7543    865685.8057   5886424.6213   1   9   0.0051   0.0050   0.0187   0.0029  -0.0060  -0.0044   0.00   15.4
2188 435750.000   2248126.7634    865685.8006   5886424.6603   1   9   0.0053   0.0049   0.0190   0.0026  -0.0063  -0.0045   0.00   15.6
2188 435780.000   2248126.7616    865685.8040   5886424.6646   1   9   0.0052   0.0053   0.0192   0.0032  -0.0062  -0.0045   0.00   15.8
2188 435810.000   2248126.7621    865685.8000   5886424.6418   1   9   0.0055   0.0049   0.0194   0.0029  -0.0064  -0.0046   0.00   16.7
2188 435840.000   2248126.7618    865685.8044   5886424.6618   1   9   0.0052   0.0054   0.0197   0.0030  -0.0066  -0.0047   0.00   17.1
2188 435870.000   2248126.7785    865685.8035   5886424.6686   1   9   0.0054   0.0050   0.0200   0.0028  -0.0066  -0.0048   0.00   18.0
2188 435900.000   2248126.7756    865685.7993   5886424.6790   1   9   0.0053   0.0052   0.0202   0.0030  -0.0068  -0.0049   0.00   18.1
2188 435930.000   2248126.7747    865685.7912   5886424.6497   1   9   0.0050   0.0053   0.0206   0.0034  -0.0067  -0.0047   0.00   20.3
2188 435960.000   2248126.7704    865685.7920   5886424.6799   1   9   0.0056   0.0054   0.0209   0.0035  -0.0069  -0.0049   0.00   21.0
2188 435990.000   2248126.7707    865685.7924   5886424.7025   1   9   0.0055   0.0055   0.0212   0.0034  -0.0071  -0.0050   0.00   21.4
2188 436020.000   2248126.7761    865685.7931   5886424.6905   1   9   0.0058   0.0052   0.0216   0.0033  -0.0072  -0.0049   0.00   22.9
2188 436050.000   2248126.7871    865685.7977   5886424.6669   1   9   0.0056   0.0056   0.0219   0.0033  -0.0073  -0.0051   0.00   23.1
2188 436080.000   2248126.7813    865685.7941   5886424.6560   1   9   0.0056   0.0057   0.0223   0.0037  -0.0075  -0.0052   0.00   24.0
2188 436110.000   2248126.7743    865685.7984   5886424.6932   1   9   0.0055   0.0055   0.0226   0.0033  -0.0078  -0.0054   0.00   24.3
2188 436140.000   2248126.7728    865685.7934   5886424.6923   1   9   0.0056   0.0055   0.0229   0.0033  -0.0080  -0.0056   0.00   24.5
2188 436170.000   2248126.7820    865685.7889   5886424.6465   1   9   0.0054   0.0058   0.0233   0.0037  -0.0082  -0.0057   0.00   26.2
2188 436200.000   2248126.7887    865685.7950   5886424.6549   1   9   0.0053   0.0057   0.0237   0.0041  -0.0084  -0.0058   0.00   27.1
2188 436230.000   2248126.7893    865685.7975   5886424.6112   1   8   0.0056   0.0059   0.0244   0.0036  -0.0084  -0.0057   0.00   29.1
2188 436260.000   2248126.7927    865685.8026   5886424.5948   1   8   0.0058   0.0058   0.0248   0.0037  -0.0086  -0.0059   0.00   30.6
2188 436290.000   2248126.7918    865685.8009   5886424.6107   1   8   0.0058   0.0056   0.0253   0.0038  -0.0089  -0.0060   0.00   31.9
2188 436320.000   2248126.7867    865685.8046   5886424.6169   1   8   0.0055   0.0062   0.0259   0.0034  -0.0090  -0.0061   0.00   34.2
2188 436350.000   2248126.7797    865685.8027   5886424.6456   1   7   0.0058   0.0073   0.0367   0.0042  -0.0138  -0.0080   0.00   36.5
2188 436380.000   2248126.7764    865685.8007   5886424.6873   1   7   0.0059   0.0075   0.0375   0.0044  -0.0140  -0.0082   0.00   37.7
2188 436410.000   2248126.7853    865685.7984   5886424.6879   1   8   0.0059   0.0076   0.0383   0.0043  -0.0143  -0.0084   0.00   38.5
2188 436440.000   2248126.7876    865685.8047   5886424.6781   1   9   0.0056   0.0068   0.0314   0.0038  -0.0114  -0.0065   0.00   38.7
2188 436470.000   2248126.7799    865685.7975   5886424.6830   1   9   0.0054   0.0064   0.0285   0.0036  -0.0103  -0.0058   0.00   38.9
2188 436500.000   2248126.7832    865685.7889   5886424.6822   1   9   0.0055   0.0060   0.0269   0.0036  -0.0096  -0.0054   0.00   38.7
2188 436530.000   2248126.7747    865685.7880   5886424.6924   1   9   0.0055   0.0056   0.0259   0.0034  -0.0092  -0.0051   0.00   37.9
2188 436560.000   2248126.7803    865685.7936   5886424.7150   1   8   0.0054   0.0054   0.0251   0.0033  -0.0088  -0.0047   0.00   49.8
2188 436590.000   2248126.7785    865685.7951   5886424.7309   1   8   0.0058   0.0056   0.0245   0.0035  -0.0085  -0.0045   0.00   50.1
2188 436620.000   2248126.7814    865685.7962   5886424.7227   1   8   0.0055   0.0059   0.0240   0.0033  -0.0082  -0.0043   0.00   50.6
2188 436650.000   2248126.7693    865685.7904   5886424.7038   1   8   0.0055   0.0054   0.0236   0.0031  -0.0080  -0.0041   0.00   48.3
2188 436680.000   2248126.7779    865685.7917   5886424.7016   1   8   0.0055   0.0055   0.0232   0.0034  -0.0078  -0.0040   0.00   47.8
2188 436710.000   2248126.7726    865685.7928   5886424.7209   1   8   0.0056   0.0049   0.0228   0.0034  -0.0077  -0.0038   0.00   48.3
2188 436740.000   2248126.7810    865685.7986   5886424.7354   1   8   0.0056   0.0059   0.0225   0.0033  -0.0074  -0.0037   0.00   47.4
2188 436770.000   2248126.7822    865685.7980   5886424.7162   1   7   0.0057   0.0057   0.0225   0.0032  -0.0071  -0.0032   0.00   47.0
2188 436800.000   2248126.7776    865685.7969   5886424.7118   1   7   0.0056   0.0058   0.0222   0.0031  -0.0069  -0.0030   0.00   48.9
2188 436830.000   2248126.7853    865685.7993   5886424.6955   1   7   0.0056   0.0050   0.0219   0.0032  -0.0068  -0.0028   0.00   50.0
2188 436860.000   2248126.7928    865685.8054   5886424.6822   1   7   0.0055   0.0054   0.0217   0.0028  -0.0066  -0.0027   0.00   50.4
2188 436890.000   2248126.7799    865685.8043   5886424.7002   1   7   0.0054   0.0054   0.0215   0.0032  -0.0065  -0.0025   0.00   50.7
2188 436920.000   2248126.7806    865685.8012   5886424.7022   1   7   0.0054   0.0052   0.0213   0.0030  -0.0063  -0.0024   0.00   52.2
2188 436950.000   2248126.7768    865685.7931   5886424.6988   1   7   0.0056   0.0049   0.0211   0.0033  -0.0062  -0.0021   0.00   57.8
2188 436980.000   2248126.7730    865685.7922   5886424.7163   1   7   0.0057   0.0053   0.0209   0.0031  -0.0060  -0.0020   0.00   65.4
2188 437010.000   2248126.7710    865685.7832   5886424.7241   1   7   0.0053   0.0047   0.0207   0.0027  -0.0060  -0.0018   0.00   72.9
2188 437040.000   2248126.7659    865685.7769   5886424.7359   1   7   0.0056   0.0054   0.0205   0.0026  -0.0057  -0.0017   0.00   80.2
2188 437070.000   2248126.7724    865685.7798   5886424.7421   1   7   0.0055   0.0051   0.0204   0.0033  -0.0056  -0.0014   0.00   82.2
2188 437100.000   2248126.7731    865685.7804   5886424.7410   1   7   0.0054   0.0049   0.0202   0.0031  -0.0056  -0.0012   0.00   88.3
2188 437130.000   2248126.7779    865685.7833   5886424.7388   1   7   0.0056   0.0056   0.0201   0.0028  -0.0053  -0.0009   0.00   96.1
2188 437160.000   2248126.7818    865685.7969   5886424.7435   1   7   0.0055   0.0053   0.0199   0.0027  -0.0052   0.0001   0.00  101.1
2188 437190.000   2248126.7877    865685.8017   5886424.7344   1   7   0.0053   0.0051   0.0198   0.0029  -0.0051   0.0009   0.00  106.9
2188 437220.000   2248126.7808    865685.7999   5886424.7480   1   7   0.0055   0.0054   0.0196   0.0027  -0.0048   0.0012   0.00  112.1
2188 437250.000   2248126.7772    865685.8000   5886424.7430   1   7   0.0054   0.0051   0.0195   0.0030  -0.0048   0.0014   0.00  114.8
2188 437280.000   2248126.7786    865685.7997   5886424.7432   1   7   0.0055   0.0046   0.0193   0.0030  -0.0047   0.0017   0.00  120.4
2188 437310.000   2248126.7763    865685.8054   5886424.6611   1   7   0.0054   0.0051   0.0164   0.0027  -0.0028   0.0027   0.00    3.4
2188 437340.000   2248126.7702    865685.8021   5886424.6622   1   7   0.0054   0.0051   0.0163   0.0028  -0.0026   0.0028   0.00    3.5
2188 437370.000   2248126.7692    865685.7945   5886424.6358   1   7   0.0053   0.0052   0.0162   0.0027  -0.0024   0.0028   0.00    3.6
2188 437400.000   2248126.7816    865685.8038   5886424.6344   1   7   0.0054   0.0051   0.0161   0.0031  -0.0023   0.0029   0.00    4.1
2188 437430.000   2248126.7850    865685.8119   5886424.6543   1   7   0.0054   0.0047   0.0160   0.0026  -0.0023   0.0031   0.00    4.7
2188 437460.000   2248126.7742    865685.8062   5886424.6650   1   7   0.0053   0.0040   0.0159   0.0027  -0.0021   0.0031   0.00    5.1
2188 437490.000   2248126.7733    865685.8037   5886424.6676   1   7   0.0054   0.0049   0.0158   0.0026  -0.0017   0.0032   0.00    5.7
2188 437520.000   2248126.7765    865685.8044   5886424.6681   1   7   0.0055   0.0051   0.0157   0.0023  -0.0013   0.0033   0.00    6.4
2188 437550.000   2248126.7780    865685.8051   5886424.6718   1   7   0.0054   0.0044   0.0156   0.0028  -0.0012   0.0034   0.00    6.9
2188 437580.000   2248126.7767    865685.7986   5886424.6643   1   7   0.0055   0.0050   0.0156   0.0028   0.0005   0.0034   0.00    7.5
2188 437610.000   2248126.7740    865685.7992   5886424.6679   1   7   0.0054   0.0052   0.0155   0.0026   0.0009   0.0034   0.00    7.9
2188 437640.000   2248126.7854    865685.8073   5886424.6749   1   7   0.0055   0.0050   0.0155   0.0026   0.0010   0.0034   0.00    8.8
2188 437670.000   2248126.7837    865685.8106   5886424.6671   1   7   0.0055   0.0052   0.0154   0.0031   0.0015   0.0037   0.00    9.7
2188 437700.000   2248126.7758    865685.8059   5886424.6678   1   7   0.0054   0.0040   0.0153   0.0031   0.0012   0.0036   0.00    9.8
2188 437730.000   2248126.7737    865685.8021   5886424.6779   1   7   0.0054   0.0047   0.0152   0.0027   0.0018   0.0036   0.00    9.7
2188 437760.000   2248126.7751    865685.8076   5886424.6811   1   7   0.0053   0.0048   0.0152   0.0024   0.0019   0.0037   0.00    9.9
2188 437790.000   2248126.7733    865685.8058   5886424.6797   1   8   0.0053   0.0044   0.0152   0.0026   0.0021   0.0038   0.00   10.3
2188 437820.000   2248126.7683    865685.8002   5886424.6700   1   8   0.0055   0.0050   0.0150   0.0029   0.0024   0.0036   0.00   11.0
2188 437850.000   2248126.7722    865685.8014   5886424.6595   1   9   0.0054   0.0055   0.0148   0.0025   0.0030   0.0033   0.00   12.0
2188 437880.000   2248126.7713    865685.8001   5886424.6664   1   9   0.0052   0.0047   0.0142   0.0026   0.0020   0.0032   0.00   12.8
2188 437910.000   2248126.7708    865685.8042   5886424.6710   1   9   0.0054   0.0041   0.0137   0.0028   0.0008   0.0030   0.00   13.6
2188 437940.000   2248126.7709    865685.8029   5886424.6722   1   9   0.0052   0.0044   0.0135   0.0033   0.0009   0.0031   0.00   14.2
2188 437970.000   2248126.7685    865685.8020   5886424.6700   1   9   0.0052   0.0045   0.0134   0.0025  -0.0010   0.0029   0.00   14.9
2188 438000.000   2248126.7694    865685.8007   5886424.6682   1   9   0.0051   0.0042   0.0133   0.0026  -0.0008   0.0030   0.00   15.7
2188 438030.000   2248126.7675    865685.7984   5886424.6647   1   9   0.0051   0.0042   0.0132   0.0028  -0.0010   0.0031   0.00   16.5
2188 438060.000   2248126.7685    865685.8019   5886424.6740   1   9   0.0052   0.0046   0.0131   0.0030   0.0005   0.0031   0.00   17.4
2188 438090.000   2248126.7684    865685.7996   5886424.6652   1   9   0.0050   0.0040   0.0131   0.0029  -0.0009   0.0031   0.00   18.1
2188 438120.000   2248126.7695    865685.7968   5886424.6655   1   9   0.0053   0.0045   0.0130   0.0027   0.0013   0.0031   0.00   19.0
2188 438150.000   2248126.7734    865685.8056   5886424.6743   1   9   0.0050   0.0044   0.0130   0.0024   0.0009   0.0031   0.00   19.9
2188 438180.000   2248126.7767    865685.8006   5886424.6666   1   9   0.0051   0.0046   0.0130   0.0026   0.0014   0.0031   0.00   21.0
2188 438210.000   2248126.7746    865685.7972   5886424.6720   1   9   0.0055   0.0047   0.0130   0.0024   0.0020   0.0034   0.00   22.5
2188 438240.000   2248126.7718    865685.7971   5886424.6679   1   9   0.0054   0.0046   0.0130   0.0027   0.0018   0.0035   0.00   24.0
2188 438270.000   2248126.7764    865685.8002   5886424.6744   1   9   0.0053   0.0042   0.0130   0.0025   0.0020   0.0035   0.00   24.7
2188 438300.000   2248126.7772    865685.8010   5886424.6677   1   9   0.0054   0.0044   0.0129   0.0024   0.0019   0.0036   0.00   25.4
2188 438330.000   2248126.7789    865685.8023   5886424.6755   1   8   0.0054   0.0033   0.0130   0.0027   0.0014   0.0038   0.00   58.0
2188 438360.000   2248126.7752    865685.7967   5886424.6649   1   8   0.0054   0.0048   0.0129   0.0024   0.0023   0.0038   0.00   61.7
2188 438390.000   2248126.7770    865685.7993   5886424.6704   1   8   0.0052   0.0042   0.0130   0.0025   0.0024   0.0038   0.00   65.9
2188 438420.000   2248126.7748    865685.7994   5886424.6694   1   8   0.0053   0.0048   0.0129   0.0029   0.0027   0.0038   0.00   68.6
2188 438450.000   2248126.7801    865685.8018   5886424.6680   1   8   0.0053   0.0043   0.0129   0.0032   0.0022   0.0039   0.00   72.5
2188 438480.000   2248126.7772    865685.8037   5886424.6702   1   8   0.0053   0.0033   0.0129   0.0026   0.0016   0.0040   0.00   80.8
2188 438510.000   2248126.7794    865685.8039   5886424.6717   1   8   0.0052   0.0040   0.0129   0.0027   0.0021   0.0039   0.00   90.8
2188 438540.000   2248126.7788    865685.8052   5886424.6689   1   8   0.0054   0.0047   0.0129   0.0020   0.0028   0.0040   0.00   98.7
2188 438570.000   2248126.7797    865685.8053   5886424.6645   1   8   0.0051   0.0042   0.0129   0.0026   0.0027   0.0040   0.00  110.8
2188 438600.000   2248126.7769    865685.8023   5886424.6632   1   8   0.0053   0.0055   0.0129   0.0026   0.0032   0.0040   0.00  123.8
2188 438630.000   2248126.7782    865685.8002   5886424.6601   1   8   0.0051   0.0048   0.0129   0.0030   0.0028   0.0040   0.00  139.7
2188 438660.000   2248126.7789    865685.8020   5886424.6685   1   8   0.0054   0.0040   0.0129   0.0028   0.0027   0.0041   0.00  153.1
2188 438690.000   2248126.7793    865685.8040   5886424.6708   1   8   0.0056   0.0046   0.0129   0.0025   0.0031   0.0041   0.00   67.7
2188 438720.000   2248126.7801    865685.8048   5886424.6703   1   8   0.0051   0.0034   0.0129   0.0028   0.0026   0.0041   0.00   61.1
2188 438750.000   2248126.7810    865685.8052   5886424.6740   1   8   0.0049   0.0043   0.0129   0.0024   0.0028   0.0041   0.00   52.1
2188 438780.000   2248126.7820    865685.8089   5886424.6780   1   8   0.0053   0.0037   0.0129   0.0032   0.0027   0.0042   0.00   42.0
2188 438810.000   2248126.7796    865685.8097   5886424.6760   1   8   0.0053   0.0044   0.0129   0.0026   0.0032   0.0042   0.00   43.1
2188 438840.000   2248126.7807    865685.8062   5886424.6835   1   8   0.0053   0.0040   0.0129   0.0025   0.0028   0.0042   0.00   43.8
2188 438870.000   2248126.7776    865685.8028   5886424.6844   1   8   0.0051   0.0035   0.0129   0.0029   0.0032   0.0041   0.00   43.6
2188 438900.000   2248126.7818    865685.8093   5886424.6813   1   8   0.0051   0.0035   0.0129   0.0029   0.0029   0.0043   0.00   42.8
2188 438930.000   2248126.7808    865685.8063   5886424.6724   1   8   0.0052   0.0030   0.0130   0.0035   0.0027   0.0044   0.00   44.2
2188 438960.000   2248126.7789    865685.8050   5886424.6706   1   8   0.0053   0.0046   0.0130   0.0022   0.0030   0.0043   0.00   44.2
2188 438990.000   2248126.7807    865685.8053   5886424.6642   1   8   0.0050   0.0039   0.0130   0.0023   0.0031   0.0043   0.00   44.3
2188 439020.000   2248126.7832    865685.8127   5886424.6823   1   8   0.0051   0.0041   0.0130   0.0030   0.0033   0.0045   0.00   43.7
2188 439050.000   2248126.7827    865685.8099   5886424.6769   1   8   0.0054   0.0043   0.0131   0.0021   0.0035   0.0044   0.00   44.2
2188 439080.000   2248126.7828    865685.8053   5886424.6615   1   8   0.0053   0.0042   0.0131   0.0027   0.0033   0.0045   0.00   45.0
2188 439110.000   2248126.7806    865685.8071   5886424.6638   1   8   0.0052   0.0046   0.0131   0.0022   0.0036   0.0043   0.00   45.0
2188 439140.000   2248126.7769    865685.8075   5886424.6655   1   8   0.0053   0.0051   0.0132   0.0025   0.0038   0.0045   0.00   45.4
2188 439170.000   2248126.7789    865685.8040   5886424.6704   1   8   0.0048   0.0050   0.0132   0.0024   0.0038   0.0045   0.00   45.3
2188 439200.000   2248126.7763    865685.8033   5886424.6718   1   8   0.0052   0.0039   0.0132   0.0026   0.0035   0.0046   0.00   45.8
2188 439230.000   2248126.7775    865685.8063   5886424.6691   1   8   0.0052   0.0043   0.0132   0.0027   0.0038   0.0046   0.00   46.1
2188 439260.000   2248126.7788    865685.8071   5886424.6768   1   8   0.0054   0.0039   0.0133   0.0032   0.0038   0.0046   0.00   46.6
2188 439290.000   2248126.7764    865685.8091   5886424.6695   1   8   0.0051   0.0042   0.0133   0.0028   0.0038   0.0047   0.00   47.4
2188 439320.000   2248126.7809    865685.8040   5886424.6553   1   8   0.0052   0.0041   0.0133   0.0024   0.0039   0.0047   0.00   49.0
2188 439350.000   2248126.7833    865685.8072   5886424.6655   1   8   0.0052   0.0042   0.0133   0.0022   0.0041   0.0048   0.00   51.0
2188 439380.000   2248126.7808    865685.8073   5886424.6669   1   8   0.0053   0.0044   0.0134   0.0025   0.0038   0.0048   0.00   53.3
2188 439410.000   2248126.7818    865685.8063   5886424.6545   1   8   0.0051   0.0040   0.0134   0.0034   0.0038   0.0047   0.00   55.1
2188 439440.000   2248126.7817    865685.8068   5886424.6542   1   8   0.0051   0.0038   0.0134   0.0028   0.0040   0.0049   0.00   56.1
2188 439470.000   2248126.7794    865685.8072   5886424.6586   1   8   0.0052   0.0042   0.0135   0.0027   0.0039   0.0049   0.00   55.0
2188 439500.000   2248126.7791    865685.8050   5886424.6471   1   8   0.0048   0.0036   0.0135   0.0032   0.0040   0.0048   0.00   56.1
2188 439530.000   2248126.7792    865685.8086   5886424.6574   1   8   0.0052   0.0044   0.0136   0.0026   0.0041   0.0049   0.00   57.7
2188 439560.000   2248126.7825    865685.8096   5886424.6640   1   8   0.0052   0.0042   0.0136   0.0025   0.0042   0.0049   0.00   59.0
2188 439590.000   2248126.7832    865685.8078   5886424.6663   1   8   0.0052   0.0038   0.0136   0.0027   0.0043   0.0050   0.00   61.2
2188 439620.000   2248126.7819    865685.8088   5886424.6685   1   8   0.0053   0.0046   0.0137   0.0022   0.0043   0.0050   0.00   61.7
2188 439650.000   2248126.7834    865685.8121   5886424.6694   1   8   0.0052   0.0046   0.0137   0.0023   0.0042   0.0049   0.00   59.1
2188 439680.000   2248126.7857    865685.8116   5886424.6726   1   8   0.0056   0.0040   0.0137   0.0027   0.0044   0.0051   0.00   59.6
2188 439710.000   2248126.7774    865685.8029   5886424.6646   1   8   0.0050   0.0040   0.0138   0.0030   0.0042   0.0050   0.00   62.3
2188 439740.000   2248126.7734    865685.8012   5886424.6655   1   8   0.0053   0.0041   0.0138   0.0024   0.0044   0.0050   0.00   64.4
2188 439770.000   2248126.7765    865685.8026   5886424.6631   1   8   0.0054   0.0048   0.0138   0.0024   0.0044   0.0051   0.00   65.8
2188 439800.000   2248126.7781    865685.8037   5886424.6641   1   8   0.0052   0.0037   0.0139   0.0026   0.0049   0.0052   0.00   66.9
2188 439830.000   2248126.7770    865685.8031   5886424.6688   1   8   0.0049   0.0045   0.0139   0.0029   0.0042   0.0052   0.00   67.7
2188 439860.000   2248126.7746    865685.8060   5886424.6734   1   8   0.0050   0.0043   0.0140   0.0034   0.0043   0.0053   0.00   67.2
2188 439890.000   2248126.7775    865685.8068   5886424.6636   1   8   0.0053   0.0046   0.0140   0.0026   0.0044   0.0052   0.00   68.1
2188 439920.000   2248126.7804    865685.8040   5886424.6604   1   8   0.0053   0.0038   0.0140   0.0030   0.0048   0.0052   0.00   71.4
2188 439950.000   2248126.7832    865685.8089   5886424.6645   1   8   0.0052   0.0042   0.0140   0.0017   0.0050   0.0054   0.00   73.4
2188 439980.000   2248126.7845    865685.8137   5886424.6622   1   8   0.0051   0.0042   0.0141   0.0028   0.0047   0.0052   0.00   74.5
2188 440010.000   2248126.7824    865685.8116   5886424.6666   1   8   0.0053   0.0038   0.0141   0.0029   0.0050   0.0054   0.00   74.5
2188 440040.000   2248126.7815    865685.8073   5886424.6666   1   8   0.0053   0.0046   0.0141   0.0026   0.0047   0.0053   0.00   74.4
2188 440070.000   2248126.7857    865685.8075   5886424.6702   1   8   0.0053   0.0040   0.0142   0.0032   0.0048   0.0055   0.00   74.1
2188 440100.000   2248126.7823    865685.8057   5886424.6695   1   8   0.0051   0.0044   0.0142   0.0024   0.0050   0.0054   0.00   72.7
2188 440130.000   2248126.7803    865685.8055   5886424.6682   1   8   0.0055   0.0043   0.0142   0.0029   0.0049   0.0054   0.00   71.2
2188 440160.000   2248126.7801    865685.8029   5886424.6599   1   8   0.0053   0.0041   0.0142   0.0033   0.0048   0.0054   0.00   70.5
2188 440190.000   2248126.7778    865685.8037   5886424.6573   1   8   0.0053   0.0042   0.0143   0.0033   0.0051   0.0054   0.00   68.5
2188 440220.000   2248126.7773    865685.8043   5886424.6568   1   8   0.0049   0.0040   0.0143   0.0033   0.0049   0.0054   0.00   66.9
2188 440250.000   2248126.7759    865685.8087   5886424.6549   1   8   0.0054   0.0047   0.0143   0.0033   0.0049   0.0056   0.00   67.0
2188 440280.000   2248126.7804    865685.8061   5886424.6550   1   8   0.0051   0.0043   0.0143   0.0028   0.0051   0.0055   0.00   67.5
2188 440310.000   2248126.7802    865685.8091   5886424.6553   1   8   0.0055   0.0050   0.0144   0.0023   0.0047   0.0054   0.00   68.2
2188 440340.000   2248126.7740    865685.8067   5886424.6460   1   8   0.0053   0.0042   0.0144   0.0029   0.0049   0.0056   0.00   68.7
2188 440370.000   2248126.7751    865685.8107   5886424.6574   1   8   0.0053   0.0039   0.0144   0.0037   0.0050   0.0056   0.00   68.9
2188 440400.000   2248126.7736    865685.8097   5886424.6462   1   8   0.0052   0.0045   0.0144   0.0032   0.0050   0.0055   0.00   69.5
2188 440430.000   2248126.7748    865685.8086   5886424.6556   1   8   0.0055   0.0043   0.0145   0.0032   0.0052   0.0057   0.00   69.7
2188 440460.000   2248126.7706    865685.8036   5886424.6537   1   8   0.0048   0.0049   0.0145   0.0029   0.0049   0.0056   0.00   69.1
2188 440490.000   2248126.7733    865685.8074   5886424.6661   1   8   0.0050   0.0042   0.0145   0.0029   0.0053   0.0055   0.00   69.8
2188 440520.000   2248126.7713    865685.8091   5886424.6661   1   8   0.0051   0.0036   0.0145   0.0033   0.0054   0.0056   0.00   68.9
2188 440550.000   2248126.7722    865685.8097   5886424.6663   1   8   0.0054   0.0040   0.0145   0.0028   0.0056   0.0056   0.00   69.0
2188 440580.000   2248126.7735    865685.8090   5886424.6675   1   8   0.0057   0.0049   0.0145   0.0021   0.0052   0.0057   0.00   68.2
2188 440610.000   2248126.7717    865685.8094   5886424.6598   1   8   0.0055   0.0047   0.0145   0.0023   0.0051   0.0057   0.00   68.9
2188 440640.000   2248126.7735    865685.8076   5886424.6640   1   8   0.0052   0.0044   0.0145   0.0032   0.0051   0.0056   0.00   69.7
2188 440670.000   2248126.7728    865685.8075   5886424.6683   1   8   0.0055   0.0045   0.0146   0.0032   0.0051   0.0056   0.00   70.3
2188 440700.000   2248126.7711    865685.8036   5886424.6609   1   8   0.0054   0.0038   0.0145   0.0038   0.0054   0.0057   0.00   70.8
2188 440730.000   2248126.7711    865685.8057   5886424.6640   1   8   0.0048   0.0045   0.0145   0.0033   0.0050   0.0056   0.00   71.1
2188 440760.000   2248126.7709    865685.8046   5886424.6662   1   8   0.0051   0.0044   0.0146   0.0036   0.0053   0.0057   0.00   71.4
2188 440790.000   2248126.7773    865685.8053   5886424.6763   1   8   0.0054   0.0044   0.0145   0.0028   0.0053   0.0057   0.00   71.5
2188 440820.000   2248126.7722    865685.8034   5886424.6737   1   8   0.0056   0.0048   0.0145   0.0029   0.0052   0.0057   0.00   71.9
2188 440850.000   2248126.7774    865685.8039   5886424.6784   1   8   0.0051   0.0047   0.0145   0.0033   0.0053   0.0058   0.00   72.8
2188 440880.000   2248126.7741    865685.8021   5886424.6687   1   8   0.0055   0.0046   0.0146   0.0017   0.0052   0.0059   0.00   72.5
2188 440910.000   2248126.7706    865685.8017   5886424.6549   1   8   0.0055   0.0041   0.0145   0.0028   0.0053   0.0056   0.00   73.5
2188 440940.000   2248126.7741    865685.8054   5886424.6704   1   8   0.0052   0.0042   0.0145   0.0030   0.0054   0.0056   0.00   73.5
2188 440970.000   2248126.7731    865685.8025   5886424.6650   1   8   0.0055   0.0047   0.0145   0.0026   0.0053   0.0058   0.00   74.2
2188 441000.000   2248126.7796    865685.8027   5886424.6668   1   8   0.0056   0.0043   0.0145   0.0029   0.0054   0.0056   0.00   75.9
2188 441030.000   2248126.7750    865685.8054   5886424.6740   1   8   0.0051   0.0044   0.0144   0.0037   0.0053   0.0055   0.00   77.0
2188 441060.000   2248126.7785    865685.8065   5886424.6768   1   8   0.0055   0.0047   0.0145   0.0031   0.0053   0.0056   0.00   78.1
2188 441090.000   2248126.7748    865685.8029   5886424.6750   1   8   0.0056   0.0046   0.0145   0.0025   0.0052   0.0058   0.00   79.5
2188 441120.000   2248126.7773    865685.8035   5886424.6681   1   9   0.0052   0.0043   0.0144   0.0032   0.0052   0.0055   0.00   81.3
2188 441150.000   2248126.7713    865685.8001   5886424.6514   1   9   0.0054   0.0047   0.0142   0.0032   0.0052   0.0053   0.00   82.2
2188 441180.000   2248126.7709    865685.8011   5886424.6433   1   9   0.0053   0.0049   0.0141   0.0023   0.0049   0.0052   0.00   83.5
2188 441210.000   2248126.7755    865685.8007   5886424.6561   1   9   0.0050   0.0046   0.0140   0.0028   0.0051   0.0052   0.00   85.0
2188 441240.000   2248126.7752    865685.8007   5886424.6599   1   9   0.0046   0.0038   0.0139   0.0036   0.0051   0.0050   0.00   85.9
2188 441270.000   2248126.7741    865685.8002   5886424.6510   1   9   0.0050   0.0041   0.0138   0.0025   0.0047   0.0049   0.00   87.6
2188 441300.000   2248126.7762    865685.8007   5886424.6452   1   9   0.0052   0.0038   0.0138   0.0026   0.0048   0.0049   0.00   89.0
2188 441330.000   2248126.7751    865685.8003   5886424.6451   1   9   0.0051   0.0041   0.0138   0.0028   0.0048   0.0047   0.00   90.0
2188 441360.000   2248126.7745    865685.8004   5886424.6498   1   9   0.0052   0.0042   0.0137   0.0020   0.0046   0.0050   0.00   89.5
2188 441390.000   2248126.7729    865685.8022   5886424.6520   1   9   0.0053   0.0037   0.0137   0.0032   0.0048   0.0048   0.00   88.8
2188 441420.000   2248126.7756    865685.8014   5886424.6518   1   9   0.0051   0.0044   0.0136   0.0020   0.0045   0.0047   0.00   88.1
2188 441450.000   2248126.7697    865685.8004   5886424.6470   1   9   0.0057   0.0045   0.0136   0.0021   0.0046   0.0047   0.00   87.2
2188 441480.000   2248126.7724    865685.8039   5886424.6514   1   9   0.0047   0.0044   0.0135   0.0026   0.0045   0.0047   0.00   87.1
2188 441510.000   2248126.7728    865685.8032   5886424.6567   1   9   0.0050   0.0045   0.0135   0.0020   0.0044   0.0047   0.00   87.2
2188 441540.000   2248126.7692    865685.8040   5886424.6648   1   9   0.0051   0.0043   0.0135   0.0020   0.0043   0.0047   0.00   86.6
2188 441570.000   2248126.7715    865685.8037   5886424.6665   1   8   0.0052   0.0038   0.0138   0.0027   0.0046   0.0051   0.00   82.3
2188 441600.000   2248126.7753    865685.8041   5886424.6708   1   8   0.0058   0.0043   0.0137   0.0010   0.0043   0.0050   0.00   82.5
2188 441630.000   2248126.7773    865685.8029   5886424.6735   1   8   0.0051   0.0041   0.0137   0.0027   0.0045   0.0049   0.00   82.4
2188 441660.000   2248126.7762    865685.8011   5886424.6707   1   8   0.0050   0.0041   0.0137   0.0026   0.0045   0.0050   0.00   83.1
2188 441690.000   2248126.7740    865685.8027   5886424.6711   1   8   0.0049   0.0035   0.0136   0.0025   0.0045   0.0048   0.00   82.9
2188 441720.000   2248126.7764    865685.8042   5886424.6794   1   8   0.0049   0.0036   0.0136  -0.0006   0.0041   0.0049   0.00   83.1
2188 441750.000   2248126.7744    865685.8030   5886424.6709   1   8   0.0049   0.0037   0.0135   0.0028   0.0045   0.0046   0.00   84.3
2188 441780.000   2248126.7762    865685.8055   5886424.6746   1   8   0.0052   0.0045   0.0135   0.0035   0.0046   0.0046   0.00   85.8
2188 441810.000   2248126.7702    865685.8007   5886424.6676   1   8   0.0050   0.0041   0.0134   0.0022   0.0044   0.0046   0.00   86.4
2188 441840.000   2248126.7738    865685.8036   5886424.6718   1   8   0.0051   0.0042   0.0133   0.0020   0.0042   0.0045   0.00   86.7
2188 441870.000   2248126.7807    865685.8050   5886424.6758   1   8   0.0047   0.0037   0.0133   0.0028   0.0044   0.0044   0.00   88.3
2188 441900.000   2248126.7774    865685.8015   5886424.6695   1   8   0.0050   0.0041   0.0133   0.0028   0.0043   0.0045   0.00   88.5
2188 441930.000   2248126.7816    865685.8043   5886424.6825   1   8   0.0047   0.0040   0.0132   0.0013   0.0041   0.0044   0.00   88.7
2188 441960.000   2248126.7777    865685.8051   5886424.6783   1   8   0.0052   0.0042   0.0133   0.0010   0.0041   0.0044   0.00   88.4
2188 441990.000   2248126.7816    865685.8050   5886424.6751   1   8   0.0048   0.0039   0.0132   0.0009   0.0039   0.0043   0.00   88.8
2188 442020.000   2248126.7859    865685.8041   5886424.6743   1   8   0.0048   0.0042   0.0130   0.0028   0.0042   0.0043   0.00   18.4
2188 442050.000   2248126.7854    865685.7995   5886424.6737   1   8   0.0044   0.0041   0.0130   0.0032   0.0045   0.0041   0.00   19.8
2188 442080.000   2248126.7847    865685.7986   5886424.6750   1   8   0.0052   0.0043   0.0130   0.0020   0.0040   0.0041   0.00   21.1
2188 442110.000   2248126.7826    865685.8021   5886424.6689   1   8   0.0047   0.0039   0.0129   0.0015   0.0040   0.0041   0.00   22.3
2188 442140.000   2248126.7806    865685.8021   5886424.6640   1   8   0.0046   0.0041   0.0129   0.0030   0.0042   0.0039   0.00   23.5
2188 442170.000   2248126.7777    865685.8003   5886424.6601   1   8   0.0046   0.0037   0.0128   0.0021   0.0040   0.0039   0.00   24.5
2188 442200.000   2248126.7794    865685.8021   5886424.6719   1   8   0.0054   0.0046   0.0128  -0.0017   0.0036   0.0040   0.00   25.9
2188 442230.000   2248126.7802    865685.8035   5886424.6758   1   8   0.0053   0.0047   0.0128  -0.0023   0.0033   0.0041   0.00   27.4
2188 442260.000   2248126.7795    865685.8043   5886424.6727   1   8   0.0051   0.0044   0.0128   0.0015   0.0037   0.0039   0.00   28.6
2188 442290.000   2248126.7817    865685.8040   5886424.6746   1   9   0.0050   0.0043   0.0127   0.0025   0.0040   0.0037   0.00   29.6
2188 442320.000   2248126.7853    865685.8037   5886424.6846   1   9   0.0047   0.0035   0.0123   0.0022   0.0036   0.0037   0.00   30.7
2188 442350.000   2248126.7819    865685.8028   5886424.6836   1   9   0.0051   0.0039   0.0120   0.0017   0.0035   0.0038   0.00   32.1
2188 442380.000   2248126.7789    865685.8008   5886424.6794   1   8   0.0049   0.0039   0.0125   0.0016   0.0039   0.0036   0.00   33.7
2188 442410.000   2248126.7778    865685.8024   5886424.6794   1   9   0.0049   0.0040   0.0125   0.0015   0.0036   0.0035   0.00   35.0
2188 442440.000   2248126.7826    865685.8037   5886424.6813   1   9   0.0055   0.0042   0.0121  -0.0009   0.0032   0.0037   0.00   35.9
2188 442470.000   2248126.7809    865685.8012   5886424.6774   1   9   0.0048   0.0038   0.0118   0.0015   0.0033   0.0035   0.00   36.3
2188 442500.000   2248126.7840    865685.8020   5886424.6762   1   9   0.0049   0.0040   0.0117   0.0030   0.0034   0.0035   0.00   37.7
2188 442530.000   2248126.7824    865685.8010   5886424.6799   1   9   0.0052   0.0041   0.0116  -0.0007   0.0031   0.0036   0.00   38.5
2188 442560.000   2248126.7833    865685.8009   5886424.6793   1   9   0.0050   0.0038   0.0115   0.0011   0.0028   0.0034   0.00   39.4
2188 442590.000   2248126.7855    865685.8038   5886424.6836   1   9   0.0045   0.0041   0.0115   0.0021   0.0032   0.0030   0.00   40.4
2188 442620.000   2248126.7869    865685.8019   5886424.6866   1   9   0.0048   0.0039   0.0114   0.0016   0.0032   0.0035   0.00   41.2
2188 442650.000   2248126.7860    865685.8011   5886424.6806   1   9   0.0045   0.0039   0.0113   0.0026   0.0032   0.0031   0.00   42.0
2188 442680.000   2248126.7869    865685.8051   5886424.6889   1   9   0.0047   0.0039   0.0113   0.0028   0.0032   0.0031   0.00   42.5
2188 442710.000   2248126.7859    865685.8033   5886424.6890   1   9   0.0047   0.0038   0.0112   0.0007   0.0028   0.0032   0.00   43.5
2188 442740.000   2248126.7810    865685.8031   5886424.6859   1   9   0.0046   0.0037   0.0111   0.0024   0.0030   0.0030   0.00   44.9
2188 442770.000   2248126.7848    865685.8046   5886424.6795   1   9   0.0047   0.0036   0.0111   0.0008   0.0028   0.0031   0.00   45.4
2188 442800.000   2248126.7825    865685.8065   5886424.6822   1   9   0.0049   0.0040   0.0110   0.0020   0.0029   0.0031   0.00   46.9
2188 442830.000   2248126.7820    865685.8020   5886424.6795   1   9   0.0046   0.0039   0.0121   0.0026   0.0036   0.0027   0.00   48.3
2188 442860.000   2248126.7826    865685.8051   5886424.6779   1   8   0.0046   0.0038   0.0121   0.0021   0.0034   0.0025   0.00   49.8
2188 442890.000   2248126.7809    865685.8063   5886424.6799   1   8   0.0048   0.0043   0.0120   0.0017   0.0034   0.0027   0.00   51.2
2188 442920.000   2248126.7808    865685.8044   5886424.6832   1   8   0.0047   0.0044   0.0120   0.0014   0.0033   0.0027   0.00   52.6
2188 442950.000   2248126.7799    865685.8047   5886424.6878   1   9   0.0048   0.0038   0.0120   0.0021   0.0034   0.0024   0.00   54.8
2188 442980.000   2248126.7789    865685.8040   5886424.6763   1   9   0.0049   0.0037   0.0114   0.0010   0.0028   0.0027   0.00   57.1
2188 443010.000   2248126.7788    865685.8041   5886424.6758   1   9   0.0048   0.0036   0.0111   0.0018   0.0028   0.0027   0.00   58.9
2188 443040.000   2248126.7779    865685.8024   5886424.6742   1   9   0.0047   0.0045   0.0109   0.0022   0.0028   0.0027   0.00   61.7
2188 443070.000   2248126.7758    865685.8019   5886424.6743   1   9   0.0050   0.0040   0.0109   0.0020   0.0027   0.0027   0.00   63.7
2188 443100.000   2248126.7764    865685.8007   5886424.6735   1   9   0.0045   0.0040   0.0108   0.0017   0.0025   0.0026   0.00   66.4
2188 443130.000   2248126.7771    865685.8027   5886424.6773   1   9   0.0049   0.0040   0.0108   0.0015   0.0024   0.0025   0.00   69.0
2188 443160.000   2248126.7694    865685.8029   5886424.6745   1   9   0.0049   0.0039   0.0107   0.0011   0.0022   0.0026   0.00   72.8
2188 443190.000   2248126.7774    865685.8041   5886424.6866   1   9   0.0048   0.0042   0.0107   0.0017   0.0021   0.0027   0.00   74.7
2188 443220.000   2248126.7795    865685.8069   5886424.6898   1   9   0.0047   0.0039   0.0106   0.0019   0.0023   0.0026   0.00   75.6
2188 443250.000   2248126.7830    865685.8078   5886424.6846   1   9   0.0053   0.0041   0.0106   0.0020   0.0024   0.0026   0.00   77.8
2188 443280.000   2248126.7747    865685.8054   5886424.6738   1   9   0.0053   0.0041   0.0105   0.0022   0.0025   0.0025   0.00   80.5
2188 443310.000   2248126.7744    865685.8021   5886424.6783   1   9   0.0049   0.0042   0.0105   0.0021   0.0024   0.0025   0.00   82.2
2188 443340.000   2248126.7783    865685.8035   5886424.6836   1   9   0.0049   0.0036   0.0105   0.0013   0.0019   0.0024   0.00   84.0
2188 443370.000   2248126.7756    865685.8048   5886424.6776   1   9   0.0050   0.0039   0.0104   0.0007   0.0017   0.0025   0.00   84.9
2188 443400.000   2248126.7706    865685.8054   5886424.6684   1   9   0.0051   0.0032   0.0104   0.0016   0.0018   0.0026   0.00   86.3
2188 443430.000   2248126.7766    865685.8055   5886424.6735   1   9   0.0053   0.0041   0.0105  -0.0016   0.0016   0.0025   0.00   87.9
2188 443460.000   2248126.7757    865685.8055   5886424.6805   1   9   0.0051   0.0040   0.0104  -0.0012   0.0013   0.0025   0.00   90.1
2188 443490.000   2248126.7777    865685.8052   5886424.6728   1   9   0.0049   0.0043   0.0104   0.0015   0.0018   0.0027   0.00   92.6
2188 443520.000   2248126.7765    865685.8054   5886424.6765   1   9   0.0048   0.0041   0.0103   0.0024   0.0021   0.0023   0.00   95.3
2188 443550.000   2248126.7785    865685.8035   5886424.6687   1   9   0.0051   0.0042   0.0103   0.0019   0.0013   0.0024   0.00   98.2
2188 443580.000   2248126.7785    865685.8053   5886424.6687   1   9   0.0050   0.0040   0.0103   0.0009   0.0012   0.0024   0.00   99.7
2188 443610.000   2248126.7771    865685.8034   5886424.6707   1   9   0.0052   0.0043   0.0103   0.0016   0.0016   0.0024   0.00  101.7
2188 443640.000   2248126.7746    865685.8021   5886424.6709   1   9   0.0048   0.0043   0.0103   0.0022   0.0019   0.0024   0.00  102.8
2188 443670.000   2248126.7788    865685.8049   5886424.6748   1   9   0.0049   0.0043   0.0102   0.0013   0.0019   0.0023   0.00  105.1
2188 443700.000   2248126.7773    865685.8041   5886424.6750   1   9   0.0049   0.0038   0.0103   0.0019   0.0013   0.0020   0.00  106.1
2188 443730.000   2248126.7788    865685.8032   5886424.6719   1   9   0.0052   0.0043   0.0103   0.0016   0.0010   0.0024   0.00  106.2
2188 443760.000   2248126.7777    865685.8021   5886424.6672   1   9   0.0052   0.0044   0.0103   0.0022   0.0012   0.0023   0.00  104.3
2188 443790.000   2248126.7787    865685.8031   5886424.6736   1   9   0.0051   0.0039   0.0103   0.0010  -0.0003   0.0023   0.00  104.7
2188 443820.000   2248126.7756    865685.8033   5886424.6769   1   9   0.0050   0.0042   0.0103   0.0020   0.0014   0.0022   0.00  104.8
2188 443850.000   2248126.7792    865685.8050   5886424.6740   1   9   0.0052   0.0043   0.0102   0.0020   0.0011   0.0022   0.00   25.3
2188 443880.000   2248126.7800    865685.8052   5886424.6769   1   9   0.0051   0.0038   0.0102   0.0012  -0.0005   0.0023   0.00   25.9
2188 443910.000   2248126.7760    865685.8041   5886424.6777   1   9   0.0050   0.0038   0.0101   0.0023   0.0006   0.0021   0.00   26.4
2188 443940.000   2248126.7781    865685.8052   5886424.6725   1   9   0.0054   0.0043   0.0103   0.0015  -0.0007   0.0024   0.00   27.2
2188 443970.000   2248126.7739    865685.8057   5886424.6721   1   9   0.0052   0.0041   0.0102   0.0007  -0.0014   0.0023   0.00   28.0
2188 444000.000   2248126.7746    865685.8029   5886424.6676   1   9   0.0051   0.0040   0.0102   0.0007  -0.0014   0.0024   0.00   29.1
2188 444030.000   2248126.7758    865685.8010   5886424.6663   1   9   0.0050   0.0039   0.0102   0.0015  -0.0010   0.0021   0.00   30.0
2188 444060.000   2248126.7775    865685.8032   5886424.6691   1  10   0.0049   0.0041   0.0102   0.0021  -0.0003   0.0021   0.00   30.8
2188 444090.000   2248126.7781    865685.8032   5886424.6710   1  10   0.0048   0.0038   0.0102   0.0020  -0.0007   0.0020   0.00   31.3
2188 444120.000   2248126.7821    865685.8048   5886424.6687   1  10   0.0048   0.0039   0.0102   0.0022  -0.0005   0.0019   0.00   31.8
2188 444150.000   2248126.7784    865685.8050   5886424.6674   1  10   0.0051   0.0042   0.0102   0.0016  -0.0014   0.0021   0.00   32.0
2188 444180.000   2248126.7778    865685.8037   5886424.6684   1  10   0.0051   0.0042   0.0102   0.0015  -0.0013   0.0022   0.00   32.1
2188 444210.000   2248126.7770    865685.8035   5886424.6656   1  10   0.0047   0.0040   0.0103  -0.0011  -0.0011   0.0017   0.00   32.4
2188 444240.000   2248126.7797    865685.8014   5886424.6605   1  10   0.0051   0.0039   0.0103  -0.0012  -0.0021   0.0020   0.00   32.8
2188 444270.000   2248126.7790    865685.7998   5886424.6699   1  10   0.0050   0.0039   0.0103   0.0008  -0.0016   0.0020   0.00   33.1
2188 444300.000   2248126.7742    865685.8014   5886424.6642   1  10   0.0048   0.0043   0.0103   0.0014  -0.0014   0.0019   0.00   33.8
2188 444330.000   2248126.7722    865685.7993   5886424.6605   1  10   0.0047   0.0041   0.0103   0.0006  -0.0015   0.0018   0.00   35.0
2188 444360.000   2248126.7771    865685.8018   5886424.6646   1  10   0.0049   0.0038   0.0104   0.0010  -0.0020   0.0018   0.00   35.7
2188 444390.000   2248126.7749    865685.8016   5886424.6622   1  10   0.0048   0.0038   0.0104   0.0018  -0.0017   0.0020   0.00   36.2
2188 444420.000   2248126.7732    865685.8007   5886424.6650   1  10   0.0050   0.0042   0.0104   0.0014  -0.0022   0.0021   0.00   36.7
2188 444450.000   2248126.7713    865685.7992   5886424.6614   1  10   0.0049   0.0040   0.0105   0.0021  -0.0014   0.0024   0.00   37.3
2188 444480.000   2248126.7735    865685.8005   5886424.6607   1  10   0.0052   0.0043   0.0105   0.0020  -0.0018   0.0022   0.00   37.2
2188 444510.000   2248126.7714    865685.7993   5886424.6579   1  10   0.0049   0.0040   0.0105   0.0016  -0.0010   0.0020   0.00   37.4
2188 444540.000   2248126.7693    865685.7975   5886424.6607   1  10   0.0046   0.0038   0.0105   0.0017  -0.0016   0.0020   0.00   37.7
2188 444570.000   2248126.7697    865685.7986   5886424.6586   1  10   0.0049   0.0044   0.0106  -0.0009  -0.0024   0.0022   0.00   37.9
2188 444600.000   2248126.7747    865685.7986   5886424.6575   1  10   0.0047   0.0041   0.0106   0.0017  -0.0019   0.0017   0.00   38.5
2188 444630.000   2248126.7679    865685.7999   5886424.6534   1  10   0.0051   0.0042   0.0107   0.0004  -0.0022   0.0019   0.00   38.9
2188 444660.000   2248126.7710    865685.7952   5886424.6547   1  10   0.0051   0.0043   0.0107   0.0014  -0.0024   0.0018   0.00   39.5
2188 444690.000   2248126.7730    865685.7964   5886424.6604   1  10   0.0050   0.0038   0.0108   0.0018  -0.0010   0.0022   0.00   39.5
2188 444720.000   2248126.7758    865685.7978   5886424.6577   1  10   0.0051   0.0042   0.0109   0.0002  -0.0029   0.0021   0.00   39.2
2188 444750.000   2248126.7759    865685.7974   5886424.6540   1  10   0.0051   0.0038   0.0109   0.0018  -0.0019   0.0021   0.00   38.5
2188 444780.000   2248126.7740    865685.7971   5886424.6519   1  10   0.0051   0.0042   0.0110   0.0003  -0.0022   0.0021   0.00   38.1
2188 444810.000   2248126.7713    865685.7974   5886424.6547   1  10   0.0050   0.0036   0.0110   0.0010  -0.0015   0.0021   0.00   37.6
2188 444840.000   2248126.7734    865685.7980   5886424.6630   1  10   0.0051   0.0046   0.0111  -0.0012  -0.0029   0.0023   0.00   37.1
2188 444870.000   2248126.7710    865685.8001   5886424.6544   1  10   0.0053   0.0039   0.0111   0.0018  -0.0021   0.0023   0.00   36.4
