% program   : RTKLIB ver.demo5 b34j
% inp file  : E:\GAMPII-GOOD\dataset_Win\obs\2021\351\MGEX\daily\kiru3510.21o
% inp file  : E:\Navigation_Learn\GNSS\RTKLIB-b34k\data\data_IGM-A1_Vehicle_open_20211217-nsh\brdm3510.21p
% inp file  : E:\Navigation_Learn\GNSS\RTKLIB-b34k\data\data_IGM-A1_Vehicle_open_20211217-nsh\CAS0MGXRAP_20213510000_01D_01D_DCB.BSX
% obs start : 2021/12/17 00:00:00.0 GPST (week2188 432000.0s)
% obs end   : 2021/12/17 23:59:30.0 GPST (week2188 518370.0s)
% pos mode  : Single
% elev mask : 10.0 deg
% ionos opt : Broadcast
% tropo opt : Saastamoinen
% ephemeris : Broadcast
% navi sys  : BDS
%
% (x/y/z-ecef=WGS84,Q=1:fix,2:float,3:sbas,4:dgps,5:single,6:ppp,ns=# of satellites)
%  GPST              x-ecef(m)      y-ecef(m)      z-ecef(m)   Q  ns   sdx(m)   sdy(m)   sdz(m)  sdxy(m)  sdyz(m)  sdzx(m) age(s)  ratio
2188 432000.000   2251419.5479    862816.7498   5885474.0654   5  10   2.1127   1.4038   3.9371   0.5386   0.7433   1.8615   0.00    0.0
2188 432030.000   2251419.7287    862816.7196   5885473.6642   5  10   2.1137   1.4033   3.9449   0.5370   0.7427   1.8680   0.00    0.0
2188 432060.000   2251419.7141    862816.8322   5885473.5845   5  10   2.1148   1.4027   3.9528   0.5354   0.7421   1.8743   0.00    0.0
2188 432090.000   2251419.7048    862816.8596   5885474.3715   5  10   2.1158   1.4022   3.9606   0.5337   0.7416   1.8806   0.00    0.0
2188 432120.000   2251420.2491    862816.5611   5885474.8320   5  10   2.1169   1.4017   3.9684   0.5320   0.7410   1.8868   0.00    0.0
2188 432150.000   2251419.7829    862816.7859   5885474.4968   5  10   2.1179   1.4012   3.9762   0.5304   0.7405   1.8928   0.00    0.0
2188 432180.000   2251420.1203    862816.9399   5885474.7381   5  10   2.1189   1.4008   3.9839   0.5287   0.7400   1.8988   0.00    0.0
2188 432210.000   2251420.2008    862816.6570   5885474.0957   5  10   2.1199   1.4003   3.9916   0.5270   0.7394   1.9047   0.00    0.0
2188 432240.000   2251420.0627    862816.6336   5885474.5201   5  10   2.1209   1.3999   3.9993   0.5253   0.7389   1.9104   0.00    0.0
2188 432270.000   2251420.1268    862816.7928   5885474.4683   5  10   2.1219   1.3995   4.0070   0.5236   0.7384   1.9161   0.00    0.0
2188 432300.000   2251419.9212    862817.1952   5885474.1173   5  10   2.1229   1.3991   4.0146   0.5219   0.7379   1.9216   0.00    0.0
2188 432330.000   2251419.8624    862816.9741   5885474.5602   5  10   2.1238   1.3987   4.0222   0.5202   0.7374   1.9271   0.00    0.0
2188 432360.000   2251419.7778    862816.6356   5885474.5512   5  10   2.1248   1.3983   4.0297   0.5185   0.7369   1.9324   0.00    0.0
2188 432390.000   2251419.4599    862816.9195   5885474.6712   5  10   2.1257   1.3979   4.0371   0.5167   0.7365   1.9376   0.00    0.0
2188 432420.000   2251419.5824    862816.8222   5885474.5839   5  10   2.1266   1.3976   4.0445   0.5150   0.7360   1.9427   0.00    0.0
2188 432450.000   2251420.1067    862816.9395   5885474.9480   5  10   2.1275   1.3973   4.0519   0.5132   0.7356   1.9477   0.00    0.0
2188 432480.000   2251419.9693    862817.0479   5885474.8157   5  10   2.1284   1.3970   4.0592   0.5115   0.7352   1.9526   0.00    0.0
2188 432510.000   2251419.4668    862816.7050   5885474.8790   5  10   2.1292   1.3967   4.0664   0.5097   0.7347   1.9573   0.00    0.0
2188 432540.000   2251420.0418    862816.8064   5885474.9740   5  10   2.1300   1.3964   4.0735   0.5079   0.7343   1.9619   0.00    0.0
2188 432570.000   2251420.1140    862816.8869   5885474.7433   5  10   2.1308   1.3962   4.0806   0.5061   0.7340   1.9664   0.00    0.0
2188 432600.000   2251419.8338    862816.7963   5885474.6402   5  10   2.1316   1.3959   4.0876   0.5043   0.7336   1.9707   0.00    0.0
2188 432630.000   2251420.1467    862816.7596   5885475.1450   5  10   2.1323   1.3957   4.0945   0.5025   0.7333   1.9750   0.00    0.0
2188 432660.000   2251420.0203    862816.7771   5885474.6525   5  10   2.1330   1.3955   4.1013   0.5007   0.7329   1.9791   0.00    0.0
2188 432690.000   2251419.9622    862816.9199   5885475.4146   5  10   2.1337   1.3953   4.1081   0.4988   0.7327   1.9830   0.00    0.0
2188 432720.000   2251420.2875    862816.8667   5885474.5833   5  10   2.1344   1.3952   4.1148   0.4970   0.7324   1.9868   0.00    0.0
2188 432750.000   2251419.8385    862816.8872   5885475.4767   5  10   2.1350   1.3950   4.1213   0.4951   0.7321   1.9905   0.00    0.0
2188 432780.000   2251419.6689    862816.9806   5885475.5183   5  10   2.1356   1.3949   4.1278   0.4932   0.7319   1.9941   0.00    0.0
2188 432810.000   2251419.6150    862816.8323   5885475.6678   5  10   2.1361   1.3948   4.1342   0.4913   0.7317   1.9975   0.00    0.0
2188 432840.000   2251420.0659    862816.8957   5885474.5714   5  10   2.1367   1.3947   4.1405   0.4895   0.7316   2.0007   0.00    0.0
2188 432870.000   2251420.2779    862816.6668   5885474.2314   5   9   2.1451   1.5363   4.7377   0.3440   1.4184   1.8950   0.00    0.0
2188 432900.000   2251420.2153    862816.4736   5885474.0432   5   9   2.1451   1.5364   4.7560   0.3472   1.4247   1.9007   0.00    0.0
2188 432930.000   2251420.2553    862816.6255   5885474.8105   5   9   2.1450   1.5365   4.7742   0.3503   1.4310   1.9063   0.00    0.0
2188 432960.000   2251420.2257    862816.8108   5885474.4559   5   9   2.1449   1.5366   4.7925   0.3533   1.4372   1.9119   0.00    0.0
2188 432990.000   2251420.2536    862816.7577   5885473.8005   5   9   2.1447   1.5368   4.8107   0.3563   1.4435   1.9173   0.00    0.0
2188 433020.000   2251420.3042    862816.5766   5885473.2813   5   9   2.1446   1.5369   4.8289   0.3593   1.4497   1.9226   0.00    0.0
2188 433050.000   2251420.1664    862816.7901   5885474.4688   5   9   2.1444   1.5371   4.8470   0.3622   1.4558   1.9278   0.00    0.0
2188 433080.000   2251419.9973    862816.5164   5885474.0419   5   9   2.1442   1.5372   4.8650   0.3650   1.4620   1.9329   0.00    0.0
2188 433110.000   2251420.4458    862816.5738   5885475.8022   5   9   2.1440   1.5374   4.8830   0.3677   1.4681   1.9378   0.00    0.0
2188 433140.000   2251420.3722    862816.5732   5885475.2281   5   9   2.1438   1.5376   4.9010   0.3704   1.4742   1.9427   0.00    0.0
2188 433170.000   2251419.9288    862816.4708   5885475.1988   5   9   2.1436   1.5378   4.9188   0.3731   1.4802   1.9474   0.00    0.0
2188 433200.000   2251420.1527    862816.7893   5885475.1300   5   9   2.1433   1.5380   4.9365   0.3756   1.4862   1.9520   0.00    0.0
2188 433230.000   2251420.0713    862816.8700   5885475.5753   5   9   2.1430   1.5382   4.9541   0.3781   1.4921   1.9564   0.00    0.0
2188 433260.000   2251420.3016    862817.0549   5885475.2384   5   9   2.1427   1.5384   4.9717   0.3806   1.4980   1.9607   0.00    0.0
2188 433290.000   2251420.0237    862816.8123   5885474.9592   5   9   2.1424   1.5387   4.9890   0.3829   1.5038   1.9649   0.00    0.0
2188 433320.000   2251420.1029    862816.6734   5885475.5638   5   9   2.1421   1.5389   5.0063   0.3852   1.5096   1.9689   0.00    0.0
2188 433350.000   2251420.6363    862816.7389   5885475.8081   5   9   2.1417   1.5392   5.0234   0.3874   1.5153   1.9727   0.00    0.0
2188 433380.000   2251420.5501    862816.6595   5885475.2090   5   9   2.1413   1.5394   5.0403   0.3895   1.5209   1.9764   0.00    0.0
2188 433410.000   2251420.3729    862816.6271   5885476.1801   5   9   2.1409   1.5397   5.0570   0.3916   1.5265   1.9799   0.00    0.0
2188 433440.000   2251420.2234    862816.5696   5885474.8316   5   9   2.1405   1.5399   5.0736   0.3935   1.5319   1.9833   0.00    0.0
2188 433470.000   2251420.3339    862816.4437   5885475.7269   5   9   2.1400   1.5402   5.0900   0.3954   1.5373   1.9865   0.00    0.0
2188 433500.000   2251420.5573    862816.6712   5885475.0738   5   9   2.1395   1.5405   5.1061   0.3972   1.5426   1.9895   0.00    0.0
2188 433530.000   2251420.5019    862816.6641   5885475.5961   5   9   2.1390   1.5407   5.1221   0.3990   1.5478   1.9924   0.00    0.0
2188 433560.000   2251419.9052    862816.8788   5885476.2622   5   9   2.1384   1.5410   5.1378   0.4006   1.5530   1.9950   0.00    0.0
2188 433590.000   2251420.8556    862816.8827   5885475.3408   5   9   2.1379   1.5413   5.1533   0.4021   1.5580   1.9975   0.00    0.0
2188 433620.000   2251420.2039    862816.5156   5885475.5896   5   9   2.1373   1.5416   5.1685   0.4036   1.5629   1.9998   0.00    0.0
2188 433650.000   2251420.3704    862816.9456   5885476.3860   5   9   2.1366   1.5419   5.1834   0.4049   1.5677   2.0018   0.00    0.0
2188 433680.000   2251420.4649    862816.6951   5885475.7669   5   9   2.1360   1.5421   5.1981   0.4062   1.5724   2.0037   0.00    0.0
2188 433710.000   2251420.1849    862817.0536   5885475.8778   5   9   2.1353   1.5424   5.2125   0.4073   1.5770   2.0054   0.00    0.0
2188 433740.000   2251419.9969    862816.8144   5885475.0362   5   9   2.1346   1.5427   5.2266   0.4084   1.5814   2.0069   0.00    0.0
2188 433770.000   2251420.2057    862817.0714   5885474.8790   5   9   2.1338   1.5430   5.2403   0.4094   1.5857   2.0081   0.00    0.0
2188 433800.000   2251420.0739    862816.6394   5885474.9367   5   9   2.1331   1.5433   5.2538   0.4102   1.5899   2.0092   0.00    0.0
2188 433830.000   2251420.2942    862816.7035   5885475.0911   5   9   2.1323   1.5435   5.2669   0.4110   1.5940   2.0100   0.00    0.0
2188 433860.000   2251420.6035    862816.6344   5885475.3361   5   9   2.1314   1.5438   5.2797   0.4116   1.5979   2.0106   0.00    0.0
2188 433890.000   2251420.1493    862816.7274   5885475.3322   5   9   2.1306   1.5441   5.2921   0.4122   1.6017   2.0110   0.00    0.0
2188 433920.000   2251420.2139    862816.7100   5885474.6883   5   9   2.1297   1.5443   5.3041   0.4126   1.6054   2.0111   0.00    0.0
2188 433950.000   2251420.2881    862816.5452   5885475.0463   5   9   2.1288   1.5446   5.3158   0.4129   1.6088   2.0110   0.00    0.0
2188 433980.000   2251420.5508    862816.4302   5885475.5116   5   9   2.1278   1.5449   5.3270   0.4132   1.6122   2.0107   0.00    0.0
2188 434010.000   2251420.5402    862816.4769   5885476.0595   5   9   2.1269   1.5451   5.3379   0.4133   1.6154   2.0101   0.00    0.0
2188 434040.000   2251420.3548    862816.4623   5885474.2912   5   9   2.1259   1.5453   5.3483   0.4133   1.6184   2.0093   0.00    0.0
2188 434070.000   2251420.4742    862816.4293   5885475.6966   5   9   2.1248   1.5456   5.3584   0.4131   1.6212   2.0082   0.00    0.0
2188 434100.000   2251420.6277    862816.5647   5885475.3640   5   9   2.1238   1.5458   5.3680   0.4129   1.6239   2.0070   0.00    0.0
2188 434130.000   2251420.4551    862816.4873   5885475.9572   5   9   2.1227   1.5460   5.3771   0.4126   1.6264   2.0054   0.00    0.0
2188 434160.000   2251420.2957    862816.5035   5885475.6384   5   9   2.1216   1.5462   5.3859   0.4121   1.6287   2.0036   0.00    0.0
2188 434190.000   2251420.2212    862816.7165   5885475.1595   5   9   2.1205   1.5464   5.3941   0.4115   1.6309   2.0016   0.00    0.0
2188 434220.000   2251420.3437    862816.6487   5885475.4897   5   9   2.1193   1.5466   5.4019   0.4108   1.6329   1.9993   0.00    0.0
2188 434250.000   2251420.0390    862816.6700   5885475.5530   5   9   2.1181   1.5468   5.4092   0.4100   1.6346   1.9967   0.00    0.0
2188 434280.000   2251420.2726    862816.6688   5885475.4449   5   9   2.1169   1.5470   5.4161   0.4090   1.6362   1.9939   0.00    0.0
2188 434310.000   2251420.5066    862816.5709   5885475.2579   5   9   2.1157   1.5472   5.4225   0.4079   1.6377   1.9908   0.00    0.0
2188 434340.000   2251420.4944    862816.7224   5885475.3316   5   9   2.1144   1.5473   5.4283   0.4068   1.6389   1.9875   0.00    0.0
2188 434370.000   2251420.2550    862816.4972   5885475.1085   5   9   2.1132   1.5474   5.4337   0.4054   1.6399   1.9840   0.00    0.0
2188 434400.000   2251420.8740    862816.4762   5885475.4942   5   9   2.1119   1.5476   5.4386   0.4040   1.6407   1.9801   0.00    0.0
2188 434430.000   2251420.2854    862816.5008   5885475.5838   5   9   2.1106   1.5477   5.4430   0.4024   1.6414   1.9760   0.00    0.0
2188 434460.000   2251420.3281    862816.5695   5885476.2966   5   9   2.1093   1.5478   5.4468   0.4008   1.6418   1.9717   0.00    0.0
2188 434490.000   2251420.4346    862816.6775   5885475.0356   5   9   2.1079   1.5479   5.4502   0.3990   1.6420   1.9671   0.00    0.0
2188 434520.000   2251420.3106    862816.5445   5885476.1310   5   9   2.1065   1.5480   5.4530   0.3970   1.6420   1.9623   0.00    0.0
2188 434550.000   2251420.2901    862816.4405   5885476.2602   5   9   2.1052   1.5481   5.4554   0.3950   1.6419   1.9572   0.00    0.0
2188 434580.000   2251420.5402    862816.9415   5885475.9018   5   9   2.1038   1.5482   5.4572   0.3928   1.6415   1.9518   0.00    0.0
2188 434610.000   2251420.3901    862816.9929   5885476.1643   5   9   2.1024   1.5482   5.4584   0.3905   1.6409   1.9462   0.00    0.0
2188 434640.000   2251420.5175    862816.7173   5885476.2187   5   9   2.1010   1.5483   5.4592   0.3881   1.6401   1.9403   0.00    0.0
2188 434670.000   2251420.6580    862816.9619   5885476.1701   5   9   2.0996   1.5483   5.4594   0.3856   1.6391   1.9343   0.00    0.0
2188 434700.000   2251420.5551    862816.7852   5885475.9131   5   9   2.0981   1.5483   5.4591   0.3829   1.6379   1.9279   0.00    0.0
2188 434730.000   2251420.3808    862816.3890   5885475.8607   5   9   2.0967   1.5483   5.4583   0.3801   1.6365   1.9214   0.00    0.0
2188 434760.000   2251420.3766    862816.4353   5885475.7296   5   9   2.0953   1.5483   5.4570   0.3772   1.6349   1.9145   0.00    0.0
2188 434790.000   2251420.1502    862816.9710   5885476.1418   5   9   2.0938   1.5483   5.4552   0.3742   1.6331   1.9075   0.00    0.0
2188 434820.000   2251420.3959    862816.6492   5885475.6890   5   9   2.0924   1.5483   5.4528   0.3710   1.6311   1.9002   0.00    0.0
2188 434850.000   2251420.0629    862816.4576   5885474.8362   5   9   2.0909   1.5483   5.4499   0.3678   1.6288   1.8927   0.00    0.0
2188 434880.000   2251420.3086    862816.8001   5885475.4932   5   9   2.0895   1.5482   5.4466   0.3644   1.6264   1.8850   0.00    0.0
2188 434910.000   2251420.2207    862816.5839   5885475.7439   5   9   2.0880   1.5482   5.4427   0.3609   1.6238   1.8771   0.00    0.0
2188 434940.000   2251420.5178    862816.8385   5885475.1927   5   9   2.0866   1.5481   5.4383   0.3573   1.6210   1.8689   0.00    0.0
2188 434970.000   2251419.9141    862816.4944   5885474.8744   5   9   2.0852   1.5481   5.4335   0.3536   1.6180   1.8606   0.00    0.0
2188 435000.000   2251419.8892    862816.6214   5885474.9980   5   9   2.0838   1.5480   5.4281   0.3497   1.6147   1.8520   0.00    0.0
2188 435030.000   2251420.3217    862816.8109   5885474.6484   5   9   2.0823   1.5479   5.4223   0.3458   1.6113   1.8433   0.00    0.0
2188 435060.000   2251420.2919    862816.5911   5885475.3521   5   9   2.0809   1.5478   5.4160   0.3417   1.6077   1.8343   0.00    0.0
2188 435090.000   2251420.7024    862816.5444   5885476.2146   5   9   2.0795   1.5477   5.4093   0.3375   1.6039   1.8252   0.00    0.0
2188 435120.000   2251420.2746    862816.5816   5885475.7535   5   9   2.0782   1.5476   5.4020   0.3332   1.6000   1.8158   0.00    0.0
2188 435150.000   2251420.1814    862816.9039   5885475.4637   5   9   2.0768   1.5475   5.3944   0.3288   1.5958   1.8063   0.00    0.0
2188 435180.000   2251420.3644    862816.9239   5885475.6227   5   9   2.0755   1.5474   5.3863   0.3243   1.5914   1.7967   0.00    0.0
2188 435210.000   2251420.1988    862816.9717   5885476.0304   5   9   2.0741   1.5473   5.3777   0.3196   1.5869   1.7868   0.00    0.0
2188 435240.000   2251420.4026    862816.5859   5885475.2552   5   9   2.0728   1.5472   5.3688   0.3149   1.5822   1.7768   0.00    0.0
2188 435270.000   2251420.6882    862816.5806   5885475.0287   5   9   2.0715   1.5471   5.3594   0.3101   1.5774   1.7667   0.00    0.0
2188 435300.000   2251420.4645    862816.5579   5885475.1347   5   9   2.0703   1.5470   5.3497   0.3051   1.5723   1.7564   0.00    0.0
2188 435330.000   2251420.4638    862816.6451   5885475.7398   5   9   2.0690   1.5469   5.3395   0.3001   1.5671   1.7459   0.00    0.0
2188 435360.000   2251420.5778    862816.7249   5885474.9736   5   9   2.0678   1.5467   5.3290   0.2949   1.5618   1.7354   0.00    0.0
2188 435390.000   2251420.2540    862816.5162   5885475.4017   5   9   2.0666   1.5466   5.3181   0.2896   1.5562   1.7247   0.00    0.0
2188 435420.000   2251420.3139    862816.9785   5885475.9632   5   9   2.0655   1.5465   5.3068   0.2842   1.5505   1.7138   0.00    0.0
2188 435450.000   2251420.2135    862816.5083   5885475.1053   5   9   2.0644   1.5464   5.2952   0.2787   1.5447   1.7029   0.00    0.0
2188 435480.000   2251419.8916    862816.5410   5885475.0781   5   9   2.0633   1.5463   5.2832   0.2731   1.5387   1.6918   0.00    0.0
2188 435510.000   2251420.2921    862816.7059   5885475.6390   5   9   2.0622   1.5462   5.2710   0.2674   1.5326   1.6807   0.00    0.0
2188 435540.000   2251419.7275    862816.6346   5885476.0650   5   9   2.0612   1.5461   5.2584   0.2616   1.5263   1.6694   0.00    0.0
2188 435570.000   2251420.0136    862816.8708   5885476.2615   5   9   2.0602   1.5460   5.2455   0.2557   1.5199   1.6580   0.00    0.0
2188 435600.000   2251419.9140    862816.3118   5885474.7946   5   9   2.0592   1.5459   5.2323   0.2496   1.5134   1.6466   0.00    0.0
2188 435630.000   2251420.0497    862816.4718   5885475.2328   5   9   2.0583   1.5458   5.2188   0.2435   1.5067   1.6351   0.00    0.0
2188 435660.000   2251419.8329    862816.1956   5885474.5894   5   9   2.0575   1.5457   5.2051   0.2372   1.4999   1.6235   0.00    0.0
2188 435690.000   2251419.6267    862816.7431   5885474.8579   5   9   2.0566   1.5457   5.1911   0.2308   1.4930   1.6119   0.00    0.0
2188 435720.000   2251420.4599    862816.9069   5885475.9079   5   9   2.0558   1.5456   5.1769   0.2242   1.4860   1.6002   0.00    0.0
2188 435750.000   2251421.2343    862816.6484   5885476.1399   5   9   2.0551   1.5455   5.1624   0.2176   1.4788   1.5884   0.00    0.0
2188 435780.000   2251420.7323    862816.3756   5885475.5006   5   9   2.0544   1.5455   5.1477   0.2108   1.4716   1.5766   0.00    0.0
2188 435810.000   2251420.1571    862816.6060   5885475.9878   5   9   2.0537   1.5455   5.1329   0.2038   1.4642   1.5648   0.00    0.0
2188 435840.000   2251421.3582    862816.9361   5885475.8891   5   9   2.0531   1.5455   5.1178   0.1967   1.4567   1.5529   0.00    0.0
2188 435870.000   2251420.8997    862816.6249   5885476.1847   5   9   2.0525   1.5455   5.1025   0.1894   1.4492   1.5410   0.00    0.0
2188 435900.000   2251420.7996    862816.7097   5885475.8244   5   9   2.0520   1.5455   5.0871   0.1819   1.4415   1.5291   0.00    0.0
2188 435930.000   2251420.3282    862816.4355   5885475.2553   5   9   2.0516   1.5455   5.0715   0.1742   1.4338   1.5171   0.00    0.0
2188 435960.000   2251418.5331    862816.6530   5885473.4471   5   9   2.0512   1.5455   5.0557   0.1663   1.4259   1.5052   0.00    0.0
2188 435990.000   2251419.9604    862816.4693   5885475.1343   5   9   2.0508   1.5456   5.0398   0.1581   1.4180   1.4933   0.00    0.0
2188 436020.000   2251420.1470    862817.5846   5885477.0470   5   9   2.0505   1.5456   5.0238   0.1496   1.4100   1.4813   0.00    0.0
2188 436050.000   2251419.6259    862816.6637   5885475.8315   5   8   2.6418   1.5464   5.1497  -0.2352   1.3824   2.0395   0.00    0.0
2188 436080.000   2251420.2124    862816.1501   5885474.1422   5   8   2.6412   1.5465   5.1356  -0.2343   1.3748   2.0337   0.00    0.0
2188 436110.000   2251420.4292    862817.1329   5885476.7623   5   8   2.6406   1.5465   5.1213  -0.2335   1.3671   2.0278   0.00    0.0
2188 436140.000   2251420.0478    862816.8008   5885475.8875   5   8   2.6399   1.5466   5.1069  -0.2327   1.3593   2.0218   0.00    0.0
2188 436170.000   2251419.5133    862816.3919   5885474.7050   5   8   2.6393   1.5468   5.0924  -0.2319   1.3515   2.0157   0.00    0.0
2188 436200.000   2251420.2923    862816.6534   5885474.6540   5   8   2.6386   1.5469   5.0777  -0.2310   1.3436   2.0095   0.00    0.0
2188 436230.000   2251420.0086    862816.6010   5885474.2509   5   8   2.6378   1.5471   5.0630  -0.2302   1.3357   2.0031   0.00    0.0
2188 436260.000   2251420.0088    862816.7471   5885475.6333   5   8   2.6370   1.5473   5.0481  -0.2294   1.3277   1.9967   0.00    0.0
2188 436290.000   2251420.2009    862816.5702   5885474.6054   5   8   2.6362   1.5475   5.0331  -0.2285   1.3196   1.9902   0.00    0.0
2188 436320.000   2251420.0479    862816.4277   5885475.1104   5   8   2.6354   1.5477   5.0181  -0.2276   1.3115   1.9836   0.00    0.0
2188 436350.000   2251419.9955    862816.1099   5885475.1608   5   8   2.6345   1.5480   5.0030  -0.2267   1.3034   1.9770   0.00    0.0
2188 436380.000   2251419.9405    862816.2049   5885474.7479   5   8   2.6336   1.5483   4.9878  -0.2258   1.2952   1.9702   0.00    0.0
2188 436410.000   2251419.8592    862816.2613   5885474.2790   5   8   2.6327   1.5486   4.9725  -0.2249   1.2870   1.9634   0.00    0.0
2188 436440.000   2251419.5742    862816.1142   5885473.6272   5   8   2.6317   1.5490   4.9572  -0.2239   1.2787   1.9565   0.00    0.0
2188 436470.000   2251419.4039    862815.7703   5885473.0719   5   8   2.6307   1.5494   4.9419  -0.2228   1.2704   1.9496   0.00    0.0
2188 436500.000   2251419.8826    862816.4329   5885474.7570   5   8   2.6297   1.5498   4.9265  -0.2217   1.2621   1.9426   0.00    0.0
2188 436530.000   2251419.9753    862817.0774   5885477.3651   5   8   2.6287   1.5502   4.9111  -0.2206   1.2537   1.9355   0.00    0.0
2188 436560.000   2251419.7769    862816.4957   5885474.7210   5   8   2.6276   1.5507   4.8956  -0.2194   1.2453   1.9284   0.00    0.0
2188 436590.000   2251419.9301    862816.0178   5885473.9930   5   8   2.6265   1.5512   4.8802  -0.2182   1.2369   1.9212   0.00    0.0
2188 436620.000   2251420.2872    862816.9249   5885476.3896   5   8   2.6254   1.5517   4.8647  -0.2169   1.2285   1.9140   0.00    0.0
2188 436650.000   2251419.8596    862816.0419   5885475.7162   5   8   2.6242   1.5523   4.8493  -0.2155   1.2200   1.9068   0.00    0.0
2188 436680.000   2251419.6494    862815.6342   5885472.9672   5   8   2.6230   1.5529   4.8339  -0.2141   1.2115   1.8995   0.00    0.0
2188 436710.000   2251419.4127    862816.0688   5885473.7439   5   9   2.0457   1.5525   4.7248  -0.3709   1.1807   1.4248   0.00    0.0
2188 436740.000   2251419.4970    862816.8443   5885474.9358   5   9   2.0454   1.5531   4.7124  -0.3719   1.1721   1.4249   0.00    0.0
2188 436770.000   2251419.3940    862815.8722   5885472.1241   5   9   2.0451   1.5537   4.6999  -0.3730   1.1634   1.4250   0.00    0.0
2188 436800.000   2251420.1957    862815.9659   5885474.6916   5   9   2.0448   1.5544   4.6875  -0.3741   1.1547   1.4250   0.00    0.0
2188 436830.000   2251419.3332    862816.4484   5885474.4415   5   9   2.0445   1.5552   4.6750  -0.3753   1.1460   1.4250   0.00    0.0
2188 436860.000   2251420.0495    862816.4581   5885474.0353   5   9   2.0442   1.5559   4.6625  -0.3765   1.1373   1.4249   0.00    0.0
2188 436890.000   2251419.5064    862816.8092   5885475.5695   5   9   2.0440   1.5567   4.6500  -0.3777   1.1286   1.4248   0.00    0.0
2188 436920.000   2251419.0224    862816.9584   5885474.8484   5   9   2.0437   1.5575   4.6376  -0.3790   1.1199   1.4246   0.00    0.0
2188 436950.000   2251420.1669    862816.6939   5885474.7562   5   8   2.0438   2.0518   5.6549  -0.4346   2.3615   1.3861   0.00    0.0
2188 436980.000   2251419.8263    862816.4186   5885473.6261   5   8   2.0435   2.0515   5.6441  -0.4355   2.3561   1.3860   0.00    0.0
2188 437010.000   2251419.7342    862816.2775   5885474.8785   5   8   2.0433   2.0511   5.6331  -0.4365   2.3505   1.3859   0.00    0.0
2188 437040.000   2251419.7661    862816.3594   5885474.6039   5   8   2.0431   2.0508   5.6219  -0.4376   2.3447   1.3857   0.00    0.0
2188 437070.000   2251419.2025    862816.4872   5885472.7194   5   8   2.0429   2.0503   5.6104  -0.4387   2.3387   1.3854   0.00    0.0
2188 437100.000   2251419.6467    862816.5911   5885474.5323   5   8   2.0427   2.0499   5.5987  -0.4398   2.3325   1.3851   0.00    0.0
2188 437130.000   2251419.5369    862816.3672   5885473.6453   5   8   2.0426   2.0493   5.5868  -0.4410   2.3261   1.3848   0.00    0.0
2188 437160.000   2251419.5797    862816.4098   5885472.9721   5   8   2.0424   2.0488   5.5747  -0.4422   2.3195   1.3844   0.00    0.0
2188 437190.000   2251419.5965    862816.3585   5885475.7848   5   8   2.0422   2.0482   5.5624  -0.4435   2.3127   1.3840   0.00    0.0
2188 437220.000   2251419.3925    862817.0034   5885477.5118   5   9   2.0084   1.8821   3.9246   0.3160   1.4673   1.8339   0.00    0.0
2188 437250.000   2251419.3677    862817.3695   5885477.8405   5   9   2.0076   1.8829   3.9252   0.3166   1.4661   1.8356   0.00    0.0
2188 437280.000   2251419.6038    862816.7973   5885478.5815   5   9   2.0067   1.8838   3.9259   0.3171   1.4650   1.8372   0.00    0.0
2188 437310.000   2251419.4095    862816.5407   5885478.0176   5   9   2.0059   1.8846   3.9267   0.3174   1.4637   1.8387   0.00    0.0
2188 437340.000   2251419.4845    862817.2180   5885479.2478   5   9   2.0050   1.8854   3.9275   0.3177   1.4625   1.8402   0.00    0.0
2188 437370.000   2251419.5302    862816.6788   5885477.8726   5   9   2.0042   1.8862   3.9284   0.3178   1.4611   1.8416   0.00    0.0
2188 437400.000   2251419.5355    862816.4822   5885477.2405   5   9   2.0033   1.8871   3.9292   0.3178   1.4598   1.8430   0.00    0.0
2188 437430.000   2251419.8999    862816.8578   5885478.0112   5   9   2.0024   1.8879   3.9302   0.3177   1.4583   1.8443   0.00    0.0
2188 437460.000   2251419.7810    862817.1756   5885477.7220   5   9   2.0015   1.8887   3.9311   0.3174   1.4568   1.8456   0.00    0.0
2188 437490.000   2251419.9651    862816.8437   5885479.2848   5   9   2.0006   1.8895   3.9321   0.3170   1.4553   1.8467   0.00    0.0
2188 437520.000   2251419.8742    862817.0284   5885477.6389   5   8   2.0371   1.9524   4.7401  -0.2991   0.9059   2.1075   0.00    0.0
2188 437550.000   2251419.1891    862817.2267   5885475.7424   5   9   1.9988   1.8911   3.9342   0.3159   1.4520   1.8490   0.00    0.0
2188 437580.000   2251419.6284    862817.2738   5885476.9577   5   9   1.9979   1.8919   3.9353   0.3151   1.4503   1.8500   0.00    0.0
2188 437610.000   2251419.9731    862816.5196   5885477.9569   5   9   1.9970   1.8927   3.9364   0.3142   1.4485   1.8510   0.00    0.0
2188 437640.000   2251419.9124    862817.0070   5885478.0423   5   9   1.9960   1.8935   3.9376   0.3132   1.4466   1.8519   0.00    0.0
2188 437670.000   2251419.6841    862816.9767   5885479.7360   5   9   1.9951   1.8943   3.9388   0.3121   1.4446   1.8527   0.00    0.0
2188 437700.000   2251419.6133    862817.1250   5885479.5530   5   9   1.9941   1.8951   3.9400   0.3108   1.4426   1.8535   0.00    0.0
2188 437730.000   2251419.7745    862817.1190   5885478.9201   5   9   1.9931   1.8959   3.9413   0.3093   1.4405   1.8543   0.00    0.0
2188 437760.000   2251419.7512    862817.5110   5885479.2536   5   9   1.9922   1.8966   3.9426   0.3078   1.4383   1.8550   0.00    0.0
2188 437790.000   2251419.7561    862817.3761   5885478.9909   5   9   1.9912   1.8974   3.9439   0.3061   1.4360   1.8557   0.00    0.0
2188 437820.000   2251420.0473    862817.0446   5885480.2955   5   8   2.0415   1.9566   4.8967  -0.3512   0.8241   2.1830   0.00    0.0
2188 437850.000   2251419.8910    862817.0942   5885479.4940   5   8   2.0420   1.9570   4.9129  -0.3565   0.8147   2.1905   0.00    0.0
2188 437880.000   2251420.0632    862816.7413   5885479.8412   5   8   2.0424   1.9575   4.9292  -0.3617   0.8051   2.1979   0.00    0.0
2188 437910.000   2251420.0662    862817.1235   5885480.3185   5   8   2.0429   1.9579   4.9455  -0.3669   0.7953   2.2052   0.00    0.0
2188 437940.000   2251420.3855    862817.0069   5885480.2532   5   8   2.0434   1.9583   4.9619  -0.3721   0.7851   2.2126   0.00    0.0
2188 437970.000   2251420.0265    862817.1065   5885479.3840   5   8   2.0438   1.9588   4.9784  -0.3773   0.7747   2.2198   0.00    0.0
2188 438000.000   2251419.6153    862817.0779   5885478.8411   5   8   2.0443   1.9592   4.9949  -0.3825   0.7640   2.2271   0.00    0.0
2188 438030.000   2251419.9139    862816.5018   5885478.8794   5   8   2.0447   1.9597   5.0115  -0.3877   0.7530   2.2343   0.00    0.0
2188 438060.000   2251419.7953    862816.8176   5885479.2005   5   8   2.0452   1.9602   5.0280  -0.3929   0.7417   2.2414   0.00    0.0
2188 438090.000   2251420.2591    862816.9457   5885479.9534   5   8   2.0456   1.9606   5.0446  -0.3981   0.7300   2.2485   0.00    0.0
2188 438120.000   2251419.7478    862816.9413   5885479.5532   5   8   2.0460   1.9611   5.0613  -0.4033   0.7179   2.2556   0.00    0.0
2188 438150.000   2251420.1612    862816.8364   5885480.6635   5   8   2.0464   1.9616   5.0779  -0.4085   0.7055   2.2626   0.00    0.0
2188 438180.000   2251419.7077    862817.1830   5885480.9699   5   8   2.0468   1.9621   5.0945  -0.4137   0.6927   2.2695   0.00    0.0
2188 438210.000   2251419.8473    862817.0998   5885479.8949   5   8   2.0472   1.9626   5.1112  -0.4189   0.6794   2.2764   0.00    0.0
2188 438240.000   2251420.0200    862816.9505   5885479.8092   5   8   2.0476   1.9631   5.1278  -0.4240   0.6657   2.2832   0.00    0.0
2188 438270.000   2251419.6465    862816.9488   5885480.2045   5   8   2.0480   1.9636   5.1444  -0.4292   0.6515   2.2899   0.00    0.0
2188 438300.000   2251420.2407    862817.2360   5885480.0196   5   8   2.0483   1.9641   5.1609  -0.4344   0.6368   2.2966   0.00    0.0
2188 438330.000   2251419.8744    862816.9126   5885479.0926   5   8   2.0487   1.9646   5.1775  -0.4396   0.6216   2.3031   0.00    0.0
2188 438360.000   2251420.1212    862817.2387   5885480.2399   5   8   2.0490   1.9651   5.1940  -0.4447   0.6058   2.3096   0.00    0.0
2188 438390.000   2251419.9131    862816.9396   5885481.0880   5   8   2.0493   1.9657   5.2104  -0.4499   0.5893   2.3160   0.00    0.0
2188 438420.000   2251420.3201    862817.0352   5885479.1238   5   8   2.0496   1.9662   5.2267  -0.4550   0.5721   2.3223   0.00    0.0
2188 438450.000   2251419.8578    862816.9644   5885480.7181   5   8   2.0498   1.9668   5.2430  -0.4602   0.5542   2.3286   0.00    0.0
2188 438480.000   2251419.8865    862816.6738   5885479.1210   5   8   2.0501   1.9673   5.2592  -0.4653   0.5355   2.3347   0.00    0.0
2188 438510.000   2251420.1568    862816.9755   5885479.8558   5   8   2.0503   1.9679   5.2753  -0.4704   0.5158   2.3407   0.00    0.0
2188 438540.000   2251420.3344    862816.8919   5885480.7600   5   8   2.0505   1.9685   5.2914  -0.4755   0.4951   2.3466   0.00    0.0
2188 438570.000   2251419.9303    862816.1334   5885480.4193   5   9   2.0056   1.7042   5.0577  -0.8078  -1.1673   2.2015   0.00    0.0
2188 438600.000   2251419.6108    862816.2634   5885480.4435   5   9   2.0064   1.7040   5.0777  -0.8094  -1.1729   2.2097   0.00    0.0
2188 438630.000   2251419.7707    862816.4390   5885479.5131   5   9   2.0072   1.7037   5.0976  -0.8110  -1.1783   2.2179   0.00    0.0
2188 438660.000   2251419.5024    862816.4744   5885479.1708   5   9   2.0080   1.7035   5.1176  -0.8125  -1.1837   2.2259   0.00    0.0
2188 438690.000   2251419.7594    862816.1129   5885478.6577   5   9   2.0088   1.7033   5.1374  -0.8139  -1.1888   2.2339   0.00    0.0
2188 438720.000   2251419.6636    862816.6702   5885479.3080   5   9   2.0095   1.7031   5.1572  -0.8153  -1.1938   2.2419   0.00    0.0
2188 438750.000   2251419.8531    862816.5562   5885479.8537   5   9   2.0102   1.7029   5.1769  -0.8166  -1.1987   2.2497   0.00    0.0
2188 438780.000   2251419.8725    862816.5353   5885479.7864   5   9   2.0110   1.7027   5.1965  -0.8179  -1.2034   2.2574   0.00    0.0
2188 438810.000   2251419.7559    862816.2560   5885479.6672   5   9   2.0117   1.7026   5.2160  -0.8191  -1.2080   2.2650   0.00    0.0
2188 438840.000   2251419.7589    862816.1816   5885479.4243   5   9   2.0123   1.7024   5.2353  -0.8203  -1.2124   2.2725   0.00    0.0
2188 438870.000   2251419.6670    862816.2875   5885478.8566   5   9   2.0130   1.7023   5.2545  -0.8214  -1.2166   2.2799   0.00    0.0
2188 438900.000   2251419.7809    862816.4607   5885479.7316   5   9   2.0136   1.7021   5.2735  -0.8224  -1.2207   2.2872   0.00    0.0
2188 438930.000   2251420.0406    862816.2851   5885480.1960   5   9   2.0142   1.7019   5.2924  -0.8234  -1.2246   2.2943   0.00    0.0
2188 438960.000   2251419.9539    862816.2153   5885480.7631   5   9   2.0148   1.7018   5.3110  -0.8243  -1.2283   2.3013   0.00    0.0
2188 438990.000   2251419.8720    862816.6680   5885480.7137   5   9   2.0154   1.7017   5.3295  -0.8251  -1.2318   2.3081   0.00    0.0
2188 439020.000   2251419.5255    862816.4656   5885479.8893   5   9   2.0159   1.7015   5.3477  -0.8259  -1.2352   2.3148   0.00    0.0
2188 439050.000   2251420.0725    862816.6491   5885480.4532   5   9   2.0164   1.7014   5.3657  -0.8266  -1.2384   2.3214   0.00    0.0
2188 439080.000   2251419.9447    862816.4627   5885479.7038   5   9   2.0168   1.7013   5.3835  -0.8272  -1.2414   2.3278   0.00    0.0
2188 439110.000   2251419.5277    862816.3515   5885480.4838   5   9   2.0173   1.7012   5.4010  -0.8278  -1.2442   2.3340   0.00    0.0
2188 439140.000   2251419.9937    862816.6218   5885480.9141   5   9   2.0176   1.7010   5.4182  -0.8283  -1.2469   2.3400   0.00    0.0
2188 439170.000   2251419.9853    862816.9655   5885480.5633   5   9   2.0180   1.7009   5.4351  -0.8287  -1.2493   2.3458   0.00    0.0
2188 439200.000   2251419.5603    862816.7292   5885480.4928   5   9   2.0183   1.7008   5.4517  -0.8291  -1.2516   2.3515   0.00    0.0
2188 439230.000   2251419.8231    862816.1247   5885481.0412   5   9   2.0186   1.7007   5.4680  -0.8293  -1.2536   2.3569   0.00    0.0
2188 439260.000   2251419.5171    862816.5144   5885479.7983   5   9   2.0188   1.7006   5.4839  -0.8296  -1.2555   2.3622   0.00    0.0
2188 439290.000   2251419.4661    862816.3136   5885480.0411   5   9   2.0190   1.7005   5.4995  -0.8297  -1.2571   2.3672   0.00    0.0
2188 439320.000   2251419.8072    862816.7650   5885480.2996   5   9   2.0191   1.7004   5.5147  -0.8298  -1.2585   2.3721   0.00    0.0
2188 439350.000   2251419.8067    862816.9060   5885480.4255   5   9   2.0192   1.7003   5.5295  -0.8297  -1.2597   2.3767   0.00    0.0
2188 439380.000   2251419.5593    862816.7036   5885479.7409   5   9   2.0192   1.7002   5.5440  -0.8296  -1.2607   2.3810   0.00    0.0
2188 439410.000   2251420.0377    862816.5219   5885479.3569   5   9   2.0192   1.7001   5.5580  -0.8295  -1.2615   2.3852   0.00    0.0
2188 439440.000   2251419.6937    862816.8227   5885479.8236   5   9   2.0191   1.7000   5.5716  -0.8292  -1.2621   2.3891   0.00    0.0
2188 439470.000   2251419.9230    862816.8274   5885480.0034   5   9   2.0190   1.6999   5.5847  -0.8289  -1.2624   2.3927   0.00    0.0
2188 439500.000   2251420.2538    862816.8191   5885481.1626   5   9   2.0188   1.6998   5.5974  -0.8285  -1.2625   2.3961   0.00    0.0
2188 439530.000   2251419.8786    862816.5248   5885480.7191   5   9   2.0186   1.6997   5.6096  -0.8280  -1.2624   2.3993   0.00    0.0
2188 439560.000   2251419.7911    862816.4081   5885479.6863   5   9   2.0183   1.6996   5.6213  -0.8275  -1.2620   2.4022   0.00    0.0
2188 439590.000   2251419.8897    862816.4383   5885480.4675   5   9   2.0179   1.6995   5.6325  -0.8268  -1.2615   2.4048   0.00    0.0
2188 439620.000   2251419.6856    862816.4379   5885480.4852   5   9   2.0175   1.6994   5.6432  -0.8261  -1.2606   2.4072   0.00    0.0
2188 439650.000   2251419.7448    862816.9202   5885479.6163   5   9   2.0170   1.6994   5.6534  -0.8253  -1.2596   2.4092   0.00    0.0
2188 439680.000   2251419.8848    862816.5514   5885480.4063   5   9   2.0165   1.6993   5.6630  -0.8244  -1.2583   2.4110   0.00    0.0
2188 439710.000   2251419.5808    862816.5685   5885479.9630   5   9   2.0159   1.6992   5.6721  -0.8235  -1.2567   2.4126   0.00    0.0
2188 439740.000   2251419.6384    862816.7766   5885480.0260   5   9   2.0153   1.6991   5.6807  -0.8224  -1.2549   2.4138   0.00    0.0
2188 439770.000   2251419.4654    862816.2590   5885479.3134   5   9   2.0146   1.6991   5.6887  -0.8213  -1.2529   2.4147   0.00    0.0
2188 439800.000   2251419.5504    862816.2136   5885479.9411   5   9   2.0138   1.6990   5.6961  -0.8201  -1.2506   2.4154   0.00    0.0
2188 439830.000   2251419.3402    862816.5553   5885479.0885   5   9   2.0130   1.6989   5.7029  -0.8188  -1.2480   2.4157   0.00    0.0
2188 439860.000   2251419.5610    862816.5857   5885480.0894   5   9   2.0121   1.6989   5.7092  -0.8174  -1.2453   2.4158   0.00    0.0
2188 439890.000   2251420.1372    862816.8002   5885480.4460   5   9   2.0111   1.6988   5.7148  -0.8160  -1.2422   2.4156   0.00    0.0
2188 439920.000   2251419.7083    862816.5976   5885480.1449   5   9   2.0101   1.6988   5.7198  -0.8145  -1.2389   2.4150   0.00    0.0
2188 439950.000   2251419.4909    862816.1912   5885479.5333   5   9   2.0090   1.6987   5.7242  -0.8129  -1.2354   2.4142   0.00    0.0
2188 439980.000   2251419.5772    862816.6376   5885479.8314   5   9   2.0079   1.6987   5.7280  -0.8112  -1.2316   2.4130   0.00    0.0
2188 440010.000   2251419.5295    862816.8715   5885479.5453   5   9   2.0066   1.6986   5.7312  -0.8094  -1.2276   2.4116   0.00    0.0
2188 440040.000   2251419.2816    862816.5808   5885478.9188   5   9   2.0054   1.6986   5.7338  -0.8076  -1.2233   2.4098   0.00    0.0
2188 440070.000   2251419.7196    862816.3825   5885479.1066   5   9   2.0041   1.6986   5.7357  -0.8057  -1.2187   2.4078   0.00    0.0
2188 440100.000   2251420.1467    862816.7001   5885479.2317   5   9   2.0027   1.6986   5.7370  -0.8037  -1.2139   2.4054   0.00    0.0
2188 440130.000   2251419.6956    862816.3585   5885479.3975   5   9   2.0012   1.6986   5.7377  -0.8016  -1.2089   2.4027   0.00    0.0
2188 440160.000   2251419.4914    862816.8124   5885479.5136   5   9   1.9997   1.6986   5.7377  -0.7995  -1.2036   2.3998   0.00    0.0
2188 440190.000   2251419.4732    862816.5665   5885479.1388   5   9   1.9982   1.6986   5.7372  -0.7973  -1.1981   2.3965   0.00    0.0
2188 440220.000   2251419.5973    862816.9380   5885479.8073   5   9   1.9966   1.6986   5.7359  -0.7950  -1.1923   2.3929   0.00    0.0
2188 440250.000   2251419.5231    862816.8970   5885479.3010   5   9   1.9949   1.6986   5.7341  -0.7927  -1.1862   2.3891   0.00    0.0
2188 440280.000   2251419.5276    862816.7021   5885479.9360   5   9   1.9932   1.6987   5.7316  -0.7903  -1.1800   2.3849   0.00    0.0
2188 440310.000   2251419.8262    862816.7574   5885479.4626   5   9   1.9914   1.6987   5.7286  -0.7878  -1.1734   2.3805   0.00    0.0
2188 440340.000   2251419.5765    862816.8782   5885478.4503   5   9   1.9896   1.6988   5.7249  -0.7853  -1.1667   2.3758   0.00    0.0
2188 440370.000   2251419.3932    862816.7314   5885479.1428   5   9   1.9878   1.6989   5.7205  -0.7827  -1.1597   2.3708   0.00    0.0
2188 440400.000   2251419.7638    862816.8082   5885478.9216   5   9   1.9859   1.6990   5.7156  -0.7800  -1.1525   2.3655   0.00    0.0
2188 440430.000   2251419.4764    862816.3073   5885479.4027   5   9   1.9839   1.6991   5.7101  -0.7773  -1.1450   2.3599   0.00    0.0
2188 440460.000   2251419.3493    862816.7232   5885478.6042   5   9   1.9819   1.6992   5.7040  -0.7745  -1.1373   2.3541   0.00    0.0
2188 440490.000   2251419.8440    862816.6584   5885479.7766   5   9   1.9799   1.6994   5.6973  -0.7717  -1.1294   2.3480   0.00    0.0
2188 440520.000   2251419.4000    862816.8005   5885478.1424   5   9   1.9778   1.6995   5.6901  -0.7688  -1.1212   2.3417   0.00    0.0
2188 440550.000   2251419.1933    862816.8829   5885478.4323   5   9   1.9757   1.6997   5.6822  -0.7658  -1.1128   2.3351   0.00    0.0
2188 440580.000   2251419.1475    862816.4347   5885478.3761   5   9   1.9736   1.6999   5.6739  -0.7628  -1.1042   2.3282   0.00    0.0
2188 440610.000   2251419.3267    862816.4154   5885478.0175   5   9   1.9715   1.7001   5.6649  -0.7598  -1.0954   2.3211   0.00    0.0
2188 440640.000   2251419.4526    862816.1337   5885478.5678   5   9   1.9693   1.7003   5.6555  -0.7567  -1.0863   2.3138   0.00    0.0
2188 440670.000   2251419.2824    862816.3550   5885478.7018   5   9   1.9670   1.7006   5.6455  -0.7536  -1.0770   2.3063   0.00    0.0
2188 440700.000   2251419.3154    862816.6882   5885478.4602   5   9   1.9648   1.7008   5.6350  -0.7504  -1.0676   2.2985   0.00    0.0
2188 440730.000   2251419.1678    862816.4273   5885478.3860   5   9   1.9625   1.7011   5.6240  -0.7471  -1.0579   2.2905   0.00    0.0
2188 440760.000   2251419.8726    862816.6199   5885479.2460   5   8   2.0406   1.9757   6.0450   0.1265   1.0754   2.5459   0.00    0.0
2188 440790.000   2251419.2630    862817.0265   5885478.1195   5   8   2.0388   1.9771   6.0428   0.1542   1.0983   2.5418   0.00    0.0
2188 440820.000   2251419.7157    862816.8385   5885479.6716   5   8   2.0370   1.9785   6.0401   0.1773   1.1206   2.5374   0.00    0.0
2188 440850.000   2251419.5135    862816.8855   5885479.0111   5   8   2.0352   1.9799   6.0368   0.1977   1.1423   2.5328   0.00    0.0
2188 440880.000   2251419.3064    862817.1439   5885478.5081   5   8   2.0333   1.9813   6.0330   0.2159   1.1635   2.5279   0.00    0.0
2188 440910.000   2251419.1983    862816.8272   5885478.4230   5   8   2.0314   1.9828   6.0287   0.2325   1.1842   2.5227   0.00    0.0
2188 440940.000   2251419.5522    862816.6839   5885478.5431   5   8   2.0294   1.9843   6.0238   0.2479   1.2043   2.5173   0.00    0.0
2188 440970.000   2251419.5815    862816.6853   5885478.2585   5   8   2.0274   1.9858   6.0184   0.2622   1.2239   2.5117   0.00    0.0
2188 441000.000   2251419.7505    862816.5796   5885478.9793   5   8   2.0253   1.9874   6.0124   0.2755   1.2430   2.5058   0.00    0.0
2188 441030.000   2251419.6306    862816.9016   5885479.2558   5   8   2.0233   1.9890   6.0060   0.2881   1.2616   2.4996   0.00    0.0
2188 441060.000   2251419.1384    862817.0482   5885479.2579   5   8   2.0212   1.9907   5.9990   0.2999   1.2798   2.4933   0.00    0.0
2188 441090.000   2251419.4728    862816.9352   5885479.0566   5   8   2.0190   1.9923   5.9915   0.3112   1.2975   2.4867   0.00    0.0
2188 441120.000   2251419.4612    862816.8527   5885479.2065   5   8   2.0169   1.9940   5.9836   0.3218   1.3147   2.4799   0.00    0.0
2188 441150.000   2251419.1430    862816.9343   5885478.6520   5   8   2.0147   1.9957   5.9751   0.3319   1.3314   2.4729   0.00    0.0
2188 441180.000   2251419.4540    862817.2368   5885479.0830   5   8   2.0125   1.9975   5.9662   0.3416   1.3477   2.4656   0.00    0.0
2188 441210.000   2251419.5042    862817.3129   5885479.0712   5   8   2.0102   1.9992   5.9567   0.3508   1.3636   2.4582   0.00    0.0
2188 441240.000   2251418.8731    862817.3339   5885478.1548   5   8   2.0080   2.0010   5.9468   0.3596   1.3790   2.4505   0.00    0.0
2188 441270.000   2251419.0980    862817.1522   5885478.3918   5   9   1.6848   1.9990   5.4762   0.5199   1.4924   1.8634   0.00    0.0
2188 441300.000   2251419.2664    862817.0905   5885479.1890   5   9   1.6843   2.0010   5.4756   0.5228   1.5032   1.8629   0.00    0.0
2188 441330.000   2251419.3175    862817.0839   5885478.3986   5   9   1.6839   2.0029   5.4746   0.5257   1.5137   1.8621   0.00    0.0
2188 441360.000   2251419.0001    862816.9294   5885477.9481   5   9   1.6834   2.0049   5.4731   0.5284   1.5240   1.8613   0.00    0.0
2188 441390.000   2251419.4112    862817.2645   5885479.3230   5   9   1.6830   2.0069   5.4712   0.5311   1.5340   1.8603   0.00    0.0
2188 441420.000   2251419.2689    862817.4357   5885477.8603   5   9   1.6825   2.0089   5.4688   0.5338   1.5438   1.8591   0.00    0.0
2188 441450.000   2251419.0078    862817.2480   5885477.8505   5   9   1.6821   2.0109   5.4659   0.5363   1.5533   1.8578   0.00    0.0
2188 441480.000   2251418.9916    862817.1446   5885477.9919   5   9   1.6816   2.0130   5.4626   0.5388   1.5625   1.8564   0.00    0.0
2188 441510.000   2251418.8089    862817.0801   5885477.8888   5   9   1.6812   2.0150   5.4589   0.5412   1.5714   1.8548   0.00    0.0
2188 441540.000   2251419.1855    862817.0893   5885478.0931   5   9   1.6808   2.0170   5.4547   0.5435   1.5801   1.8531   0.00    0.0
2188 441570.000   2251419.1556    862816.7140   5885477.4906   5   9   1.6803   2.0190   5.4501   0.5457   1.5886   1.8513   0.00    0.0
2188 441600.000   2251419.2859    862817.1495   5885477.7293   5   9   1.6799   2.0211   5.4450   0.5479   1.5967   1.8493   0.00    0.0
2188 441630.000   2251419.0765    862817.2441   5885477.7381   5   9   1.6794   2.0231   5.4395   0.5500   1.6046   1.8472   0.00    0.0
2188 441660.000   2251419.2646    862816.9332   5885477.5295   5   9   1.6790   2.0251   5.4336   0.5520   1.6123   1.8449   0.00    0.0
2188 441690.000   2251419.3121    862817.2376   5885478.2043   5   9   1.6786   2.0271   5.4272   0.5539   1.6196   1.8425   0.00    0.0
2188 441720.000   2251419.0840    862817.0199   5885477.7540   5   9   1.6782   2.0291   5.4204   0.5557   1.6267   1.8400   0.00    0.0
2188 441750.000   2251418.8243    862817.1705   5885477.0096   5   9   1.6777   2.0311   5.4132   0.5575   1.6335   1.8373   0.00    0.0
2188 441780.000   2251419.0836    862817.1863   5885477.4926   5   9   1.6773   2.0332   5.4056   0.5592   1.6401   1.8345   0.00    0.0
2188 441810.000   2251419.0917    862817.0721   5885477.9315   5   9   1.6769   2.0352   5.3976   0.5608   1.6464   1.8316   0.00    0.0
2188 441840.000   2251418.9743    862817.2414   5885476.7962   5   9   1.6765   2.0371   5.3892   0.5623   1.6524   1.8286   0.00    0.0
2188 441870.000   2251419.5441    862817.1004   5885478.0114   5   9   1.6761   2.0391   5.3804   0.5638   1.6582   1.8255   0.00    0.0
2188 441900.000   2251419.2512    862817.2111   5885477.9153   5   9   1.6757   2.0411   5.3712   0.5651   1.6637   1.8222   0.00    0.0
2188 441930.000   2251418.8944    862817.1630   5885477.5200   5   9   1.6753   2.0431   5.3616   0.5664   1.6689   1.8188   0.00    0.0
2188 441960.000   2251419.1273    862817.1779   5885476.9822   5   9   1.6749   2.0450   5.3517   0.5676   1.6739   1.8153   0.00    0.0
2188 441990.000   2251418.5867    862817.1265   5885477.2320   5   9   1.6745   2.0469   5.3414   0.5688   1.6787   1.8117   0.00    0.0
2188 442020.000   2251419.2932    862817.2503   5885478.0023   5   9   1.6741   2.0489   5.3307   0.5698   1.6831   1.8080   0.00    0.0
2188 442050.000   2251419.2402    862817.3083   5885478.1629   5   9   1.6737   2.0508   5.3197   0.5708   1.6873   1.8042   0.00    0.0
2188 442080.000   2251419.0455    862816.9938   5885478.3126   5   9   1.6734   2.0527   5.3084   0.5717   1.6913   1.8002   0.00    0.0
2188 442110.000   2251418.8521    862816.9843   5885477.8904   5   9   1.6730   2.0545   5.2967   0.5725   1.6950   1.7962   0.00    0.0
2188 442140.000   2251419.0212    862817.3483   5885477.2047   5   9   1.6726   2.0564   5.2847   0.5733   1.6985   1.7921   0.00    0.0
2188 442170.000   2251419.2189    862817.3646   5885477.5007   5   9   1.6723   2.0582   5.2724   0.5740   1.7017   1.7879   0.00    0.0
2188 442200.000   2251419.2215    862816.9611   5885477.1191   5   9   1.6719   2.0601   5.2599   0.5746   1.7047   1.7836   0.00    0.0
2188 442230.000   2251419.0693    862817.1905   5885478.0174   5   9   1.6716   2.0619   5.2470   0.5751   1.7074   1.7793   0.00    0.0
2188 442260.000   2251419.2018    862816.9566   5885477.2354   5   9   1.6713   2.0637   5.2338   0.5756   1.7099   1.7748   0.00    0.0
2188 442290.000   2251418.8361    862817.1680   5885477.3138   5   9   1.6710   2.0654   5.2204   0.5760   1.7121   1.7703   0.00    0.0
2188 442320.000   2251419.1591    862817.0365   5885477.0063   5   9   1.6707   2.0672   5.2067   0.5763   1.7142   1.7657   0.00    0.0
2188 442350.000   2251418.9079    862817.0916   5885476.5884   5   9   1.6704   2.0689   5.1928   0.5766   1.7160   1.7610   0.00    0.0
2188 442380.000   2251418.9508    862817.0420   5885476.3739   5   9   1.6701   2.0706   5.1786   0.5768   1.7175   1.7563   0.00    0.0
2188 442410.000   2251418.9669    862816.8172   5885476.3061   5   9   1.6699   2.0723   5.1642   0.5769   1.7189   1.7515   0.00    0.0
2188 442440.000   2251419.0178    862816.9237   5885475.7748   5   9   1.6696   2.0740   5.1496   0.5769   1.7200   1.7467   0.00    0.0
2188 442470.000   2251418.8694    862817.2475   5885475.8431   5   9   1.6694   2.0757   5.1348   0.5769   1.7209   1.7418   0.00    0.0
2188 442500.000   2251418.7518    862816.8683   5885476.0827   5   9   1.6692   2.0773   5.1198   0.5769   1.7216   1.7368   0.00    0.0
2188 442530.000   2251419.0544    862816.8025   5885476.2640   5   9   1.6690   2.0789   5.1046   0.5767   1.7221   1.7318   0.00    0.0
2188 442560.000   2251418.9808    862816.7237   5885476.0569   5   9   1.6688   2.0805   5.0892   0.5765   1.7224   1.7268   0.00    0.0
2188 442590.000   2251418.9928    862816.9556   5885476.1810   5   9   1.6686   2.0820   5.0736   0.5763   1.7224   1.7217   0.00    0.0
2188 442620.000   2251418.9944    862816.9660   5885475.6481   5   9   1.6684   2.0836   5.0579   0.5759   1.7223   1.7166   0.00    0.0
2188 442650.000   2251419.2561    862817.1467   5885476.6142   5   9   1.6683   2.0851   5.0421   0.5756   1.7220   1.7115   0.00    0.0
2188 442680.000   2251418.9368    862817.0068   5885475.9539   5   9   1.6682   2.0866   5.0261   0.5751   1.7214   1.7064   0.00    0.0
2188 442710.000   2251418.5895    862817.2686   5885475.8107   5   9   1.6681   2.0881   5.0100   0.5747   1.7207   1.7012   0.00    0.0
2188 442740.000   2251419.0112    862816.9857   5885476.1603   5   9   1.6680   2.0895   4.9937   0.5741   1.7198   1.6960   0.00    0.0
2188 442770.000   2251419.2831    862816.8798   5885476.8368   5   9   1.6679   2.0909   4.9774   0.5735   1.7188   1.6908   0.00    0.0
2188 442800.000   2251418.9754    862816.9685   5885476.9651   5   9   1.6679   2.0923   4.9610   0.5729   1.7175   1.6856   0.00    0.0
2188 442830.000   2251418.7024    862817.0926   5885476.4597   5   9   1.6679   2.0937   4.9445   0.5722   1.7161   1.6804   0.00    0.0
2188 442860.000   2251419.0784    862817.1215   5885477.2056   5   9   1.6679   2.0951   4.9279   0.5714   1.7145   1.6752   0.00    0.0
2188 442890.000   2251418.9041    862817.0441   5885476.5296   5   9   1.6679   2.0964   4.9112   0.5706   1.7127   1.6700   0.00    0.0
2188 442920.000   2251418.9954    862816.8083   5885476.5468   5   9   1.6680   2.0977   4.8945   0.5698   1.7107   1.6648   0.00    0.0
2188 442950.000   2251418.9173    862817.1788   5885475.9405   5   9   1.6680   2.0990   4.8777   0.5689   1.7086   1.6596   0.00    0.0
2188 442980.000   2251418.7408    862816.9628   5885475.6456   5   9   1.6681   2.1003   4.8609   0.5679   1.7064   1.6544   0.00    0.0
2188 443010.000   2251418.5241    862817.1821   5885474.9031   5   8   1.9370   2.1254   5.2147   0.0957   1.5136   2.1495   0.00    0.0
2188 443040.000   2251418.9031    862816.8879   5885475.8740   5   8   1.9375   2.1263   5.2014   0.0990   1.5114   2.1474   0.00    0.0
2188 443070.000   2251418.5718    862816.9372   5885475.7771   5   8   1.9380   2.1272   5.1879   0.1018   1.5090   2.1451   0.00    0.0
2188 443100.000   2251418.4218    862816.7896   5885475.6784   5   8   1.9386   2.1281   5.1743   0.1044   1.5065   2.1428   0.00    0.0
2188 443130.000   2251419.4141    862816.8000   5885475.9358   5   8   1.9390   2.1289   5.1606   0.1066   1.5039   2.1404   0.00    0.0
2188 443160.000   2251418.7232    862816.8929   5885474.3020   5   8   1.9395   2.1298   5.1468   0.1085   1.5011   2.1379   0.00    0.0
2188 443190.000   2251418.4495    862816.4207   5885475.1481   5   8   1.9400   2.1307   5.1329   0.1102   1.4982   2.1353   0.00    0.0
2188 443220.000   2251418.9049    862817.0810   5885474.1818   5   8   1.9404   2.1315   5.1189   0.1116   1.4951   2.1326   0.00    0.0
2188 443250.000   2251419.0213    862816.8216   5885475.3842   5   8   1.9408   2.1323   5.1048   0.1128   1.4920   2.1298   0.00    0.0
2188 443280.000   2251418.7043    862817.0183   5885475.2074   5   8   1.9412   2.1331   5.0906   0.1138   1.4887   2.1270   0.00    0.0
2188 443310.000   2251418.8355    862816.5545   5885475.5756   5   8   1.9416   2.1340   5.0763   0.1145   1.4853   2.1240   0.00    0.0
2188 443340.000   2251418.0922    862816.7000   5885474.3803   5   8   1.9419   2.1348   5.0619   0.1151   1.4817   2.1210   0.00    0.0
2188 443370.000   2251418.7651    862817.1099   5885474.5599   5   8   1.9422   2.1355   5.0475   0.1155   1.4781   2.1179   0.00    0.0
2188 443400.000   2251418.7735    862817.0350   5885474.6797   5   8   1.9425   2.1363   5.0330   0.1157   1.4743   2.1148   0.00    0.0
2188 443430.000   2251418.6930    862816.6114   5885474.4153   5   8   1.9428   2.1371   5.0185   0.1158   1.4704   2.1115   0.00    0.0
2188 443460.000   2251418.6985    862817.0085   5885474.2718   5   8   1.9431   2.1378   5.0039   0.1157   1.4664   2.1082   0.00    0.0
2188 443490.000   2251418.7082    862816.8023   5885474.7409   5   8   1.9434   2.1386   4.9893   0.1154   1.4623   2.1049   0.00    0.0
2188 443520.000   2251418.5109    862816.6902   5885473.8765   5   8   1.9436   2.1393   4.9747   0.1149   1.4581   2.1014   0.00    0.0
2188 443550.000   2251418.8236    862816.7066   5885474.8415   5   8   1.9438   2.1401   4.9600   0.1144   1.4538   2.0979   0.00    0.0
2188 443580.000   2251418.5322    862817.2732   5885474.5060   5   8   1.9440   2.1408   4.9453   0.1137   1.4494   2.0944   0.00    0.0
2188 443610.000   2251418.6922    862817.0089   5885474.8145   5   8   1.9442   2.1415   4.9306   0.1128   1.4449   2.0908   0.00    0.0
2188 443640.000   2251418.7300    862816.5225   5885474.8947   5   8   1.9444   2.1422   4.9159   0.1118   1.4402   2.0871   0.00    0.0
2188 443670.000   2251419.0630    862816.6566   5885473.6013   5   9   1.9445   2.0254   3.9333  -0.0388   0.1179   2.0696   0.00    0.0
2188 443700.000   2251418.3624    862816.4211   5885473.1860   5   9   1.9447   2.0260   3.9318   0.0489   0.1236   2.0701   0.00    0.0
2188 443730.000   2251418.7692    862816.9438   5885473.6703   5   9   1.9448   2.0267   3.9303   0.0794   0.1292   2.0705   0.00    0.0
2188 443760.000   2251418.3699    862816.4026   5885473.2621   5   9   1.9450   2.0274   3.9289   0.1012   0.1347   2.0709   0.00    0.0
2188 443790.000   2251418.7325    862816.6416   5885473.0484   5   9   1.9451   2.0281   3.9274   0.1192   0.1399   2.0712   0.00    0.0
2188 443820.000   2251418.3374    862816.5633   5885473.4193   5   9   1.9451   2.0288   3.9260   0.1348   0.1450   2.0715   0.00    0.0
2188 443850.000   2251418.3579    862816.4716   5885474.0398   5   9   1.9452   2.0295   3.9246   0.1488   0.1500   2.0717   0.00    0.0
2188 443880.000   2251418.7473    862816.9669   5885473.7126   5   9   1.9452   2.0302   3.9233   0.1617   0.1548   2.0718   0.00    0.0
2188 443910.000   2251418.8551    862816.8038   5885473.5268   5   9   1.9451   2.0309   3.9219   0.1736   0.1594   2.0718   0.00    0.0
2188 443940.000   2251418.2046    862817.0484   5885472.4030   5   9   1.9451   2.0317   3.9206   0.1848   0.1638   2.0718   0.00    0.0
2188 443970.000   2251418.1192    862816.4314   5885472.1897   5   9   1.9450   2.0324   3.9193   0.1954   0.1681   2.0717   0.00    0.0
2188 444000.000   2251418.4378    862816.3770   5885473.4256   5   9   1.9449   2.0332   3.9180   0.2055   0.1722   2.0716   0.00    0.0
2188 444030.000   2251418.4793    862816.9015   5885473.4587   5   9   1.9447   2.0340   3.9167   0.2152   0.1761   2.0714   0.00    0.0
2188 444060.000   2251418.0199    862816.9483   5885473.2414   5   9   1.9445   2.0347   3.9154   0.2244   0.1799   2.0711   0.00    0.0
2188 444090.000   2251418.2988    862816.7133   5885472.7480   5   9   1.9443   2.0355   3.9141   0.2333   0.1834   2.0708   0.00    0.0
2188 444120.000   2251418.9080    862816.7265   5885473.7157   5   9   1.9440   2.0364   3.9129   0.2419   0.1868   2.0704   0.00    0.0
2188 444150.000   2251418.4175    862816.3733   5885472.6657   5   9   1.9437   2.0372   3.9117   0.2502   0.1900   2.0699   0.00    0.0
2188 444180.000   2251418.6701    862816.5954   5885472.4392   5   9   1.9434   2.0380   3.9105   0.2582   0.1930   2.0694   0.00    0.0
2188 444210.000   2251418.6289    862816.3642   5885472.7355   5   9   1.9431   2.0389   3.9093   0.2660   0.1958   2.0688   0.00    0.0
2188 444240.000   2251418.5123    862816.9739   5885473.2625   5   9   1.9427   2.0397   3.9081   0.2736   0.1984   2.0681   0.00    0.0
2188 444270.000   2251418.3372    862817.0572   5885473.5155   5   9   1.9423   2.0406   3.9069   0.2811   0.2009   2.0674   0.00    0.0
2188 444300.000   2251418.4826    862816.8235   5885473.3113   5   9   1.9418   2.0415   3.9058   0.2883   0.2031   2.0666   0.00    0.0
2188 444330.000   2251418.4527    862817.0556   5885473.0139   5   9   1.9414   2.0424   3.9047   0.2953   0.2051   2.0658   0.00    0.0
2188 444360.000   2251418.3663    862816.7822   5885472.4345   5   9   1.9409   2.0433   3.9036   0.3022   0.2068   2.0649   0.00    0.0
2188 444390.000   2251418.2195    862817.1039   5885472.1604   5   9   1.9404   2.0442   3.9026   0.3090   0.2084   2.0639   0.00    0.0
2188 444420.000   2251418.3528    862816.7002   5885473.0400   5   9   1.9398   2.0451   3.9016   0.3156   0.2097   2.0629   0.00    0.0
2188 444450.000   2251418.4169    862816.2032   5885473.6237   5   9   1.9392   2.0461   3.9006   0.3220   0.2107   2.0618   0.00    0.0
2188 444480.000   2251418.4025    862816.8601   5885473.9940   5   9   1.9386   2.0471   3.8996   0.3284   0.2116   2.0607   0.00    0.0
2188 444510.000   2251418.6217    862816.9704   5885473.2869   5   9   1.9380   2.0480   3.8987   0.3346   0.2121   2.0595   0.00    0.0
2188 444540.000   2251418.3893    862816.8341   5885472.2211   5   9   1.9373   2.0490   3.8978   0.3407   0.2124   2.0583   0.00    0.0
2188 444570.000   2251418.5326    862816.9962   5885470.5781   5   8   1.9869   2.2871   5.6476  -0.5747  -2.0248   2.4591   0.00    0.0
2188 444600.000   2251418.5576    862816.7895   5885473.0049   5   8   1.9873   2.2881   5.6604  -0.5755  -2.0295   2.4639   0.00    0.0
2188 444630.000   2251418.8135    862816.2276   5885474.1489   5   8   1.9877   2.2890   5.6730  -0.5762  -2.0340   2.4684   0.00    0.0
2188 444660.000   2251418.8192    862816.2272   5885473.9247   5   8   1.9881   2.2899   5.6854  -0.5768  -2.0384   2.4729   0.00    0.0
2188 444690.000   2251418.7522    862816.4331   5885473.1788   5   8   1.9884   2.2907   5.6975  -0.5772  -2.0426   2.4771   0.00    0.0
2188 444720.000   2251418.7331    862816.4263   5885471.5607   5   8   1.9886   2.2916   5.7093  -0.5774  -2.0465   2.4812   0.00    0.0
2188 444750.000   2251418.8501    862816.5624   5885473.5688   5   8   1.9888   2.2924   5.7209  -0.5775  -2.0504   2.4851   0.00    0.0
2188 444780.000   2251419.1792    862816.3184   5885474.6996   5   8   1.9890   2.2932   5.7322  -0.5774  -2.0540   2.4889   0.00    0.0
2188 444810.000   2251418.9340    862816.3245   5885474.5737   5   8   1.9891   2.2939   5.7431  -0.5772  -2.0574   2.4925   0.00    0.0
2188 444840.000   2251418.3863    862816.3227   5885472.5538   5   8   1.9892   2.2947   5.7538  -0.5768  -2.0606   2.4958   0.00    0.0
2188 444870.000   2251418.5381    862816.5359   5885471.7626   5   8   1.9892   2.2954   5.7642  -0.5762  -2.0637   2.4990   0.00    0.0
2188 444900.000   2251418.5235    862816.1311   5885471.0006   5   8   1.9892   2.2960   5.7743  -0.5754  -2.0665   2.5020   0.00    0.0
