% program   : RTKLIB ver.demo5 b34j
% inp file  : E:\GAMPII-GOOD\dataset_Win\obs\2021\351\MGEX\daily\kir83510.21o
% inp file  : E:\Navigation_Learn\GNSS\RTKLIB-b34k\data\data_IGM-A1_Vehicle_open_20211217-nsh\brdm3510.21p
% inp file  : E:\Navigation_Learn\GNSS\RTKLIB-b34k\data\data_IGM-A1_Vehicle_open_20211217-nsh\wum21885.sp3
% inp file  : E:\Navigation_Learn\GNSS\RTKLIB-b34k\data\data_IGM-A1_Vehicle_open_20211217-nsh\wum21885.clk
% inp file  : E:\Navigation_Learn\GNSS\RTKLIB-b34k\data\data_IGM-A1_Vehicle_open_20211217-nsh\CAS0MGXRAP_20213510000_01D_01D_DCB.BSX
% obs start : 2021/12/17 00:00:00.0 GPST (week2188 432000.0s)
% obs end   : 2021/12/17 23:59:30.0 GPST (week2188 518370.0s)
% pos mode  : PPP Kinematic
% solution  : Forward
% elev mask : 10.0 deg
% dynamics  : off
% tidecorr  : off
% tropo opt : Saastamoinen
% ephemeris : Precise
% navi sys  : GPS
% antenna1  : LEIAR25.R3      LEIT  ( 0.0000  0.0000  0.0030)
%
% (x/y/z-ecef=WGS84,Q=1:fix,2:float,3:sbas,4:dgps,5:single,6:ppp,ns=# of satellites)
%  GPST              x-ecef(m)      y-ecef(m)      z-ecef(m)   Q  ns   sdx(m)   sdy(m)   sdz(m)  sdxy(m)  sdyz(m)  sdzx(m) age(s)  ratio
2188 466380.000   2248124.0619    865686.4311   5886419.7072   6   4   1.5050   1.1376   4.2823  -0.7349  -0.5237   1.4047   0.00    0.0
2188 466410.000   2248124.2592    865686.2977   5886420.0166   6   4   1.4542   1.1321   4.2651  -0.7007  -0.4891   1.3473   0.00    0.0
2188 466440.000   2248124.1227    865686.2968   5886420.1906   6   4   1.4368   1.1314   4.2532  -0.6893  -0.4797   1.3161   0.00    0.0
2188 466470.000   2248124.0217    865686.3209   5886419.9908   6   4   1.4288   1.1324   4.2431  -0.6851  -0.4770   1.2915   0.00    0.0
2188 466500.000   2248124.1892    865686.4744   5886420.4699   6   4   1.4239   1.1336   4.2332  -0.6828  -0.4782   1.2698   0.00    0.0
2188 466530.000   2248124.0954    865686.4283   5886420.0440   6   4   1.4212   1.1352   4.2233  -0.6821  -0.4806   1.2489   0.00    0.0
2188 466560.000   2248124.1697    865686.3114   5886420.4058   6   4   1.4197   1.1370   4.2136  -0.6823  -0.4845   1.2289   0.00    0.0
2188 466590.000   2248124.1577    865686.4245   5886420.4701   6   4   1.4191   1.1391   4.2030  -0.6831  -0.4875   1.2081   0.00    0.0
2188 466620.000   2248124.0672    865686.4184   5886420.0674   6   4   1.4185   1.1408   4.1924  -0.6836  -0.4925   1.1883   0.00    0.0
2188 466650.000   2248124.2083    865686.3065   5886420.6962   6   4   1.4186   1.1428   4.1817  -0.6847  -0.4975   1.1680   0.00    0.0
2188 466680.000   2248123.9571    865686.5536   5886420.1353   6   4   1.4190   1.1448   4.1701  -0.6859  -0.5037   1.1480   0.00    0.0
2188 466710.000   2248124.0741    865686.4581   5886420.6030   6   4   1.4197   1.1469   4.1595  -0.6874  -0.5083   1.1271   0.00    0.0
2188 466740.000   2248124.1310    865686.3770   5886420.3150   6   4   1.4206   1.1490   4.1480  -0.6890  -0.5140   1.1063   0.00    0.0
2188 466770.000   2248124.0967    865686.3195   5886420.0541   6   4   1.4217   1.1511   4.1364  -0.6905  -0.5200   1.0853   0.00    0.0
2188 466800.000   2248124.2156    865686.3997   5886420.3913   6   4   1.4233   1.1534   4.1246  -0.6926  -0.5256   1.0636   0.00    0.0
2188 466830.000   2248124.0565    865686.4355   5886420.2866   6   4   1.4244   1.1553   4.1125  -0.6939  -0.5324   1.0424   0.00    0.0
2188 466860.000   2248124.0606    865686.4712   5886420.4694   6   4   1.4260   1.1575   4.1003  -0.6957  -0.5389   1.0205   0.00    0.0
2188 466890.000   2248124.0206    865686.4336   5886420.4351   6   4   1.4278   1.1596   4.0879  -0.6974  -0.5455   0.9982   0.00    0.0
2188 466920.000   2248124.1583    865686.3885   5886420.3558   6   4   1.4300   1.1619   4.0755  -0.6997  -0.5516   0.9752   0.00    0.0
2188 466950.000   2248124.1238    865686.3358   5886420.6830   6   4   1.4320   1.1641   4.0628  -0.7015  -0.5585   0.9522   0.00    0.0
2188 473670.000   2248123.2438    865684.8515   5886420.4273   6   4   2.6457   1.5983   4.9099   1.1897   0.8583   2.3881   0.00    0.0
2188 473700.000   2248123.2007    865684.9399   5886420.3558   6   4   2.6436   1.5813   4.7112   1.1839   1.0530   2.4372   0.00    0.0
2188 473730.000   2248123.4829    865685.0595   5886420.4564   6   4   2.6427   1.5766   4.6470   1.1862   1.1186   2.4560   0.00    0.0
2188 473760.000   2248123.2459    865684.9396   5886420.2813   6   4   2.6411   1.5748   4.6147   1.1890   1.1545   2.4664   0.00    0.0
2188 473790.000   2248123.2515    865684.9150   5886419.8538   6   4   2.6425   1.5758   4.5951   1.1959   1.1816   2.4760   0.00    0.0
2188 473820.000   2248123.2133    865684.9611   5886420.3342   6   4   2.6411   1.5763   4.5852   1.1997   1.2013   2.4812   0.00    0.0
2188 473850.000   2248123.1548    865684.7933   5886420.3701   6   4   2.6396   1.5779   4.5751   1.2053   1.2185   2.4852   0.00    0.0
2188 473880.000   2248123.0759    865684.8034   5886419.7878   6   4   2.6395   1.5799   4.5717   1.2107   1.2341   2.4895   0.00    0.0
2188 473910.000   2248123.2351    865684.8938   5886420.0738   6   4   2.6424   1.5828   4.5689   1.2176   1.2491   2.4958   0.00    0.0
2188 473940.000   2248123.1872    865684.7183   5886420.1533   6   4   2.6407   1.5846   4.5653   1.2211   1.2605   2.4976   0.00    0.0
2188 473970.000   2248123.1264    865684.9801   5886419.9071   6   4   2.6419   1.5878   4.5633   1.2279   1.2736   2.5014   0.00    0.0
2188 474000.000   2248123.1167    865684.8827   5886420.0096   6   4   2.6419   1.5910   4.5614   1.2337   1.2855   2.5039   0.00    0.0
2188 474030.000   2248123.3077    865684.8609   5886420.2774   6   4   2.6409   1.5932   4.5591   1.2377   1.2951   2.5049   0.00    0.0
2188 474060.000   2248123.3108    865684.9550   5886420.4112   6   4   2.6402   1.5960   4.5570   1.2423   1.3049   2.5060   0.00    0.0
2188 474090.000   2248123.4543    865684.9062   5886420.4294   6   4   2.6394   1.5988   4.5550   1.2468   1.3142   2.5066   0.00    0.0
2188 474120.000   2248123.2879    865684.8023   5886420.2613   6   4   2.6370   1.6017   4.5523   1.2513   1.3231   2.5056   0.00    0.0
2188 474150.000   2248123.3461    865684.6952   5886420.2593   6   4   2.6374   1.6047   4.5506   1.2553   1.3314   2.5066   0.00    0.0
2188 474180.000   2248123.4684    865684.7792   5886420.7774   6   4   2.6366   1.6082   4.5484   1.2601   1.3401   2.5063   0.00    0.0
2188 474210.000   2248123.3427    865684.7390   5886420.2273   6   4   2.6335   1.6106   4.5450   1.2633   1.3469   2.5036   0.00    0.0
2188 474240.000   2248123.3070    865684.6912   5886420.1200   6   4   2.6338   1.6141   4.5429   1.2676   1.3547   2.5037   0.00    0.0
2188 474270.000   2248123.3155    865684.8392   5886420.5750   6   4   2.6308   1.6171   4.5393   1.2712   1.3615   2.5007   0.00    0.0
2188 474300.000   2248123.5977    865684.7926   5886420.4532   6   4   2.6301   1.6196   4.5339   1.2737   1.3666   2.4991   0.00    0.0
2188 474330.000   2248122.9981    865684.6068   5886420.4466   6   4   2.2466   1.5173   4.3048   0.9198   1.0340   2.0728   0.00    0.0
2188 474360.000   2248122.8324    865684.6107   5886420.1140   6   4   2.2452   1.5191   4.3031   0.9219   1.0411   2.0720   0.00    0.0
2188 474390.000   2248122.7847    865684.5905   5886419.8246   6   4   2.2430   1.5205   4.3011   0.9226   1.0470   2.0704   0.00    0.0
2188 474420.000   2248122.8464    865684.6857   5886420.1151   6   4   2.2422   1.5229   4.2994   0.9257   1.0544   2.0697   0.00    0.0
2188 474450.000   2248123.0385    865684.6095   5886420.1874   6   4   2.2407   1.5248   4.2973   0.9274   1.0606   2.0682   0.00    0.0
2188 474480.000   2248122.9440    865684.5603   5886420.1620   6   4   2.2390   1.5268   4.2950   0.9291   1.0665   2.0663   0.00    0.0
2188 474510.000   2248123.1007    865684.6202   5886420.4484   6   4   2.2374   1.5287   4.2900   0.9306   1.0715   2.0643   0.00    0.0
2188 474540.000   2248122.8763    865684.7292   5886420.1116   6   4   2.2356   1.5306   4.2899   0.9320   1.0776   2.0618   0.00    0.0
2188 474570.000   2248123.1381    865684.5972   5886420.1712   6   4   2.2339   1.5326   4.2871   0.9333   1.0827   2.0592   0.00    0.0
2188 474600.000   2248122.9367    865684.4960   5886420.1782   6   4   2.2320   1.5345   4.2841   0.9345   1.0875   2.0563   0.00    0.0
2188 474630.000   2248123.0235    865684.6191   5886420.1804   6   4   2.2302   1.5365   4.2810   0.9356   1.0921   2.0531   0.00    0.0
2188 474660.000   2248123.0807    865684.6587   5886420.3416   6   4   2.2282   1.5385   4.2776   0.9366   1.0965   2.0496   0.00    0.0
2188 474690.000   2248123.0237    865684.5615   5886420.0776   6   4   2.2262   1.5404   4.2741   0.9374   1.1006   2.0459   0.00    0.0
2188 474720.000   2248123.0458    865684.5232   5886420.3890   6   4   2.2242   1.5424   4.2705   0.9382   1.1044   2.0420   0.00    0.0
2188 474750.000   2248123.1673    865684.5607   5886420.1819   6   4   2.2221   1.5443   4.2667   0.9388   1.1080   2.0378   0.00    0.0
2188 474780.000   2248123.0346    865684.5213   5886420.0380   6   4   2.2192   1.5457   4.2623   0.9381   1.1104   2.0325   0.00    0.0
2188 474810.000   2248123.1004    865684.5466   5886420.2649   6   4   2.2178   1.5483   4.2585   0.9398   1.1145   2.0286   0.00    0.0
2188 474840.000   2248123.2804    865684.6610   5886420.9344   6   4   2.2155   1.5502   4.2542   0.9401   1.1174   2.0236   0.00    0.0
2188 474870.000   2248123.1768    865684.6531   5886420.8065   6   4   2.2125   1.5516   4.2494   0.9390   1.1191   2.0176   0.00    0.0
2188 474900.000   2248123.0763    865684.6560   5886420.7127   6   4   2.2109   1.5541   4.2452   0.9404   1.1226   2.0130   0.00    0.0
2188 474930.000   2248123.0477    865684.6614   5886420.5462   6   4   2.2086   1.5560   4.2405   0.9404   1.1248   2.0073   0.00    0.0
2188 474960.000   2248122.9896    865684.5441   5886420.5173   6   4   2.2062   1.5580   4.2357   0.9402   1.1268   2.0014   0.00    0.0
2188 474990.000   2248123.1185    865684.5970   5886420.5730   6   4   2.2028   1.5599   4.2306   0.9403   1.1287   1.9948   0.00    0.0
2188 475110.000   2248122.9585    865684.6275   5886420.3992   6   4   2.1936   1.5675   4.2097   0.9382   1.1338   1.9684   0.00    0.0
2188 475140.000   2248123.1836    865684.6508   5886421.0216   6   4   2.1910   1.5694   4.2043   0.9375   1.1347   1.9611   0.00    0.0
2188 496710.000   2248126.2898    865684.9015   5886423.4433   6   4   0.7726   0.7188   2.0097   0.2393  -0.0942  -0.2666   0.00    0.0
2188 496740.000   2248126.3708    865684.9357   5886423.2743   6   4   0.7701   0.6961   1.9363   0.2146   0.2848  -0.1872   0.00    0.0
2188 496770.000   2248126.2467    865685.0121   5886423.1421   6   4   0.7694   0.6863   1.9136   0.2047   0.3321  -0.1485   0.00    0.0
2188 496800.000   2248126.3091    865684.8778   5886423.1841   6   4   0.7691   0.6799   1.9038   0.1990   0.3526  -0.1215   0.00    0.0
2188 496830.000   2248126.2312    865685.2320   5886423.1034   6   4   0.7665   0.6733   1.8933   0.2024   0.3735  -0.1379   0.00    0.0
2188 496860.000   2248126.2444    865685.0822   5886423.1073   6   4   0.7668   0.6694   1.8918   0.1985   0.3786  -0.1173   0.00    0.0
2188 496890.000   2248126.1262    865685.0331   5886422.8155   6   4   0.7672   0.6660   1.8925   0.1950   0.3821  -0.0975   0.00    0.0
2188 496920.000   2248126.3593    865684.9898   5886423.1170   6   4   0.7676   0.6628   1.8938   0.1922   0.3838  -0.0727   0.00    0.0
2188 496950.000   2248126.1943    865685.1554   5886423.0350   6   4   0.7680   0.6598   1.8957   0.1896   0.3847  -0.0349   0.00    0.0
2188 496980.000   2248126.0951    865684.9846   5886422.9600   6   4   0.7685   0.6570   1.8981   0.1874   0.3850   0.0528   0.00    0.0
2188 497010.000   2248126.0823    865685.1916   5886422.7330   6   4   0.7691   0.6543   1.9006   0.1854   0.3847   0.0827   0.00    0.0
2188 497040.000   2248126.1640    865685.0143   5886422.6940   6   4   0.7696   0.6516   1.9035   0.1836   0.3844   0.1042   0.00    0.0
2188 497070.000   2248126.1348    865685.0694   5886423.2193   6   4   0.7702   0.6492   1.9068   0.1819   0.3842   0.1219   0.00    0.0
2188 497100.000   2248126.1157    865684.9767   5886422.6983   6   4   0.7708   0.6467   1.9100   0.1804   0.3836   0.1378   0.00    0.0
2188 497130.000   2248126.1079    865685.0698   5886422.5389   6   4   0.7714   0.6443   1.9134   0.1791   0.3830   0.1524   0.00    0.0
2188 498540.000   2248125.6834    865685.1525   5886422.2173   6   4   0.9896   0.5681   2.5087   0.2807   0.5580   0.9728   0.00    0.0
2188 498570.000   2248125.4264    865685.1018   5886421.9947   6   4   0.9881   0.5588   2.3801   0.2750   0.4818   0.9492   0.00    0.0
2188 498600.000   2248125.6292    865685.1099   5886422.1968   6   4   0.9877   0.5560   2.3375   0.2765   0.4574   0.9409   0.00    0.0
2188 498630.000   2248125.7570    865685.2378   5886421.7709   6   4   0.9875   0.5550   2.3174   0.2798   0.4478   0.9365   0.00    0.0
2188 498660.000   2248125.4056    865685.2686   5886421.4918   6   4   0.9874   0.5546   2.3062   0.2837   0.4446   0.9335   0.00    0.0
2188 498690.000   2248125.8024    865685.0867   5886421.8676   6   4   0.9874   0.5547   2.2996   0.2880   0.4445   0.9312   0.00    0.0
2188 498720.000   2248125.7820    865685.2352   5886421.7947   6   4   0.9874   0.5549   2.2956   0.2925   0.4463   0.9293   0.00    0.0
2188 498750.000   2248125.5745    865685.1863   5886422.2276   6   4   0.9874   0.5554   2.2930   0.2971   0.4494   0.9275   0.00    0.0
2188 499470.000   2248125.8187    865685.4089   5886423.2984   6   4   0.9161   0.6543   3.1338   0.4186   0.9787   0.9964   0.00    0.0
2188 499500.000   2248126.0240    865685.2987   5886423.4345   6   4   0.8414   0.6358   3.0457   0.3454   0.9200   0.8506   0.00    0.0
2188 499530.000   2248125.8865    865685.3383   5886423.0360   6   4   0.8142   0.6301   3.0169   0.3183   0.9019   0.7959   0.00    0.0
2188 499560.000   2248125.7520    865685.3458   5886422.8150   6   4   0.7998   0.6278   3.0030   0.3047   0.8945   0.7670   0.00    0.0
2188 499590.000   2248125.7867    865685.3554   5886422.5445   6   4   0.7905   0.6267   2.9947   0.2969   0.8913   0.7490   0.00    0.0
2188 499620.000   2248125.8120    865685.3233   5886423.5966   6   4   0.7839   0.6264   2.9890   0.2921   0.8901   0.7366   0.00    0.0
2188 499650.000   2248125.7051    865685.3938   5886423.4625   6   4   0.7789   0.6264   2.9845   0.2891   0.8901   0.7276   0.00    0.0
2188 499680.000   2248125.7187    865685.3568   5886423.2833   6   4   0.7748   0.6267   2.9807   0.2873   0.8907   0.7206   0.00    0.0
2188 499710.000   2248125.9538    865685.3338   5886423.1516   6   4   0.7714   0.6271   2.9772   0.2862   0.8917   0.7150   0.00    0.0
2188 499740.000   2248125.8965    865685.4159   5886422.6343   6   4   0.7685   0.6276   2.9736   0.2856   0.8929   0.7103   0.00    0.0
2188 499770.000   2248125.7469    865685.2843   5886423.0645   6   4   0.7659   0.6282   2.9699   0.2854   0.8942   0.7064   0.00    0.0
2188 499800.000   2248125.7110    865685.3576   5886422.1277   6   4   0.7636   0.6288   2.9661   0.2856   0.8955   0.7030   0.00    0.0
2188 499830.000   2248125.8120    865685.4486   5886423.0788   6   4   0.7615   0.6295   2.9619   0.2859   0.8969   0.7000   0.00    0.0
2188 499860.000   2248125.8498    865685.2604   5886422.3152   6   4   0.7596   0.6302   2.9575   0.2864   0.8981   0.6973   0.00    0.0
2188 499890.000   2248125.8077    865685.3417   5886422.5835   6   4   0.7577   0.6310   2.9527   0.2870   0.8994   0.6948   0.00    0.0
2188 499920.000   2248125.6295    865685.2863   5886422.4307   6   4   0.7560   0.6317   2.9476   0.2877   0.9005   0.6926   0.00    0.0
2188 499950.000   2248125.7065    865685.3244   5886422.3323   6   4   0.7544   0.6325   2.9421   0.2885   0.9015   0.6905   0.00    0.0
2188 499980.000   2248125.6732    865685.3363   5886422.6891   6   4   0.7529   0.6333   2.9363   0.2894   0.9024   0.6885   0.00    0.0
2188 500010.000   2248125.7452    865685.1415   5886421.7982   6   4   0.7457   0.5972   2.7121   0.2542   0.7614   0.6075   0.00    0.0
2188 500040.000   2248125.6369    865685.1253   5886421.2541   6   5   0.7326   0.5966   2.3194   0.2483   0.7376   0.4281   0.00    0.0
2188 500070.000   2248125.7444    865685.0850   5886421.3308   6   5   0.7272   0.5964   2.1624   0.2470   0.7297   0.3447   0.00    0.0
2188 500100.000   2248125.7326    865685.0723   5886421.1777   6   5   0.7245   0.5963   2.1067   0.2472   0.7272   0.3117   0.00    0.0
2188 500130.000   2248125.7139    865685.0939   5886421.6038   6   5   0.7226   0.5962   2.0777   0.2478   0.7260   0.2939   0.00    0.0
2188 500160.000   2248125.9045    865685.1637   5886421.5165   6   5   0.7209   0.5961   2.0596   0.2486   0.7253   0.2828   0.00    0.0
2188 500190.000   2248125.6857    865685.0494   5886421.3146   6   5   0.7194   0.5960   2.0470   0.2495   0.7248   0.2753   0.00    0.0
2188 500220.000   2248125.6836    865685.0086   5886421.2173   6   5   0.7181   0.5959   2.0376   0.2504   0.7244   0.2700   0.00    0.0
2188 500250.000   2248125.8285    865685.0752   5886421.2093   6   5   0.7168   0.5958   2.0301   0.2514   0.7240   0.2662   0.00    0.0
2188 500280.000   2248125.6992    865685.1354   5886421.6257   6   5   0.7155   0.5956   2.0239   0.2524   0.7236   0.2635   0.00    0.0
2188 500310.000   2248125.5317    865685.0604   5886421.7526   6   5   0.7143   0.5954   2.0185   0.2534   0.7231   0.2615   0.00    0.0
2188 500340.000   2248125.6544    865685.1022   5886421.5555   6   5   0.7132   0.5953   2.0138   0.2544   0.7227   0.2602   0.00    0.0
2188 500370.000   2248125.7711    865685.0790   5886421.5314   6   5   0.7120   0.5950   2.0096   0.2554   0.7222   0.2594   0.00    0.0
2188 500400.000   2248125.6556    865685.0390   5886421.7232   6   5   0.7109   0.5948   2.0056   0.2565   0.7216   0.2590   0.00    0.0
2188 500430.000   2248125.7842    865685.0813   5886421.4773   6   5   0.7099   0.5946   2.0020   0.2575   0.7210   0.2589   0.00    0.0
2188 500460.000   2248125.7571    865685.0809   5886421.5598   6   5   0.7088   0.5943   1.9984   0.2585   0.7203   0.2591   0.00    0.0
2188 500490.000   2248125.9617    865685.1729   5886421.6950   6   5   0.7078   0.5939   1.9949   0.2595   0.7193   0.2595   0.00    0.0
2188 500520.000   2248125.7172    865685.1934   5886422.1580   6   5   0.7068   0.5936   1.9916   0.2605   0.7185   0.2602   0.00    0.0
2188 500550.000   2248125.6624    865685.0167   5886421.4981   6   5   0.7058   0.5933   1.9886   0.2616   0.7178   0.2612   0.00    0.0
2188 500580.000   2248125.8526    865685.0805   5886421.9477   6   5   0.7048   0.5929   1.9853   0.2626   0.7166   0.2622   0.00    0.0
2188 500610.000   2248125.8442    865685.0511   5886421.5318   6   5   0.7038   0.5926   1.9823   0.2636   0.7158   0.2635   0.00    0.0
2188 500640.000   2248125.7691    865685.0581   5886421.6490   6   5   0.7029   0.5921   1.9790   0.2645   0.7145   0.2648   0.00    0.0
2188 500670.000   2248125.5353    865684.9972   5886421.8316   6   5   0.7019   0.5917   1.9759   0.2655   0.7133   0.2663   0.00    0.0
2188 500700.000   2248125.7569    865685.0996   5886421.9964   6   5   0.7010   0.5912   1.9728   0.2665   0.7121   0.2680   0.00    0.0
2188 500730.000   2248125.8806    865685.2484   5886422.0705   6   5   0.7001   0.5907   1.9697   0.2674   0.7108   0.2697   0.00    0.0
2188 500760.000   2248125.8440    865685.1345   5886421.8534   6   5   0.6992   0.5902   1.9666   0.2684   0.7094   0.2716   0.00    0.0
2188 500790.000   2248125.7214    865685.1869   5886422.0449   6   5   0.6984   0.5897   1.9635   0.2693   0.7079   0.2736   0.00    0.0
2188 500820.000   2248125.8423    865685.1666   5886422.1331   6   5   0.6975   0.5891   1.9603   0.2702   0.7064   0.2756   0.00    0.0
2188 500850.000   2248125.7648    865685.1800   5886422.0499   6   5   0.6966   0.5885   1.9571   0.2711   0.7048   0.2777   0.00    0.0
2188 500880.000   2248125.9476    865685.2391   5886422.3416   6   5   0.6958   0.5879   1.9539   0.2720   0.7032   0.2800   0.00    0.0
2188 500910.000   2248125.8813    865685.1628   5886422.1830   6   5   0.6950   0.5873   1.9507   0.2729   0.7015   0.2822   0.00    0.0
2188 500940.000   2248125.8237    865685.1055   5886421.9530   6   5   0.6942   0.5866   1.9474   0.2737   0.6997   0.2846   0.00    0.0
2188 500970.000   2248125.7470    865685.2564   5886422.2222   6   5   0.6934   0.5859   1.9441   0.2746   0.6978   0.2870   0.00    0.0
2188 501000.000   2248125.8563    865685.1786   5886422.1337   6   5   0.6926   0.5852   1.9408   0.2754   0.6959   0.2895   0.00    0.0
2188 501030.000   2248125.8557    865685.2563   5886422.1949   6   5   0.6918   0.5845   1.9374   0.2762   0.6939   0.2920   0.00    0.0
2188 501060.000   2248126.0077    865685.2521   5886422.3311   6   5   0.6910   0.5837   1.9340   0.2770   0.6919   0.2946   0.00    0.0
2188 501090.000   2248125.8964    865685.1040   5886421.9776   6   5   0.6903   0.5829   1.9306   0.2778   0.6898   0.2972   0.00    0.0
2188 501120.000   2248125.8513    865685.2750   5886422.2029   6   5   0.6895   0.5821   1.9272   0.2786   0.6877   0.2999   0.00    0.0
2188 501150.000   2248125.8417    865685.2290   5886422.0685   6   5   0.6888   0.5813   1.9238   0.2793   0.6855   0.3027   0.00    0.0
2188 501180.000   2248125.8409    865685.3136   5886422.3429   6   5   0.6881   0.5804   1.9203   0.2801   0.6832   0.3054   0.00    0.0
2188 501210.000   2248125.7412    865685.1257   5886422.1008   6   5   0.6874   0.5795   1.9168   0.2808   0.6809   0.3083   0.00    0.0
2188 501240.000   2248125.7955    865685.1600   5886421.9539   6   5   0.6867   0.5786   1.9133   0.2815   0.6786   0.3111   0.00    0.0
2188 501270.000   2248125.7882    865685.2133   5886422.0097   6   5   0.6857   0.5735   1.9018   0.2797   0.6671   0.3085   0.00    0.0
2188 501300.000   2248125.7763    865685.2064   5886422.2372   6   5   0.6851   0.5738   1.9008   0.2811   0.6675   0.3131   0.00    0.0
2188 501330.000   2248125.8948    865685.2968   5886422.0810   6   5   0.6846   0.5741   1.8997   0.2825   0.6678   0.3178   0.00    0.0
2188 501360.000   2248125.9341    865685.2488   5886422.4826   6   5   0.6840   0.5744   1.8986   0.2840   0.6680   0.3225   0.00    0.0
2188 501390.000   2248125.8151    865685.1744   5886422.3581   6   5   0.6835   0.5747   1.8974   0.2854   0.6682   0.3272   0.00    0.0
2188 501420.000   2248125.9493    865685.2274   5886422.3666   6   5   0.6830   0.5750   1.8962   0.2868   0.6684   0.3319   0.00    0.0
2188 501450.000   2248125.7927    865685.1060   5886422.0604   6   5   0.6825   0.5753   1.8949   0.2882   0.6686   0.3366   0.00    0.0
2188 501480.000   2248125.8100    865685.2326   5886422.3929   6   5   0.6820   0.5756   1.8937   0.2896   0.6687   0.3413   0.00    0.0
2188 501510.000   2248125.8720    865685.2618   5886422.2175   6   5   0.6815   0.5759   1.8923   0.2910   0.6688   0.3460   0.00    0.0
2188 501540.000   2248125.9212    865685.2844   5886422.4379   6   5   0.6811   0.5762   1.8909   0.2924   0.6689   0.3507   0.00    0.0
2188 501570.000   2248125.8514    865685.2816   5886422.3146   6   5   0.6807   0.5765   1.8895   0.2938   0.6689   0.3554   0.00    0.0
2188 501600.000   2248125.8073    865685.2206   5886422.1570   6   5   0.6803   0.5768   1.8880   0.2952   0.6689   0.3601   0.00    0.0
2188 501630.000   2248125.9223    865685.2604   5886422.2446   6   5   0.6799   0.5771   1.8865   0.2966   0.6688   0.3648   0.00    0.0
2188 501660.000   2248125.8986    865685.3291   5886422.6576   6   5   0.6795   0.5774   1.8849   0.2980   0.6687   0.3694   0.00    0.0
2188 501690.000   2248125.8485    865685.1682   5886422.1949   6   5   0.6792   0.5776   1.8833   0.2994   0.6686   0.3741   0.00    0.0
2188 501720.000   2248125.9206    865685.3840   5886422.3822   6   5   0.6788   0.5779   1.8816   0.3008   0.6685   0.3787   0.00    0.0
2188 501750.000   2248125.9357    865685.2349   5886422.4626   6   5   0.6785   0.5782   1.8799   0.3021   0.6683   0.3834   0.00    0.0
2188 501780.000   2248125.8775    865685.1833   5886422.3178   6   5   0.6782   0.5785   1.8782   0.3035   0.6681   0.3880   0.00    0.0
2188 501810.000   2248125.7881    865685.2789   5886422.3334   6   5   0.6780   0.5788   1.8764   0.3049   0.6678   0.3926   0.00    0.0
2188 501840.000   2248125.8211    865685.3421   5886422.5782   6   5   0.6777   0.5790   1.8745   0.3063   0.6675   0.3972   0.00    0.0
2188 501870.000   2248125.8455    865685.1904   5886422.0581   6   5   0.6775   0.5793   1.8726   0.3077   0.6672   0.4017   0.00    0.0
2188 501900.000   2248125.8535    865685.3220   5886422.3152   6   5   0.6773   0.5796   1.8707   0.3090   0.6668   0.4063   0.00    0.0
2188 501930.000   2248125.7767    865685.1504   5886422.0591   6   5   0.6771   0.5799   1.8687   0.3104   0.6664   0.4108   0.00    0.0
2188 501960.000   2248125.8471    865685.2403   5886422.5434   6   5   0.6770   0.5801   1.8666   0.3118   0.6660   0.4153   0.00    0.0
2188 501990.000   2248125.8443    865685.2719   5886422.4852   6   5   0.6768   0.5804   1.8646   0.3132   0.6655   0.4198   0.00    0.0
2188 502020.000   2248126.0181    865685.3757   5886422.8428   6   5   0.6767   0.5806   1.8624   0.3145   0.6650   0.4243   0.00    0.0
2188 502050.000   2248125.9544    865685.2459   5886422.4973   6   5   0.6766   0.5809   1.8603   0.3159   0.6644   0.4287   0.00    0.0
2188 502080.000   2248125.9167    865685.2801   5886422.6878   6   5   0.6766   0.5812   1.8581   0.3172   0.6639   0.4331   0.00    0.0
2188 502110.000   2248125.9101    865685.2256   5886422.3906   6   5   0.6765   0.5814   1.8558   0.3186   0.6632   0.4375   0.00    0.0
2188 502140.000   2248125.9235    865685.2658   5886422.5145   6   5   0.6765   0.5817   1.8535   0.3199   0.6626   0.4419   0.00    0.0
2188 502170.000   2248125.8815    865685.3439   5886422.1666   6   5   0.6765   0.5819   1.8512   0.3213   0.6619   0.4462   0.00    0.0
2188 502200.000   2248125.8682    865685.2906   5886422.4398   6   5   0.6765   0.5822   1.8488   0.3226   0.6612   0.4506   0.00    0.0
2188 502230.000   2248125.9230    865685.2503   5886422.5132   6   5   0.6766   0.5824   1.8464   0.3240   0.6604   0.4549   0.00    0.0
2188 502260.000   2248126.0156    865685.3432   5886422.5275   6   5   0.6767   0.5827   1.8439   0.3253   0.6597   0.4591   0.00    0.0
2188 502290.000   2248126.0833    865685.3473   5886422.6247   6   5   0.6768   0.5829   1.8415   0.3267   0.6588   0.4634   0.00    0.0
2188 502320.000   2248125.9368    865685.4132   5886423.0013   6   5   0.6769   0.5831   1.8389   0.3280   0.6580   0.4676   0.00    0.0
2188 502350.000   2248126.0595    865685.3336   5886422.6444   6   5   0.6771   0.5834   1.8364   0.3293   0.6571   0.4718   0.00    0.0
2188 502380.000   2248126.0322    865685.2944   5886422.4248   6   5   0.6773   0.5836   1.8338   0.3306   0.6562   0.4760   0.00    0.0
2188 502410.000   2248125.8901    865685.2677   5886422.5912   6   5   0.6775   0.5839   1.8312   0.3320   0.6552   0.4801   0.00    0.0
2188 502440.000   2248125.9047    865685.3166   5886422.5696   6   5   0.6777   0.5841   1.8285   0.3333   0.6542   0.4842   0.00    0.0
2188 502470.000   2248125.9741    865685.3048   5886422.3182   6   5   0.6780   0.5843   1.8258   0.3346   0.6532   0.4883   0.00    0.0
2188 502500.000   2248125.8879    865685.1763   5886422.2417   6   5   0.6389   0.5772   1.8094   0.3030   0.6362   0.4378   0.00    0.0
2188 502530.000   2248125.7859    865685.2351   5886422.1186   6   5   0.6389   0.5774   1.8068   0.3041   0.6350   0.4423   0.00    0.0
2188 502560.000   2248125.8793    865685.2220   5886422.2009   6   5   0.6389   0.5775   1.8041   0.3051   0.6338   0.4467   0.00    0.0
2188 502590.000   2248125.8056    865685.0894   5886422.1169   6   5   0.6389   0.5776   1.8014   0.3062   0.6326   0.4511   0.00    0.0
2188 502620.000   2248125.8651    865685.3078   5886422.3118   6   5   0.6389   0.5778   1.7986   0.3072   0.6314   0.4555   0.00    0.0
2188 502650.000   2248125.9236    865685.2351   5886422.2932   6   5   0.6390   0.5779   1.7959   0.3083   0.6301   0.4598   0.00    0.0
2188 502680.000   2248125.8953    865685.3951   5886422.3123   6   5   0.6391   0.5780   1.7931   0.3093   0.6288   0.4641   0.00    0.0
2188 502710.000   2248125.9180    865685.2691   5886422.3505   6   5   0.6743   0.5810   1.8073   0.3296   0.6387   0.5220   0.00    0.0
2188 502740.000   2248125.8793    865685.4903   5886422.5266   6   5   0.6740   0.5812   1.8050   0.3305   0.6376   0.5261   0.00    0.0
2188 502770.000   2248125.8748    865685.2698   5886422.4502   6   5   0.6738   0.5813   1.8026   0.3315   0.6364   0.5302   0.00    0.0
2188 502800.000   2248126.0413    865685.4221   5886422.5839   6   5   0.6735   0.5815   1.8002   0.3324   0.6352   0.5342   0.00    0.0
2188 502830.000   2248126.0307    865685.2790   5886422.6199   6   5   0.6734   0.5817   1.7978   0.3333   0.6339   0.5381   0.00    0.0
2188 502860.000   2248125.9765    865685.3159   5886422.4913   6   5   0.6732   0.5818   1.7954   0.3342   0.6326   0.5420   0.00    0.0
2188 502890.000   2248126.1781    865685.2187   5886422.8229   6   5   0.6731   0.5820   1.7929   0.3351   0.6313   0.5458   0.00    0.0
2188 502920.000   2248126.0507    865685.2586   5886422.4609   6   5   0.6730   0.5821   1.7904   0.3360   0.6300   0.5495   0.00    0.0
2188 502950.000   2248126.0177    865685.3616   5886422.5271   6   5   0.6729   0.5823   1.7879   0.3368   0.6286   0.5532   0.00    0.0
2188 502980.000   2248125.7232    865685.2567   5886422.3744   6   5   0.6729   0.5824   1.7853   0.3377   0.6272   0.5568   0.00    0.0
2188 503010.000   2248125.8062    865685.2278   5886422.1810   6   5   0.6728   0.5826   1.7828   0.3385   0.6257   0.5604   0.00    0.0
2188 503040.000   2248125.8454    865685.2700   5886422.0935   6   5   0.6728   0.5827   1.7802   0.3393   0.6242   0.5639   0.00    0.0
2188 503070.000   2248125.9465    865685.3299   5886422.2034   6   5   0.6704   0.5826   1.6669   0.3417   0.6319   0.5352   0.00    0.0
2188 503100.000   2248125.9715    865685.3180   5886422.7172   6   5   0.6704   0.5827   1.6647   0.3427   0.6310   0.5385   0.00    0.0
2188 503130.000   2248125.7707    865685.2910   5886422.3856   6   5   0.6705   0.5828   1.6625   0.3436   0.6301   0.5418   0.00    0.0
2188 503160.000   2248125.9145    865685.3086   5886422.3935   6   5   0.6705   0.5828   1.6603   0.3445   0.6292   0.5451   0.00    0.0
2188 503190.000   2248126.1232    865685.3528   5886422.7263   6   5   0.6706   0.5829   1.6581   0.3454   0.6282   0.5483   0.00    0.0
2188 503220.000   2248126.0170    865685.3398   5886422.4492   6   5   0.6707   0.5830   1.6560   0.3463   0.6272   0.5514   0.00    0.0
2188 503250.000   2248125.9000    865685.2834   5886422.6055   6   5   0.6708   0.5831   1.6539   0.3471   0.6261   0.5546   0.00    0.0
2188 503280.000   2248125.8895    865685.2455   5886422.2358   6   5   0.6710   0.5832   1.6518   0.3480   0.6251   0.5577   0.00    0.0
2188 503310.000   2248125.9870    865685.4423   5886422.6059   6   5   0.6712   0.5833   1.6498   0.3488   0.6240   0.5607   0.00    0.0
2188 503340.000   2248126.0945    865685.3814   5886422.4213   6   5   0.6714   0.5833   1.6477   0.3497   0.6228   0.5637   0.00    0.0
2188 503370.000   2248125.9679    865685.2446   5886422.1268   6   5   0.6716   0.5834   1.6457   0.3505   0.6217   0.5667   0.00    0.0
2188 503400.000   2248126.1234    865685.3291   5886422.9790   6   5   0.6718   0.5835   1.6437   0.3513   0.6205   0.5696   0.00    0.0
2188 503430.000   2248125.9819    865685.2767   5886422.1328   6   5   0.6721   0.5835   1.6418   0.3521   0.6192   0.5725   0.00    0.0
2188 503460.000   2248126.0678    865685.3607   5886422.5954   6   5   0.6724   0.5836   1.6398   0.3529   0.6180   0.5753   0.00    0.0
2188 503490.000   2248126.0743    865685.4513   5886422.6466   6   5   0.6727   0.5836   1.6379   0.3536   0.6167   0.5781   0.00    0.0
2188 503520.000   2248126.0085    865685.3458   5886422.5058   6   5   0.6730   0.5837   1.6361   0.3544   0.6153   0.5809   0.00    0.0
2188 503550.000   2248126.0846    865685.4429   5886422.4147   6   5   0.6734   0.5837   1.6341   0.3551   0.6140   0.5835   0.00    0.0
2188 503580.000   2248125.9098    865685.2598   5886422.1107   6   5   0.6737   0.5838   1.6323   0.3559   0.6126   0.5862   0.00    0.0
2188 503610.000   2248125.9622    865685.3955   5886422.5408   6   5   0.6741   0.5838   1.6304   0.3566   0.6111   0.5889   0.00    0.0
2188 503640.000   2248125.9516    865685.3955   5886422.0685   6   5   0.6745   0.5839   1.6285   0.3573   0.6097   0.5914   0.00    0.0
2188 503670.000   2248125.9359    865685.3228   5886422.0942   6   5   0.6749   0.5839   1.6267   0.3580   0.6082   0.5939   0.00    0.0
2188 503700.000   2248125.9986    865685.4051   5886422.2038   6   5   0.6754   0.5840   1.6249   0.3587   0.6067   0.5964   0.00    0.0
2188 503730.000   2248125.9749    865685.4287   5886422.2390   6   5   0.6758   0.5840   1.6232   0.3593   0.6051   0.5989   0.00    0.0
2188 503760.000   2248126.0375    865685.4678   5886422.3951   6   5   0.6763   0.5841   1.6214   0.3600   0.6035   0.6013   0.00    0.0
2188 503790.000   2248125.8509    865685.3513   5886422.2478   6   5   0.6768   0.5841   1.6198   0.3606   0.6018   0.6037   0.00    0.0
2188 503820.000   2248125.9046    865685.4107   5886422.2158   6   5   0.6773   0.5842   1.6180   0.3612   0.6002   0.6061   0.00    0.0
2188 503850.000   2248125.9324    865685.4613   5886422.2171   6   4   0.6812   0.5849   1.7590   0.3572   0.4903   0.6819   0.00    0.0
2188 503880.000   2248126.1233    865685.4743   5886422.2258   6   4   0.6819   0.5850   1.7559   0.3577   0.4896   0.6854   0.00    0.0
2188 503910.000   2248126.0554    865685.4762   5886422.0941   6   4   0.6826   0.5851   1.7529   0.3582   0.4889   0.6887   0.00    0.0
2188 503940.000   2248125.9548    865685.4569   5886422.0828   6   4   0.6834   0.5852   1.7500   0.3586   0.4882   0.6920   0.00    0.0
2188 503970.000   2248126.0203    865685.4098   5886422.1866   6   4   0.6841   0.5852   1.7472   0.3591   0.4875   0.6952   0.00    0.0
2188 504000.000   2248126.1047    865685.4802   5886422.3903   6   4   0.6849   0.5853   1.7444   0.3596   0.4868   0.6983   0.00    0.0
2188 504030.000   2248125.9718    865685.3267   5886422.2198   6   4   0.6856   0.5854   1.7419   0.3600   0.4859   0.7015   0.00    0.0
2188 504060.000   2248125.9227    865685.4443   5886421.5700   6   4   0.6864   0.5856   1.7393   0.3605   0.4852   0.7045   0.00    0.0
2188 504090.000   2248125.9315    865685.4798   5886422.2845   6   4   0.6872   0.5857   1.7369   0.3609   0.4844   0.7075   0.00    0.0
2188 504120.000   2248125.9469    865685.4353   5886421.9837   6   4   0.6880   0.5858   1.7345   0.3613   0.4835   0.7105   0.00    0.0
2188 504150.000   2248125.9620    865685.3908   5886422.0696   6   4   0.6888   0.5859   1.7321   0.3617   0.4827   0.7133   0.00    0.0
2188 504180.000   2248125.7633    865685.3104   5886421.6097   6   4   0.6896   0.5860   1.7299   0.3621   0.4818   0.7162   0.00    0.0
2188 504210.000   2248126.1425    865685.5480   5886422.2849   6   4   0.6904   0.5862   1.7277   0.3625   0.4809   0.7190   0.00    0.0
2188 504240.000   2248126.0479    865685.4803   5886422.2042   6   4   0.6912   0.5863   1.7255   0.3629   0.4799   0.7217   0.00    0.0
2188 504270.000   2248126.0471    865685.5805   5886422.3641   6   4   0.6920   0.5864   1.7234   0.3633   0.4789   0.7243   0.00    0.0
2188 504300.000   2248125.9960    865685.5425   5886422.4210   6   4   0.6928   0.5866   1.7214   0.3636   0.4779   0.7269   0.00    0.0
2188 504330.000   2248125.8891    865685.4405   5886422.6123   6   4   0.6936   0.5867   1.7193   0.3640   0.4769   0.7295   0.00    0.0
2188 504360.000   2248126.0445    865685.5292   5886422.3802   6   4   0.6945   0.5869   1.7174   0.3643   0.4759   0.7320   0.00    0.0
2188 504390.000   2248126.0997    865685.4976   5886422.8131   6   4   0.6953   0.5871   1.7154   0.3646   0.4748   0.7344   0.00    0.0
2188 504420.000   2248126.1653    865685.4943   5886422.9012   6   4   0.6961   0.5872   1.7135   0.3649   0.4736   0.7368   0.00    0.0
2188 504450.000   2248126.0061    865685.5180   5886422.5408   6   4   0.6969   0.5874   1.7115   0.3652   0.4725   0.7390   0.00    0.0
2188 504480.000   2248125.9759    865685.5515   5886422.6074   6   4   0.6978   0.5876   1.7097   0.3655   0.4713   0.7413   0.00    0.0
2188 504510.000   2248126.1527    865685.5421   5886422.6203   6   4   0.6986   0.5878   1.7079   0.3658   0.4701   0.7435   0.00    0.0
2188 504540.000   2248126.0430    865685.5500   5886422.5194   6   4   0.6994   0.5880   1.7061   0.3660   0.4688   0.7457   0.00    0.0
2188 504570.000   2248126.0466    865685.5433   5886422.6690   6   4   0.7002   0.5882   1.7043   0.3663   0.4675   0.7478   0.00    0.0
2188 504600.000   2248126.0493    865685.6294   5886422.6670   6   4   0.7010   0.5884   1.7025   0.3665   0.4662   0.7498   0.00    0.0
2188 504630.000   2248125.9832    865685.4772   5886422.9563   6   4   0.7018   0.5886   1.7007   0.3667   0.4648   0.7518   0.00    0.0
2188 504660.000   2248125.9934    865685.4569   5886422.7217   6   4   0.7026   0.5888   1.6989   0.3669   0.4634   0.7537   0.00    0.0
2188 504690.000   2248126.0773    865685.6205   5886422.4746   6   4   0.7034   0.5890   1.6972   0.3671   0.4620   0.7555   0.00    0.0
2188 504720.000   2248126.1028    865685.5426   5886422.6295   6   4   0.7042   0.5892   1.6954   0.3673   0.4606   0.7573   0.00    0.0
2188 504750.000   2248126.0180    865685.3866   5886422.5052   6   4   0.7049   0.5895   1.6937   0.3675   0.4591   0.7590   0.00    0.0
2188 504780.000   2248125.9326    865685.4303   5886422.3132   6   4   0.7057   0.5897   1.6920   0.3676   0.4575   0.7607   0.00    0.0
2188 504810.000   2248126.1005    865685.5421   5886422.5489   6   4   0.7064   0.5900   1.6902   0.3678   0.4559   0.7623   0.00    0.0
2188 504840.000   2248125.9764    865685.5974   5886422.3058   6   4   0.7072   0.5902   1.6885   0.3679   0.4543   0.7639   0.00    0.0
2188 504870.000   2248126.0905    865685.5262   5886422.6777   6   4   0.7079   0.5905   1.6868   0.3680   0.4527   0.7654   0.00    0.0
2188 504900.000   2248125.8827    865685.4359   5886422.4755   6   4   0.7086   0.5908   1.6851   0.3681   0.4510   0.7668   0.00    0.0
2188 504930.000   2248125.8398    865685.3880   5886422.5520   6   4   0.7093   0.5911   1.6834   0.3682   0.4493   0.7682   0.00    0.0
2188 504960.000   2248126.0260    865685.5773   5886422.8033   6   4   0.7100   0.5913   1.6815   0.3683   0.4475   0.7695   0.00    0.0
2188 504990.000   2248125.9877    865685.4572   5886422.4618   6   4   0.6939   0.5600   1.6351   0.3261   0.3536   0.7314   0.00    0.0
2188 505020.000   2248125.9927    865685.3638   5886422.7139   6   4   0.6945   0.5599   1.6339   0.3258   0.3511   0.7328   0.00    0.0
2188 505050.000   2248125.9780    865685.4806   5886422.6028   6   4   0.6951   0.5598   1.6327   0.3254   0.3488   0.7342   0.00    0.0
2188 505080.000   2248126.0694    865685.4107   5886422.7196   6   4   0.6957   0.5597   1.6316   0.3251   0.3465   0.7356   0.00    0.0
2188 505110.000   2248126.0562    865685.3903   5886422.6227   6   4   0.6963   0.5596   1.6306   0.3248   0.3442   0.7370   0.00    0.0
2188 505140.000   2248125.9788    865685.4605   5886422.5180   6   4   0.6969   0.5596   1.6295   0.3245   0.3420   0.7383   0.00    0.0
2188 505170.000   2248125.7646    865685.3316   5886422.2840   6   4   0.6975   0.5595   1.6285   0.3242   0.3397   0.7396   0.00    0.0
2188 505200.000   2248125.9330    865685.4420   5886422.7116   6   4   0.6980   0.5595   1.6275   0.3238   0.3374   0.7408   0.00    0.0
2188 505230.000   2248125.9628    865685.4403   5886422.3805   6   4   0.6986   0.5595   1.6265   0.3236   0.3352   0.7420   0.00    0.0
2188 505260.000   2248125.9657    865685.5187   5886422.8657   6   4   0.6992   0.5595   1.6256   0.3233   0.3329   0.7432   0.00    0.0
2188 505290.000   2248125.9517    865685.4412   5886422.7998   6   4   0.6997   0.5596   1.6247   0.3230   0.3307   0.7444   0.00    0.0
2188 505320.000   2248125.8304    865685.4357   5886422.4923   6   4   0.7003   0.5596   1.6237   0.3227   0.3284   0.7455   0.00    0.0
2188 505350.000   2248125.9508    865685.3933   5886422.6674   6   4   0.7008   0.5597   1.6227   0.3224   0.3262   0.7465   0.00    0.0
2188 505380.000   2248125.9430    865685.3992   5886422.6538   6   4   0.7013   0.5597   1.6219   0.3221   0.3239   0.7475   0.00    0.0
2188 505410.000   2248125.9518    865685.4419   5886423.1124   6   4   0.7018   0.5598   1.6210   0.3219   0.3217   0.7485   0.00    0.0
2188 505440.000   2248125.8779    865685.3798   5886422.6758   6   4   0.7023   0.5599   1.6201   0.3216   0.3195   0.7495   0.00    0.0
2188 505470.000   2248125.9234    865685.3761   5886422.7130   6   4   0.7028   0.5600   1.6193   0.3214   0.3173   0.7504   0.00    0.0
2188 505500.000   2248125.9406    865685.5700   5886422.8888   6   4   0.7033   0.5601   1.6184   0.3211   0.3149   0.7512   0.00    0.0
2188 505530.000   2248126.0694    865685.4651   5886422.9831   6   4   0.7038   0.5602   1.6176   0.3208   0.3126   0.7520   0.00    0.0
2188 505560.000   2248125.7665    865685.3950   5886422.3789   6   4   0.7042   0.5604   1.6166   0.3206   0.3106   0.7528   0.00    0.0
2188 505590.000   2248126.0489    865685.4666   5886422.6165   6   4   0.7046   0.5605   1.6158   0.3203   0.3082   0.7535   0.00    0.0
2188 505620.000   2248126.0261    865685.5039   5886422.8990   6   4   0.7050   0.5607   1.6149   0.3201   0.3059   0.7541   0.00    0.0
2188 505650.000   2248125.9904    865685.4569   5886422.8807   6   4   0.7055   0.5609   1.6141   0.3199   0.3037   0.7548   0.00    0.0
2188 505680.000   2248126.0216    865685.5356   5886422.8757   6   4   0.7058   0.5611   1.6133   0.3196   0.3012   0.7553   0.00    0.0
2188 505710.000   2248125.9929    865685.4534   5886422.7936   6   4   0.7062   0.5613   1.6125   0.3193   0.2990   0.7558   0.00    0.0
2188 505740.000   2248126.0598    865685.4123   5886422.7529   6   4   0.7065   0.5615   1.6116   0.3191   0.2967   0.7563   0.00    0.0
2188 505770.000   2248126.1202    865685.4780   5886422.7453   6   4   0.7068   0.5617   1.6108   0.3189   0.2944   0.7567   0.00    0.0
2188 505800.000   2248126.0295    865685.5182   5886422.7438   6   4   0.7072   0.5620   1.6100   0.3186   0.2920   0.7571   0.00    0.0
2188 505830.000   2248125.9462    865685.5734   5886422.9413   6   4   0.7074   0.5622   1.6091   0.3184   0.2897   0.7574   0.00    0.0
2188 505860.000   2248125.9823    865685.3680   5886422.9354   6   4   0.7077   0.5625   1.6083   0.3182   0.2873   0.7577   0.00    0.0
2188 505890.000   2248126.2314    865685.6274   5886423.2052   6   4   0.7080   0.5628   1.6075   0.3179   0.2849   0.7579   0.00    0.0
2188 505920.000   2248126.0427    865685.5573   5886423.1484   6   4   0.7082   0.5631   1.6067   0.3177   0.2826   0.7581   0.00    0.0
2188 505950.000   2248126.2088    865685.5880   5886423.2383   6   4   0.7084   0.5633   1.6058   0.3175   0.2802   0.7582   0.00    0.0
2188 505980.000   2248126.1115    865685.5071   5886423.1364   6   4   0.7086   0.5637   1.6050   0.3172   0.2778   0.7583   0.00    0.0
2188 506010.000   2248126.0524    865685.4607   5886423.1437   6   4   0.7087   0.5640   1.6042   0.3171   0.2754   0.7583   0.00    0.0
2188 506040.000   2248126.1532    865685.5055   5886423.0265   6   4   0.7089   0.5643   1.6034   0.3168   0.2729   0.7583   0.00    0.0
2188 506070.000   2248126.0455    865685.4897   5886422.8149   6   4   0.7090   0.5647   1.6026   0.3166   0.2704   0.7582   0.00    0.0
2188 506100.000   2248125.9719    865685.3857   5886422.4739   6   4   0.7091   0.5650   1.6018   0.3164   0.2680   0.7581   0.00    0.0
2188 506130.000   2248126.1497    865685.5165   5886423.0662   6   4   0.7092   0.5654   1.6009   0.3162   0.2655   0.7579   0.00    0.0
2188 506160.000   2248126.0528    865685.4042   5886423.5022   6   4   0.7092   0.5658   1.6001   0.3160   0.2630   0.7576   0.00    0.0
2188 506190.000   2248126.2370    865685.4687   5886423.6153   6   4   0.7093   0.5662   1.5993   0.3158   0.2605   0.7573   0.00    0.0
2188 506220.000   2248126.1451    865685.5206   5886423.1936   6   4   0.7093   0.5666   1.5985   0.3156   0.2580   0.7570   0.00    0.0
2188 506250.000   2248126.1083    865685.4364   5886422.7393   6   4   0.7093   0.5670   1.5976   0.3154   0.2554   0.7566   0.00    0.0
2188 506280.000   2248126.2796    865685.5301   5886423.0942   6   4   0.7092   0.5674   1.5968   0.3152   0.2529   0.7562   0.00    0.0
2188 506310.000   2248126.0588    865685.5700   5886423.1545   6   4   0.7092   0.5679   1.5960   0.3150   0.2503   0.7557   0.00    0.0
2188 506340.000   2248126.0964    865685.5522   5886422.9214   6   4   0.7091   0.5683   1.5952   0.3148   0.2477   0.7551   0.00    0.0
2188 506370.000   2248126.0817    865685.6029   5886423.0958   6   4   0.7090   0.5688   1.5944   0.3146   0.2449   0.7545   0.00    0.0
2188 506400.000   2248126.1498    865685.5547   5886422.9616   6   4   0.7089   0.5693   1.5935   0.3144   0.2425   0.7539   0.00    0.0
2188 506430.000   2248126.1274    865685.4993   5886423.0942   6   4   0.7087   0.5698   1.5927   0.3142   0.2398   0.7532   0.00    0.0
2188 506460.000   2248126.0059    865685.3887   5886422.8823   6   4   0.7086   0.5702   1.5919   0.3141   0.2371   0.7524   0.00    0.0
2188 506490.000   2248126.1139    865685.5039   5886423.4021   6   4   0.7084   0.5707   1.5911   0.3139   0.2344   0.7516   0.00    0.0
2188 506520.000   2248126.1417    865685.5655   5886423.3662   6   4   0.7082   0.5712   1.5903   0.3137   0.2316   0.7508   0.00    0.0
2188 506550.000   2248126.0810    865685.4780   5886423.1151   6   4   0.7079   0.5718   1.5895   0.3136   0.2289   0.7499   0.00    0.0
2188 506580.000   2248125.8815    865685.4416   5886422.8090   6   4   0.7077   0.5723   1.5887   0.3134   0.2261   0.7489   0.00    0.0
2188 506610.000   2248126.0611    865685.5482   5886422.9169   6   4   0.7074   0.5729   1.5879   0.3132   0.2233   0.7479   0.00    0.0
2188 506640.000   2248126.1218    865685.5468   5886423.1729   6   4   0.7071   0.5735   1.5871   0.3131   0.2205   0.7468   0.00    0.0
2188 506670.000   2248126.1281    865685.6009   5886423.0358   6   4   0.7068   0.5740   1.5863   0.3129   0.2176   0.7457   0.00    0.0
2188 506700.000   2248126.1024    865685.4823   5886423.2339   6   4   0.7064   0.5746   1.5855   0.3128   0.2148   0.7446   0.00    0.0
2188 506730.000   2248126.1196    865685.5561   5886423.1659   6   4   0.7061   0.5752   1.5847   0.3126   0.2118   0.7434   0.00    0.0
2188 506760.000   2248126.1601    865685.6650   5886422.9361   6   4   0.7057   0.5758   1.5840   0.3125   0.2089   0.7421   0.00    0.0
2188 506790.000   2248126.0182    865685.6251   5886422.6115   6   4   0.7053   0.5765   1.5832   0.3124   0.2059   0.7408   0.00    0.0
2188 506820.000   2248125.9666    865685.4951   5886423.2104   6   4   0.7049   0.5771   1.5825   0.3123   0.2029   0.7395   0.00    0.0
2188 506850.000   2248126.2005    865685.5029   5886423.1545   6   4   0.7044   0.5778   1.5817   0.3121   0.1999   0.7381   0.00    0.0
2188 506880.000   2248126.2836    865685.6664   5886423.4614   6   4   0.7040   0.5784   1.5810   0.3120   0.1968   0.7366   0.00    0.0
2188 506910.000   2248126.1593    865685.5577   5886423.3429   6   4   0.7035   0.5791   1.5803   0.3119   0.1937   0.7351   0.00    0.0
2188 506940.000   2248126.2482    865685.5742   5886423.6796   6   4   0.7030   0.5798   1.5796   0.3119   0.1905   0.7336   0.00    0.0
2188 506970.000   2248126.1896    865685.6427   5886423.1648   6   4   0.7025   0.5805   1.5790   0.3117   0.1873   0.7320   0.00    0.0
2188 507000.000   2248126.2161    865685.4750   5886423.2418   6   4   0.7019   0.5813   1.5783   0.3117   0.1840   0.7304   0.00    0.0
2188 507030.000   2248126.2573    865685.5130   5886423.0363   6   4   0.7014   0.5820   1.5777   0.3116   0.1807   0.7287   0.00    0.0
2188 507060.000   2248126.3408    865685.4911   5886423.6389   6   4   0.7008   0.5827   1.5770   0.3115   0.1773   0.7270   0.00    0.0
2188 507090.000   2248126.2008    865685.5147   5886423.5962   6   4   0.7003   0.5835   1.5764   0.3115   0.1739   0.7252   0.00    0.0
2188 507120.000   2248126.1273    865685.3100   5886423.5241   6   5   0.6997   0.5842   1.5759   0.3114   0.1704   0.7234   0.00    0.0
2188 507150.000   2248126.0348    865685.3993   5886422.9435   6   5   0.6843   0.5821   1.5656   0.2975   0.1954   0.7387   0.00    0.0
2188 507180.000   2248126.1451    865685.5485   5886423.2633   6   5   0.6782   0.5818   1.5623   0.2923   0.2007   0.7423   0.00    0.0
2188 507210.000   2248126.2423    865685.4016   5886423.4558   6   5   0.6745   0.5820   1.5608   0.2893   0.2015   0.7429   0.00    0.0
2188 507240.000   2248126.1527    865685.4931   5886423.4266   6   5   0.6718   0.5824   1.5600   0.2873   0.2006   0.7423   0.00    0.0
2188 507270.000   2248126.2973    865685.5320   5886423.7607   6   5   0.6695   0.5830   1.5596   0.2857   0.1988   0.7412   0.00    0.0
2188 507300.000   2248126.2563    865685.5157   5886423.7220   6   5   0.6675   0.5836   1.5594   0.2844   0.1965   0.7396   0.00    0.0
2188 507330.000   2248126.2340    865685.6060   5886422.9264   6   5   0.6656   0.5842   1.5593   0.2833   0.1938   0.7378   0.00    0.0
2188 507360.000   2248126.1976    865685.4820   5886423.4943   6   5   0.6639   0.5849   1.5593   0.2822   0.1908   0.7358   0.00    0.0
2188 507390.000   2248126.1552    865685.4604   5886423.0366   6   5   0.6622   0.5856   1.5595   0.2813   0.1876   0.7337   0.00    0.0
2188 507420.000   2248126.1982    865685.4865   5886423.3515   6   5   0.6605   0.5864   1.5596   0.2804   0.1843   0.7315   0.00    0.0
2188 507450.000   2248126.3701    865685.6723   5886423.6596   6   4   0.6886   0.6434   1.5834   0.3616   0.3229   0.7656   0.00    0.0
2188 507480.000   2248126.3243    865685.6112   5886423.5408   6   4   0.6756   0.6229   1.5747   0.3314   0.2744   0.7493   0.00    0.0
2188 507510.000   2248126.3009    865685.6510   5886423.8407   6   4   0.6702   0.6164   1.5721   0.3203   0.2546   0.7422   0.00    0.0
2188 507540.000   2248126.1891    865685.6375   5886423.4514   6   4   0.6668   0.6136   1.5710   0.3142   0.2428   0.7374   0.00    0.0
2188 507570.000   2248126.2591    865685.4319   5886423.6897   6   4   0.6641   0.6123   1.5706   0.3102   0.2343   0.7334   0.00    0.0
2188 507600.000   2248126.3816    865685.6722   5886423.8569   6   4   0.6804   0.6475   1.5869   0.3580   0.3164   0.7541   0.00    0.0
2188 507630.000   2248126.3646    865685.7425   5886423.8476   6   4   0.6788   0.6484   1.5878   0.3573   0.3151   0.7517   0.00    0.0
2188 507660.000   2248126.3328    865685.6089   5886423.6806   6   4   0.6773   0.6493   1.5887   0.3566   0.3137   0.7492   0.00    0.0
2188 507690.000   2248126.2676    865685.8093   5886423.3558   6   4   0.6757   0.6503   1.5896   0.3560   0.3123   0.7467   0.00    0.0
2188 507720.000   2248126.4532    865685.7230   5886423.7525   6   4   0.6741   0.6512   1.5907   0.3554   0.3109   0.7441   0.00    0.0
2188 507750.000   2248126.4980    865685.6225   5886424.0815   6   4   0.6754   0.6639   1.7509   0.3438   0.0712   0.7712   0.00    0.0
2188 507780.000   2248126.4389    865685.7528   5886423.8748   6   4   0.6739   0.6647   1.7519   0.3433   0.0709   0.7687   0.00    0.0
2188 507810.000   2248126.3854    865685.6340   5886423.5284   6   4   0.6724   0.6655   1.7528   0.3428   0.0706   0.7661   0.00    0.0
2188 507840.000   2248126.3918    865685.6767   5886423.9656   6   4   0.6709   0.6663   1.7538   0.3424   0.0703   0.7634   0.00    0.0
2188 507870.000   2248126.4232    865685.5907   5886423.8251   6   4   0.6694   0.6671   1.7547   0.3419   0.0708   0.7607   0.00    0.0
2188 507900.000   2248126.3970    865685.5783   5886423.6581   6   4   0.6679   0.6680   1.7556   0.3415   0.0711   0.7579   0.00    0.0
2188 507930.000   2248126.2992    865685.6151   5886423.7120   6   4   0.6664   0.6689   1.7566   0.3412   0.0718   0.7551   0.00    0.0
2188 507960.000   2248126.4133    865685.6461   5886424.0063   6   4   0.6923   0.7210   1.7866   0.4094   0.3018   0.7924   0.00    0.0
2188 507990.000   2248126.3221    865685.5872   5886423.8992   6   4   0.6905   0.7214   1.7878   0.4084   0.3023   0.7895   0.00    0.0
2188 508020.000   2248126.3521    865685.5644   5886423.8025   6   4   0.6888   0.7218   1.7890   0.4074   0.3029   0.7866   0.00    0.0
2188 508050.000   2248126.2704    865685.6657   5886423.6926   6   4   0.6870   0.7223   1.7902   0.4065   0.3034   0.7837   0.00    0.0
2188 508080.000   2248126.3650    865685.7299   5886423.7396   6   4   0.6852   0.7228   1.7914   0.4055   0.3041   0.7807   0.00    0.0
2188 508110.000   2248126.2928    865685.7805   5886423.6464   6   4   0.6835   0.7234   1.7925   0.4046   0.3047   0.7776   0.00    0.0
2188 508140.000   2248126.4392    865685.7307   5886423.8078   6   4   0.6818   0.7238   1.7937   0.4036   0.3054   0.7745   0.00    0.0
2188 508170.000   2248126.3878    865685.7882   5886423.9202   6   4   0.6800   0.7244   1.7949   0.4027   0.3062   0.7713   0.00    0.0
2188 508200.000   2248126.3210    865685.5642   5886423.6682   6   4   0.6783   0.7250   1.7960   0.4018   0.3069   0.7681   0.00    0.0
2188 508230.000   2248126.4932    865685.9176   5886424.1798   6   4   0.6766   0.7256   1.7972   0.4009   0.3077   0.7649   0.00    0.0
2188 508260.000   2248126.4143    865685.6133   5886423.8881   6   4   0.6750   0.7261   1.7984   0.4001   0.3086   0.7616   0.00    0.0
2188 508290.000   2248126.4125    865685.6130   5886423.9593   6   4   0.6733   0.7267   1.7995   0.3992   0.3095   0.7582   0.00    0.0
2188 508320.000   2248126.3470    865685.7249   5886423.7890   6   4   0.6717   0.7274   1.8007   0.3983   0.3105   0.7548   0.00    0.0
