% program   : RTKLIB ver.demo5 b34j
% inp file  : E:\GAMPII-GOOD\dataset_Win\obs\2021\351\MGEX\daily\kir83510.21o
% inp file  : E:\Navigation_Learn\GNSS\RTKLIB-b34k\data\data_IGM-A1_Vehicle_open_20211217-nsh\brdm3510.21p
% obs start : 2021/12/17 00:00:00.0 GPST (week2188 432000.0s)
% obs end   : 2021/12/17 23:59:30.0 GPST (week2188 518370.0s)
% pos mode  : Single
% elev mask : 7.0 deg
% ionos opt : Iono-Free LC
% tropo opt : Saastamoinen
% ephemeris : Broadcast
% navi sys  : BDS
%
% (x/y/z-ecef=WGS84,Q=1:fix,2:float,3:sbas,4:dgps,5:single,6:ppp,ns=# of satellites)
%  GPST              x-ecef(m)      y-ecef(m)      z-ecef(m)   Q  ns   sdx(m)   sdy(m)   sdz(m)  sdxy(m)  sdyz(m)  sdzx(m) age(s)  ratio
2188 432000.000   2248127.7866    865685.5503   5886425.9638   5  11   1.9485   1.4160   3.8624   0.7153   0.9121   1.6268   0.00    0.0
2188 432030.000   2248126.4544    865685.1928   5886423.6377   5  11   1.9493   1.4154   3.8670   0.7135   0.9130   1.6321   0.00    0.0
2188 432060.000   2248126.6028    865685.0352   5886422.9663   5  11   1.9501   1.4148   3.8717   0.7117   0.9140   1.6372   0.00    0.0
2188 432090.000   2248126.4067    865684.9295   5886424.7995   5  11   1.9509   1.4142   3.8765   0.7100   0.9149   1.6423   0.00    0.0
2188 432120.000   2248125.8420    865685.1041   5886424.4871   5  11   1.9517   1.4136   3.8814   0.7082   0.9159   1.6473   0.00    0.0
2188 432150.000   2248126.1171    865684.9189   5886423.0802   5  11   1.9526   1.4131   3.8864   0.7064   0.9168   1.6522   0.00    0.0
2188 432180.000   2248125.8517    865684.8370   5886424.5640   5  11   1.9535   1.4126   3.8915   0.7046   0.9178   1.6571   0.00    0.0
2188 432210.000   2248127.5745    865685.6325   5886424.4027   5  11   1.9544   1.4121   3.8966   0.7028   0.9188   1.6618   0.00    0.0
2188 432240.000   2248127.1011    865685.3844   5886423.9125   5  10   2.1764   1.4253   4.1084   0.5510   0.7702   2.0017   0.00    0.0
2188 432270.000   2248128.0216    865685.6413   5886424.3521   5  10   2.1774   1.4248   4.1164   0.5490   0.7706   2.0079   0.00    0.0
2188 432300.000   2248127.7256    865684.8800   5886424.8161   5  10   2.1784   1.4244   4.1244   0.5471   0.7711   2.0140   0.00    0.0
2188 432330.000   2248127.3941    865685.3589   5886424.0883   5  10   2.1794   1.4239   4.1325   0.5452   0.7716   2.0199   0.00    0.0
2188 432360.000   2248126.9518    865685.0970   5886425.0083   5  10   2.1804   1.4236   4.1406   0.5433   0.7722   2.0257   0.00    0.0
2188 432390.000   2248126.6349    865684.7459   5886423.0816   5  10   2.1814   1.4232   4.1487   0.5413   0.7728   2.0314   0.00    0.0
2188 432420.000   2248127.5989    865684.6936   5886423.6905   5  10   2.1823   1.4229   4.1569   0.5394   0.7735   2.0370   0.00    0.0
2188 432450.000   2248126.2998    865685.0453   5886423.5353   5  10   2.1832   1.4226   4.1650   0.5374   0.7742   2.0425   0.00    0.0
2188 432480.000   2248127.0578    865685.7486   5886425.4155   5  10   2.1842   1.4223   4.1732   0.5355   0.7750   2.0478   0.00    0.0
2188 432510.000   2248127.5598    865685.8586   5886424.4519   5  10   2.1851   1.4220   4.1814   0.5335   0.7758   2.0529   0.00    0.0
2188 432540.000   2248126.8619    865685.4829   5886423.1961   5  10   2.1859   1.4218   4.1897   0.5315   0.7767   2.0580   0.00    0.0
2188 432570.000   2248126.8926    865685.2550   5886423.3024   5  10   2.1868   1.4216   4.1979   0.5295   0.7776   2.0629   0.00    0.0
2188 432600.000   2248125.9342    865685.4152   5886423.3675   5  10   2.1876   1.4215   4.2062   0.5276   0.7786   2.0677   0.00    0.0
2188 432630.000   2248125.8708    865684.9888   5886421.0464   5  10   2.1884   1.4214   4.2144   0.5256   0.7797   2.0723   0.00    0.0
2188 432660.000   2248125.8085    865685.0149   5886420.8272   5  10   2.1891   1.4213   4.2227   0.5236   0.7809   2.0768   0.00    0.0
2188 432690.000   2248126.6789    865685.7044   5886423.0460   5  10   2.1899   1.4212   4.2309   0.5216   0.7821   2.0811   0.00    0.0
2188 432720.000   2248126.8745    865685.7788   5886424.0942   5  10   2.1906   1.4212   4.2392   0.5195   0.7835   2.0853   0.00    0.0
2188 432750.000   2248126.3272    865685.7078   5886424.2754   5  10   2.1912   1.4212   4.2474   0.5175   0.7849   2.0893   0.00    0.0
2188 432780.000   2248127.5596    865685.2169   5886423.7130   5  10   2.1919   1.4212   4.2557   0.5155   0.7865   2.0932   0.00    0.0
2188 432810.000   2248127.3626    865685.2284   5886422.7720   5  10   2.1925   1.4213   4.2640   0.5135   0.7881   2.0969   0.00    0.0
2188 432840.000   2248127.7888    865685.6087   5886422.4039   5  10   2.1930   1.4214   4.2722   0.5114   0.7899   2.1005   0.00    0.0
2188 432870.000   2248127.4319    865685.2480   5886424.3348   5  10   2.1935   1.4215   4.2805   0.5094   0.7917   2.1039   0.00    0.0
2188 432900.000   2248127.0224    865685.4712   5886424.2863   5  10   2.1940   1.4216   4.2888   0.5073   0.7937   2.1072   0.00    0.0
2188 432930.000   2248127.6832    865684.9676   5886422.9174   5  10   2.1945   1.4218   4.2971   0.5053   0.7958   2.1103   0.00    0.0
2188 432960.000   2248128.2426    865685.2159   5886424.3441   5  10   2.1949   1.4221   4.3054   0.5032   0.7981   2.1132   0.00    0.0
2188 432990.000   2248127.3917    865685.0809   5886421.3471   5  10   2.1952   1.4223   4.3137   0.5011   0.8005   2.1160   0.00    0.0
2188 433020.000   2248128.0711    865684.8436   5886422.8567   5  10   2.1955   1.4226   4.3221   0.4991   0.8031   2.1186   0.00    0.0
2188 433050.000   2248127.5575    865684.6468   5886422.4548   5  10   2.1958   1.4230   4.3304   0.4970   0.8058   2.1210   0.00    0.0
2188 433080.000   2248126.8822    865684.6963   5886423.1908   5  10   2.1960   1.4233   4.3389   0.4949   0.8087   2.1233   0.00    0.0
2188 433110.000   2248127.4772    865684.3899   5886423.1213   5  10   2.1962   1.4237   4.3473   0.4928   0.8117   2.1255   0.00    0.0
2188 433140.000   2248126.9821    865685.1427   5886421.8664   5  10   2.1963   1.4242   4.3558   0.4908   0.8150   2.1274   0.00    0.0
2188 433170.000   2248127.8542    865685.2932   5886422.6538   5  10   2.1964   1.4246   4.3644   0.4887   0.8184   2.1292   0.00    0.0
2188 433200.000   2248126.6616    865685.7880   5886424.4579   5  10   2.1965   1.4252   4.3730   0.4866   0.8221   2.1309   0.00    0.0
2188 433230.000   2248126.9299    865685.8467   5886425.8968   5  10   2.1964   1.4257   4.3817   0.4845   0.8259   2.1323   0.00    0.0
2188 433260.000   2248127.0387    865685.7656   5886425.7551   5  10   2.1964   1.4263   4.3904   0.4825   0.8300   2.1336   0.00    0.0
2188 433290.000   2248126.6662    865685.2723   5886422.8625   5  10   2.1963   1.4270   4.3993   0.4804   0.8344   2.1348   0.00    0.0
2188 433320.000   2248127.2639    865685.0610   5886421.2354   5  10   2.1961   1.4277   4.4083   0.4783   0.8389   2.1357   0.00    0.0
2188 433350.000   2248126.0553    865685.3439   5886423.5484   5  10   2.1959   1.4284   4.4174   0.4763   0.8438   2.1365   0.00    0.0
2188 433380.000   2248125.8321    865685.8323   5886425.7471   5   9   2.1965   1.5666   5.1931   0.4312   1.5692   2.0982   0.00    0.0
2188 433410.000   2248126.3919    865685.4308   5886424.7787   5   9   2.1961   1.5669   5.2120   0.4334   1.5755   2.1023   0.00    0.0
2188 433440.000   2248126.6431    865684.7888   5886422.6114   5   9   2.1956   1.5673   5.2308   0.4355   1.5818   2.1061   0.00    0.0
2188 433470.000   2248127.0869    865686.0551   5886424.7401   5   9   2.1951   1.5676   5.2494   0.4375   1.5879   2.1098   0.00    0.0
2188 433500.000   2248127.6351    865685.6381   5886424.1191   5   9   2.1946   1.5680   5.2677   0.4394   1.5939   2.1132   0.00    0.0
2188 433530.000   2248126.9372    865686.0855   5886425.8020   5   9   2.1940   1.5684   5.2859   0.4412   1.5999   2.1165   0.00    0.0
2188 433560.000   2248126.8320    865685.9256   5886423.0554   5   9   2.1934   1.5687   5.3038   0.4429   1.6057   2.1195   0.00    0.0
2188 433590.000   2248125.7086    865685.0754   5886424.9511   5   9   2.1928   1.5691   5.3215   0.4446   1.6114   2.1224   0.00    0.0
2188 433620.000   2248127.1123    865684.9490   5886425.8018   5   9   2.1921   1.5695   5.3388   0.4461   1.6170   2.1250   0.00    0.0
2188 433650.000   2248126.1020    865684.7912   5886424.6650   5   9   2.1914   1.5698   5.3559   0.4475   1.6225   2.1274   0.00    0.0
2188 433680.000   2248127.2974    865685.2039   5886425.4075   5   9   2.1907   1.5702   5.3728   0.4488   1.6279   2.1295   0.00    0.0
2188 433710.000   2248127.2913    865685.2024   5886426.7477   5   9   2.1899   1.5706   5.3893   0.4500   1.6332   2.1315   0.00    0.0
2188 433740.000   2248127.4152    865685.5359   5886425.6250   5   9   2.1891   1.5710   5.4054   0.4511   1.6383   2.1332   0.00    0.0
2188 433770.000   2248126.9429    865685.9785   5886424.7660   5   9   2.1883   1.5713   5.4212   0.4520   1.6432   2.1346   0.00    0.0
2188 433800.000   2248126.1253    865685.8803   5886426.3685   5   9   2.1874   1.5717   5.4367   0.4529   1.6481   2.1359   0.00    0.0
2188 433830.000   2248127.1047    865685.4884   5886425.1566   5   9   2.1866   1.5721   5.4518   0.4536   1.6527   2.1368   0.00    0.0
2188 433860.000   2248127.0809    865685.9275   5886422.6853   5   9   2.1856   1.5724   5.4665   0.4542   1.6572   2.1375   0.00    0.0
2188 433890.000   2248126.6508    865686.1023   5886425.7874   5   9   2.1847   1.5728   5.4808   0.4547   1.6616   2.1380   0.00    0.0
2188 433920.000   2248126.8808    865686.2831   5886423.9670   5   9   2.1837   1.5731   5.4947   0.4551   1.6658   2.1382   0.00    0.0
2188 433950.000   2248126.7720    865686.6759   5886424.1248   5   9   2.1826   1.5734   5.5081   0.4553   1.6698   2.1381   0.00    0.0
2188 433980.000   2248126.9846    865685.2149   5886426.0603   5   9   2.1816   1.5738   5.5211   0.4555   1.6736   2.1377   0.00    0.0
2188 434010.000   2248126.0454    865685.0482   5886423.7431   5   9   2.1805   1.5741   5.5336   0.4554   1.6773   2.1371   0.00    0.0
2188 434040.000   2248127.8469    865685.1281   5886425.9968   5   9   2.1793   1.5744   5.5457   0.4553   1.6808   2.1362   0.00    0.0
2188 434070.000   2248126.4527    865685.0515   5886424.2223   5   9   2.1782   1.5747   5.5573   0.4550   1.6841   2.1350   0.00    0.0
2188 434100.000   2248126.4296    865684.9773   5886426.6267   5   9   2.1770   1.5750   5.5683   0.4546   1.6871   2.1336   0.00    0.0
2188 434130.000   2248126.7822    865684.9746   5886425.3795   5   9   2.1758   1.5753   5.5789   0.4541   1.6900   2.1318   0.00    0.0
2188 434160.000   2248127.1195    865685.2341   5886423.8918   5   9   2.1745   1.5756   5.5890   0.4534   1.6927   2.1298   0.00    0.0
2188 434190.000   2248126.1822    865685.8813   5886426.1326   5   9   2.1732   1.5758   5.5985   0.4526   1.6952   2.1275   0.00    0.0
2188 434220.000   2248125.4132    865684.9406   5886423.9131   5   9   2.1719   1.5761   5.6074   0.4516   1.6975   2.1249   0.00    0.0
2188 434250.000   2248126.5939    865685.8317   5886424.6354   5   9   2.1706   1.5763   5.6158   0.4505   1.6995   2.1220   0.00    0.0
2188 434280.000   2248125.9923    865685.9431   5886425.0761   5   9   2.1693   1.5765   5.6237   0.4493   1.7014   2.1188   0.00    0.0
2188 434310.000   2248126.4217    865685.5054   5886424.8066   5   9   2.1679   1.5767   5.6309   0.4479   1.7030   2.1153   0.00    0.0
2188 434340.000   2248126.3996    865685.0866   5886425.0920   5   9   2.1665   1.5769   5.6376   0.4464   1.7044   2.1115   0.00    0.0
2188 434370.000   2248126.9880    865685.5219   5886426.5022   5   9   2.1650   1.5771   5.6437   0.4448   1.7056   2.1074   0.00    0.0
2188 434400.000   2248127.2584    865685.8875   5886427.0835   5   9   2.1636   1.5772   5.6492   0.4430   1.7065   2.1031   0.00    0.0
2188 434430.000   2248126.0159    865685.7756   5886423.7874   5   9   2.1621   1.5774   5.6541   0.4410   1.7072   2.0984   0.00    0.0
2188 434460.000   2248126.4073    865685.5636   5886424.2649   5   9   2.1607   1.5775   5.6584   0.4389   1.7077   2.0935   0.00    0.0
2188 434490.000   2248126.0147    865685.9268   5886427.1642   5   9   2.1592   1.5776   5.6621   0.4367   1.7080   2.0882   0.00    0.0
2188 434520.000   2248126.6737    865685.7590   5886426.5932   5   9   2.1577   1.5777   5.6652   0.4343   1.7080   2.0827   0.00    0.0
2188 434550.000   2248126.6709    865684.9626   5886426.2842   5   9   2.1562   1.5778   5.6677   0.4318   1.7078   2.0769   0.00    0.0
2188 434580.000   2248127.4021    865685.1790   5886426.1344   5   9   2.1546   1.5779   5.6695   0.4292   1.7073   2.0708   0.00    0.0
2188 434610.000   2248126.1951    865685.4126   5886427.4461   5   9   2.1531   1.5780   5.6707   0.4264   1.7067   2.0644   0.00    0.0
2188 434640.000   2248127.1074    865685.2541   5886425.3135   5   9   2.1516   1.5780   5.6713   0.4234   1.7057   2.0578   0.00    0.0
2188 434670.000   2248127.8015    865685.0002   5886426.3456   5   9   2.1500   1.5780   5.6713   0.4204   1.7046   2.0508   0.00    0.0
2188 434700.000   2248127.5865    865685.2022   5886426.0315   5   9   2.1485   1.5780   5.6706   0.4171   1.7032   2.0436   0.00    0.0
2188 434730.000   2248126.9976    865685.5883   5886426.0390   5   9   2.1470   1.5781   5.6693   0.4138   1.7016   2.0362   0.00    0.0
2188 434760.000   2248126.7983    865685.7114   5886426.0723   5   9   2.1454   1.5780   5.6674   0.4103   1.6997   2.0285   0.00    0.0
2188 434790.000   2248127.2927    865685.5035   5886426.8888   5   9   2.1439   1.5780   5.6650   0.4066   1.6976   2.0205   0.00    0.0
2188 434820.000   2248126.6572    865685.8808   5886428.2873   5   9   2.1424   1.5780   5.6618   0.4029   1.6953   2.0123   0.00    0.0
2188 434850.000   2248126.3403    865686.3106   5886425.3020   5   9   2.1409   1.5779   5.6581   0.3989   1.6927   2.0038   0.00    0.0
2188 434880.000   2248126.4645    865685.9461   5886427.1028   5   9   2.1394   1.5779   5.6538   0.3949   1.6899   1.9951   0.00    0.0
2188 434910.000   2248126.2831    865685.7632   5886425.5610   5   9   2.1379   1.5778   5.6489   0.3907   1.6869   1.9862   0.00    0.0
2188 434940.000   2248126.0022    865685.8848   5886427.4537   5   9   2.1364   1.5777   5.6434   0.3864   1.6837   1.9770   0.00    0.0
2188 434970.000   2248126.7796    865685.7753   5886426.2733   5   9   2.1350   1.5776   5.6374   0.3819   1.6802   1.9676   0.00    0.0
2188 435000.000   2248127.7805    865685.4446   5886428.4683   5   9   2.1336   1.5776   5.6308   0.3773   1.6766   1.9580   0.00    0.0
2188 435030.000   2248127.0685    865685.5851   5886426.2406   5   9   2.1322   1.5774   5.6236   0.3726   1.6727   1.9482   0.00    0.0
2188 435060.000   2248127.5094    865685.3090   5886428.0336   5   9   2.1308   1.5773   5.6158   0.3677   1.6686   1.9382   0.00    0.0
2188 435090.000   2248127.3039    865685.5584   5886425.7837   5   9   2.1295   1.5772   5.6076   0.3627   1.6643   1.9280   0.00    0.0
2188 435120.000   2248127.2828    865685.5229   5886426.0289   5   9   2.1282   1.5771   5.5988   0.3576   1.6598   1.9177   0.00    0.0
2188 435150.000   2248127.1844    865685.7327   5886424.4633   5   9   2.1269   1.5770   5.5895   0.3524   1.6551   1.9071   0.00    0.0
2188 435180.000   2248126.5895    865685.7754   5886426.2454   5   9   2.1257   1.5768   5.5797   0.3470   1.6502   1.8964   0.00    0.0
2188 435210.000   2248126.7778    865685.6560   5886426.7911   5   9   2.1245   1.5767   5.5694   0.3415   1.6451   1.8856   0.00    0.0
2188 435240.000   2248126.6604    865685.1586   5886423.0223   5   9   2.1234   1.5766   5.5586   0.3358   1.6398   1.8745   0.00    0.0
2188 435270.000   2248127.2038    865685.3735   5886426.9333   5   9   2.1223   1.5764   5.5473   0.3301   1.6344   1.8634   0.00    0.0
2188 435300.000   2248128.0315    865685.2772   5886425.9300   5   9   2.1212   1.5763   5.5357   0.3242   1.6288   1.8521   0.00    0.0
2188 435330.000   2248126.4181    865685.5356   5886424.9049   5   9   2.1202   1.5762   5.5235   0.3181   1.6230   1.8407   0.00    0.0
2188 435360.000   2248126.6381    865685.3104   5886427.6003   5   9   2.1193   1.5760   5.5110   0.3120   1.6170   1.8292   0.00    0.0
2188 435390.000   2248127.6560    865686.2546   5886428.2531   5   9   2.1184   1.5759   5.4980   0.3057   1.6109   1.8176   0.00    0.0
2188 435420.000   2248126.1799    865685.4527   5886424.2076   5   9   2.1176   1.5758   5.4847   0.2992   1.6046   1.8058   0.00    0.0
2188 435450.000   2248126.4075    865684.9139   5886423.2559   5   9   2.1168   1.5757   5.4710   0.2926   1.5981   1.7940   0.00    0.0
2188 435480.000   2248127.5179    865685.6310   5886426.3798   5   9   2.1161   1.5756   5.4569   0.2859   1.5916   1.7821   0.00    0.0
2188 435510.000   2248127.0320    865685.9408   5886426.0173   5   9   2.1154   1.5755   5.4425   0.2791   1.5848   1.7702   0.00    0.0
2188 435540.000   2248126.5770    865685.3378   5886426.1574   5   9   2.1148   1.5754   5.4277   0.2721   1.5780   1.7582   0.00    0.0
2188 435570.000   2248127.6491    865685.5396   5886427.3439   5   9   2.1143   1.5753   5.4127   0.2649   1.5710   1.7461   0.00    0.0
2188 435600.000   2248126.9761    865685.0989   5886426.8841   5   9   2.1139   1.5752   5.3973   0.2576   1.5639   1.7340   0.00    0.0
2188 435630.000   2248126.7475    865685.3384   5886425.5382   5   9   2.1135   1.5752   5.3817   0.2501   1.5566   1.7219   0.00    0.0
2188 435660.000   2248126.3753    865685.5069   5886425.6881   5   9   2.1133   1.5751   5.3658   0.2425   1.5493   1.7098   0.00    0.0
2188 435690.000   2248127.0478    865685.8171   5886427.0707   5   9   2.1130   1.5751   5.3497   0.2346   1.5418   1.6976   0.00    0.0
2188 435720.000   2248126.4845    865686.0341   5886427.7014   5   9   2.1129   1.5751   5.3333   0.2266   1.5343   1.6855   0.00    0.0
2188 435750.000   2248125.9367    865686.1877   5886427.6242   5   9   2.1129   1.5751   5.3167   0.2183   1.5266   1.6733   0.00    0.0
2188 435780.000   2248127.1064    865685.4212   5886427.1297   5   9   2.1129   1.5751   5.2999   0.2098   1.5189   1.6612   0.00    0.0
2188 435810.000   2248126.2686    865685.0437   5886426.0155   5   9   2.1131   1.5752   5.2829   0.2011   1.5110   1.6491   0.00    0.0
2188 435840.000   2248127.2191    865685.3184   5886426.3779   5   9   2.1133   1.5752   5.2658   0.1921   1.5031   1.6370   0.00    0.0
2188 435870.000   2248126.8504    865685.1342   5886425.6587   5   9   2.1136   1.5753   5.2485   0.1827   1.4951   1.6250   0.00    0.0
2188 435900.000   2248127.2774    865685.0637   5886426.9544   5   9   2.1140   1.5754   5.2311   0.1730   1.4871   1.6131   0.00    0.0
2188 435930.000   2248127.1832    865685.5655   5886425.8420   5   9   2.1145   1.5756   5.2135   0.1629   1.4790   1.6012   0.00    0.0
2188 435960.000   2248126.4824    865685.3394   5886422.4314   5   9   2.1151   1.5757   5.1959   0.1522   1.4708   1.5894   0.00    0.0
2188 435990.000   2248126.4753    865684.9232   5886424.1345   5   9   2.1158   1.5759   5.1781   0.1410   1.4625   1.5776   0.00    0.0
2188 436020.000   2248126.3825    865684.7893   5886425.3126   5  10   1.8487   1.5747   5.0820  -0.2308   1.4332   1.2367   0.00    0.0
2188 436050.000   2248126.7097    865684.9195   5886423.5622   5  10   1.8481   1.5749   5.0674  -0.2365   1.4255   1.2296   0.00    0.0
2188 436080.000   2248126.9328    865685.1497   5886425.3499   5  10   1.8475   1.5752   5.0527  -0.2420   1.4177   1.2226   0.00    0.0
2188 436110.000   2248127.1083    865685.5029   5886429.5504   5  10   1.8470   1.5755   5.0379  -0.2473   1.4098   1.2159   0.00    0.0
2188 436140.000   2248126.9027    865685.7498   5886427.4876   5  10   1.8467   1.5759   5.0230  -0.2525   1.4019   1.2094   0.00    0.0
2188 436170.000   2248125.9019    865685.4442   5886423.5093   5  10   1.8465   1.5763   5.0080  -0.2576   1.3939   1.2032   0.00    0.0
2188 436200.000   2248126.4233    865685.4921   5886425.8681   5  10   1.8464   1.5767   4.9929  -0.2625   1.3859   1.1972   0.00    0.0
2188 436230.000   2248126.4600    865685.5582   5886426.7298   5  10   1.8464   1.5771   4.9778  -0.2673   1.3779   1.1914   0.00    0.0
2188 436260.000   2248126.7537    865685.6355   5886425.5999   5  10   1.8465   1.5776   4.9626  -0.2720   1.3699   1.1859   0.00    0.0
2188 436290.000   2248126.7538    865685.7119   5886425.4140   5  10   1.8467   1.5781   4.9474  -0.2766   1.3618   1.1806   0.00    0.0
2188 436320.000   2248126.3045    865685.5601   5886424.4413   5  10   1.8471   1.5787   4.9321  -0.2811   1.3537   1.1756   0.00    0.0
2188 436350.000   2248126.7080    865685.5214   5886426.7993   5  10   1.8475   1.5793   4.9169  -0.2855   1.3455   1.1708   0.00    0.0
2188 436380.000   2248127.0796    865685.1870   5886426.7939   5  10   1.8481   1.5799   4.9016  -0.2899   1.3374   1.1662   0.00    0.0
2188 436410.000   2248127.4503    865685.2254   5886426.3622   5  10   1.8488   1.5806   4.8864  -0.2941   1.3293   1.1620   0.00    0.0
2188 436440.000   2248126.2111    865685.4438   5886426.1421   5  10   1.8496   1.5813   4.8712  -0.2983   1.3211   1.1579   0.00    0.0
2188 436470.000   2248126.3360    865685.3750   5886427.6177   5  10   1.8505   1.5820   4.8561  -0.3024   1.3130   1.1542   0.00    0.0
2188 436500.000   2248126.4962    865685.7967   5886426.8813   5  10   1.8516   1.5828   4.8410  -0.3065   1.3048   1.1507   0.00    0.0
2188 436530.000   2248126.5627    865685.3981   5886424.9768   5  10   1.8527   1.5836   4.8259  -0.3105   1.2967   1.1475   0.00    0.0
2188 436560.000   2248125.8884    865685.2785   5886426.3959   5   9   2.1219   1.5853   4.8978  -0.3904   1.2700   1.5026   0.00    0.0
2188 436590.000   2248126.4007    865685.0579   5886425.4522   5   9   2.1208   1.5862   4.8847  -0.3916   1.2621   1.5017   0.00    0.0
2188 436620.000   2248126.7429    865685.1501   5886426.9827   5   9   2.1197   1.5872   4.8717  -0.3929   1.2542   1.5008   0.00    0.0
2188 436650.000   2248127.8425    865685.9809   5886427.0839   5   9   2.1187   1.5881   4.8586  -0.3942   1.2464   1.5000   0.00    0.0
2188 436680.000   2248126.9517    865685.5353   5886424.3893   5   9   2.1177   1.5892   4.8457  -0.3955   1.2386   1.4991   0.00    0.0
2188 436710.000   2248126.8251    865685.3591   5886425.2990   5   9   2.1167   1.5902   4.8329  -0.3969   1.2308   1.4983   0.00    0.0
2188 436740.000   2248126.3143    865685.1366   5886425.2977   5   9   2.1158   1.5914   4.8201  -0.3984   1.2231   1.4975   0.00    0.0
2188 436770.000   2248127.0195    865685.0015   5886425.9935   5  10   2.0851   1.5761   3.8227  -0.2812   0.9009   1.8089   0.00    0.0
2188 436800.000   2248124.8645    865685.0744   5886424.3797   5  10   2.0835   1.5776   3.8150  -0.2825   0.8946   1.8108   0.00    0.0
2188 436830.000   2248126.0204    865685.5262   5886424.3445   5  10   2.0819   1.5791   3.8078  -0.2839   0.8885   1.8128   0.00    0.0
2188 436860.000   2248127.0215    865684.4002   5886425.6140   5  10   2.0804   1.5807   3.8010  -0.2854   0.8825   1.8146   0.00    0.0
2188 436890.000   2248127.2716    865685.1090   5886426.3976   5  10   2.0788   1.5824   3.7946  -0.2870   0.8766   1.8164   0.00    0.0
2188 436920.000   2248127.3383    865684.4622   5886426.7128   5  10   2.0773   1.5841   3.7886  -0.2887   0.8709   1.8181   0.00    0.0
2188 436950.000   2248127.7862    865684.6837   5886428.1911   5  10   2.0758   1.5858   3.7830  -0.2904   0.8653   1.8198   0.00    0.0
2188 436980.000   2248127.2371    865685.6906   5886427.1940   5  10   2.0743   1.5877   3.7777  -0.2922   0.8598   1.8214   0.00    0.0
2188 437010.000   2248126.4991    865685.5070   5886426.1041   5  10   2.0729   1.5895   3.7728  -0.2941   0.8544   1.8229   0.00    0.0
2188 437040.000   2248127.0670    865685.7288   5886427.1632   5  10   2.0714   1.5915   3.7682  -0.2960   0.8491   1.8244   0.00    0.0
2188 437070.000   2248127.0132    865685.6738   5886425.7438   5  10   2.0700   1.5935   3.7639  -0.2979   0.8439   1.8259   0.00    0.0
2188 437100.000   2248126.8028    865685.7873   5886426.4221   5  10   2.0686   1.5956   3.7599  -0.3000   0.8389   1.8273   0.00    0.0
2188 437130.000   2248125.7575    865685.6015   5886426.7136   5  10   2.0672   1.5977   3.7562  -0.3020   0.8339   1.8287   0.00    0.0
2188 437160.000   2248127.0071    865686.0558   5886424.4975   5  10   2.0659   1.5999   3.7529  -0.3041   0.8291   1.8300   0.00    0.0
2188 437190.000   2248127.0685    865685.1891   5886425.4969   5  10   2.0645   1.6021   3.7498  -0.3063   0.8243   1.8313   0.00    0.0
2188 437220.000   2248127.4231    865685.6330   5886426.0860   5  10   2.0632   1.6045   3.7470  -0.3085   0.8197   1.8325   0.00    0.0
2188 437250.000   2248126.6618    865685.3549   5886424.2172   5  10   2.0618   1.6069   3.7445  -0.3107   0.8152   1.8337   0.00    0.0
2188 437280.000   2248125.9298    865685.8717   5886424.1326   5  10   2.0605   1.6093   3.7422  -0.3130   0.8108   1.8349   0.00    0.0
2188 437310.000   2248127.1596    865685.6862   5886425.2270   5  10   2.0592   1.6119   3.7403  -0.3152   0.8065   1.8361   0.00    0.0
2188 437340.000   2248126.5212    865684.8999   5886425.7945   5  10   2.0579   1.6145   3.7386  -0.3175   0.8024   1.8372   0.00    0.0
2188 437370.000   2248126.5610    865685.1751   5886425.0721   5  10   2.0566   1.6172   3.7372  -0.3199   0.7983   1.8383   0.00    0.0
2188 437400.000   2248126.7299    865684.9519   5886426.1664   5  10   2.0553   1.6200   3.7361  -0.3222   0.7944   1.8394   0.00    0.0
2188 437430.000   2248126.1963    865684.7624   5886424.6263   5  10   2.0541   1.6228   3.7352  -0.3246   0.7906   1.8404   0.00    0.0
2188 437460.000   2248127.3578    865685.6938   5886427.5505   5  10   2.0528   1.6258   3.7346  -0.3269   0.7870   1.8415   0.00    0.0
2188 437490.000   2248127.3988    865684.8745   5886425.1100   5  10   2.0516   1.6288   3.7343  -0.3293   0.7835   1.8425   0.00    0.0
2188 437520.000   2248127.9667    865685.6541   5886425.0194   5   9   2.0577   1.9361   4.0307   0.2678   1.4796   1.9140   0.00    0.0
2188 437550.000   2248127.4469    865685.4758   5886424.1214   5   9   2.0566   1.9368   4.0313   0.2663   1.4763   1.9155   0.00    0.0
2188 437580.000   2248127.4657    865685.3398   5886425.3930   5   9   2.0555   1.9375   4.0321   0.2645   1.4729   1.9171   0.00    0.0
2188 437610.000   2248126.4446    865685.7190   5886424.7570   5   9   2.0545   1.9382   4.0331   0.2626   1.4695   1.9186   0.00    0.0
2188 437640.000   2248127.3452    865685.1189   5886424.9264   5   9   2.0534   1.9389   4.0344   0.2605   1.4661   1.9202   0.00    0.0
2188 437670.000   2248126.7442    865685.7679   5886424.9438   5   9   2.0523   1.9396   4.0359   0.2581   1.4626   1.9216   0.00    0.0
2188 437700.000   2248126.2922    865686.0194   5886424.1475   5   9   2.0512   1.9403   4.0376   0.2555   1.4590   1.9231   0.00    0.0
2188 437730.000   2248127.2809    865686.5398   5886426.6505   5   9   2.0501   1.9410   4.0395   0.2526   1.4553   1.9246   0.00    0.0
2188 437760.000   2248126.4665    865685.3812   5886424.1005   5   9   2.0491   1.9417   4.0416   0.2495   1.4515   1.9261   0.00    0.0
2188 437790.000   2248126.4560    865685.9874   5886425.0312   5   9   2.0480   1.9424   4.0440   0.2461   1.4476   1.9275   0.00    0.0
2188 437820.000   2248127.3725    865685.8013   5886424.9217   5   9   2.0470   1.9431   4.0466   0.2424   1.4437   1.9290   0.00    0.0
2188 437850.000   2248126.4410    865685.7469   5886424.8531   5   9   2.0459   1.9439   4.0495   0.2384   1.4396   1.9304   0.00    0.0
2188 437880.000   2248126.8687    865686.4748   5886426.2071   5   9   2.0449   1.9446   4.0526   0.2342   1.4354   1.9319   0.00    0.0
2188 437910.000   2248126.6720    865685.3411   5886425.7939   5   9   2.0439   1.9453   4.0560   0.2295   1.4311   1.9334   0.00    0.0
2188 437940.000   2248127.3653    865685.8990   5886424.7876   5   9   2.0429   1.9461   4.0596   0.2245   1.4267   1.9349   0.00    0.0
2188 437970.000   2248126.8747    865685.0426   5886424.1308   5   9   2.0419   1.9468   4.0635   0.2191   1.4221   1.9364   0.00    0.0
2188 438000.000   2248126.6793    865685.4259   5886422.8247   5   9   2.0409   1.9476   4.0677   0.2133   1.4174   1.9380   0.00    0.0
2188 438030.000   2248126.5217    865686.4602   5886423.1604   5   9   2.0399   1.9483   4.0722   0.2070   1.4126   1.9396   0.00    0.0
2188 438060.000   2248127.0958    865687.4452   5886424.1254   5  10   2.0008   1.6689   3.8499  -0.5957   0.7939   1.8005   0.00    0.0
2188 438090.000   2248127.7801    865687.0817   5886425.4708   5  10   2.0000   1.6675   3.8567  -0.5984   0.7839   1.8031   0.00    0.0
2188 438120.000   2248127.3684    865686.3249   5886427.1819   5  10   1.9993   1.6663   3.8638  -0.6011   0.7738   1.8059   0.00    0.0
2188 438150.000   2248127.5660    865686.6476   5886425.8728   5  10   1.9986   1.6651   3.8715  -0.6037   0.7637   1.8088   0.00    0.0
2188 438180.000   2248127.5805    865686.2678   5886426.1703   5  10   1.9979   1.6641   3.8796  -0.6062   0.7534   1.8118   0.00    0.0
2188 438210.000   2248127.0469    865686.4223   5886425.8980   5  10   1.9973   1.6631   3.8882  -0.6088   0.7429   1.8150   0.00    0.0
2188 438240.000   2248126.7073    865686.1755   5886423.7341   5  10   1.9967   1.6623   3.8974  -0.6113   0.7323   1.8184   0.00    0.0
2188 438270.000   2248125.9908    865685.6980   5886426.0228   5  10   1.9962   1.6615   3.9070  -0.6137   0.7214   1.8218   0.00    0.0
2188 438300.000   2248126.4185    865685.2953   5886423.3192   5   9   2.0630   1.7623   4.9989  -0.8292  -1.1513   2.2260   0.00    0.0
2188 438330.000   2248126.7471    865685.8733   5886423.5248   5   9   2.0638   1.7612   5.0191  -0.8323  -1.1608   2.2349   0.00    0.0
2188 438360.000   2248127.1665    865685.6901   5886425.0210   5   9   2.0646   1.7601   5.0394  -0.8353  -1.1702   2.2437   0.00    0.0
2188 438390.000   2248127.1659    865685.9790   5886424.4012   5   9   2.0654   1.7591   5.0600  -0.8381  -1.1792   2.2525   0.00    0.0
2188 438420.000   2248127.7110    865685.0514   5886426.1087   5   9   2.0663   1.7581   5.0807  -0.8409  -1.1881   2.2614   0.00    0.0
2188 438450.000   2248126.7070    865685.1069   5886424.7781   5   9   2.0672   1.7572   5.1015  -0.8436  -1.1967   2.2702   0.00    0.0
2188 438480.000   2248126.6721    865685.2967   5886424.2299   5   9   2.0680   1.7563   5.1225  -0.8462  -1.2050   2.2790   0.00    0.0
2188 438510.000   2248126.1867    865684.9694   5886422.9347   5   9   2.0689   1.7554   5.1436  -0.8487  -1.2132   2.2878   0.00    0.0
2188 438540.000   2248126.5312    865685.6366   5886424.1267   5   9   2.0698   1.7546   5.1647  -0.8511  -1.2211   2.2966   0.00    0.0
2188 438570.000   2248126.6886    865684.6610   5886426.1370   5   9   2.0707   1.7538   5.1860  -0.8535  -1.2288   2.3053   0.00    0.0
2188 438600.000   2248126.8703    865684.7320   5886426.0975   5   9   2.0715   1.7531   5.2073  -0.8557  -1.2363   2.3140   0.00    0.0
2188 438630.000   2248127.2037    865684.8427   5886424.6084   5   9   2.0724   1.7524   5.2287  -0.8579  -1.2435   2.3226   0.00    0.0
2188 438660.000   2248126.5957    865685.0476   5886423.3399   5   9   2.0733   1.7517   5.2502  -0.8599  -1.2506   2.3312   0.00    0.0
2188 438690.000   2248127.3623    865685.8857   5886426.5964   5   9   2.0741   1.7510   5.2716  -0.8619  -1.2574   2.3398   0.00    0.0
2188 438720.000   2248127.9171    865686.1540   5886425.6681   5   9   2.0750   1.7504   5.2931  -0.8638  -1.2640   2.3482   0.00    0.0
2188 438750.000   2248127.5046    865686.0354   5886425.1476   5   9   2.0758   1.7497   5.3145  -0.8657  -1.2704   2.3566   0.00    0.0
2188 438780.000   2248126.3702    865686.1256   5886424.2016   5   9   2.0766   1.7492   5.3359  -0.8674  -1.2766   2.3649   0.00    0.0
2188 438810.000   2248127.0305    865686.0494   5886426.2054   5   9   2.0775   1.7486   5.3573  -0.8690  -1.2826   2.3731   0.00    0.0
2188 438840.000   2248126.8590    865685.6894   5886425.3831   5   9   2.0782   1.7480   5.3786  -0.8706  -1.2883   2.3812   0.00    0.0
2188 438870.000   2248126.4379    865685.1746   5886424.6012   5   9   2.0790   1.7475   5.3998  -0.8721  -1.2939   2.3892   0.00    0.0
2188 438900.000   2248126.9828    865685.1509   5886424.0249   5   9   2.0798   1.7470   5.4210  -0.8734  -1.2992   2.3971   0.00    0.0
2188 438930.000   2248126.7116    865685.1408   5886425.8615   5   9   2.0805   1.7465   5.4420  -0.8747  -1.3043   2.4049   0.00    0.0
2188 438960.000   2248126.9097    865684.5325   5886425.9468   5   9   2.0812   1.7461   5.4628  -0.8759  -1.3092   2.4125   0.00    0.0
2188 438990.000   2248126.7232    865685.5994   5886424.7724   5   9   2.0818   1.7456   5.4835  -0.8771  -1.3138   2.4200   0.00    0.0
2188 439020.000   2248127.4286    865685.6561   5886425.4352   5   9   2.0825   1.7452   5.5041  -0.8781  -1.3182   2.4273   0.00    0.0
2188 439050.000   2248127.1348    865685.0504   5886426.2698   5   9   2.0831   1.7448   5.5244  -0.8790  -1.3224   2.4345   0.00    0.0
2188 439080.000   2248126.5164    865685.0350   5886423.1693   5   9   2.0836   1.7444   5.5445  -0.8799  -1.3264   2.4415   0.00    0.0
2188 439110.000   2248125.9582    865685.0715   5886422.1513   5   9   2.0842   1.7440   5.5644  -0.8806  -1.3301   2.4484   0.00    0.0
2188 439140.000   2248126.3528    865684.8779   5886425.9413   5   9   2.0846   1.7436   5.5841  -0.8813  -1.3336   2.4550   0.00    0.0
2188 439170.000   2248127.5420    865686.2479   5886426.4464   5   9   2.0851   1.7433   5.6034  -0.8819  -1.3369   2.4615   0.00    0.0
2188 439200.000   2248126.7234    865685.5231   5886424.4164   5   9   2.0855   1.7429   5.6225  -0.8823  -1.3399   2.4678   0.00    0.0
2188 439230.000   2248126.5126    865685.3498   5886422.4814   5   9   2.0858   1.7426   5.6413  -0.8827  -1.3426   2.4739   0.00    0.0
2188 439260.000   2248127.4740    865685.4654   5886425.7024   5   9   2.0861   1.7423   5.6597  -0.8830  -1.3451   2.4797   0.00    0.0
2188 439290.000   2248126.8896    865684.8193   5886425.9288   5   9   2.0864   1.7420   5.6778  -0.8832  -1.3473   2.4854   0.00    0.0
2188 439320.000   2248127.9681    865686.0309   5886426.9167   5   9   2.0865   1.7417   5.6955  -0.8832  -1.3493   2.4908   0.00    0.0
2188 439350.000   2248128.0837    865685.0748   5886426.3223   5   9   2.0867   1.7414   5.7128  -0.8832  -1.3510   2.4960   0.00    0.0
2188 439380.000   2248127.1067    865684.8404   5886424.9137   5   9   2.0868   1.7411   5.7297  -0.8831  -1.3524   2.5009   0.00    0.0
2188 439410.000   2248127.8441    865684.9017   5886427.3323   5   9   2.0868   1.7408   5.7462  -0.8829  -1.3536   2.5056   0.00    0.0
2188 439440.000   2248128.1168    865684.8269   5886427.1685   5   9   2.0867   1.7406   5.7622  -0.8826  -1.3545   2.5100   0.00    0.0
2188 439470.000   2248127.9775    865685.0945   5886427.2464   5   9   2.0866   1.7403   5.7778  -0.8822  -1.3551   2.5142   0.00    0.0
2188 439500.000   2248127.6446    865685.2948   5886426.5304   5   9   2.0865   1.7401   5.7928  -0.8817  -1.3554   2.5181   0.00    0.0
2188 439530.000   2248127.1808    865685.4628   5886424.2963   5   9   2.0862   1.7399   5.8074  -0.8810  -1.3555   2.5217   0.00    0.0
2188 439560.000   2248127.7125    865685.2092   5886426.3336   5   9   2.0859   1.7396   5.8214  -0.8803  -1.3552   2.5250   0.00    0.0
2188 439590.000   2248126.8706    865684.7946   5886425.3959   5   9   2.0855   1.7394   5.8349  -0.8795  -1.3547   2.5280   0.00    0.0
2188 439620.000   2248127.1810    865685.3330   5886426.3483   5   9   2.0851   1.7392   5.8479  -0.8786  -1.3538   2.5307   0.00    0.0
2188 439650.000   2248126.9631    865684.7697   5886427.7858   5   9   2.0846   1.7390   5.8603  -0.8775  -1.3527   2.5331   0.00    0.0
2188 439680.000   2248126.8924    865685.0663   5886424.7190   5   9   2.0840   1.7388   5.8721  -0.8764  -1.3513   2.5352   0.00    0.0
2188 439710.000   2248127.0442    865684.8522   5886425.1976   5   9   2.0834   1.7387   5.8833  -0.8751  -1.3495   2.5370   0.00    0.0
2188 439740.000   2248127.3968    865684.6063   5886427.1626   5   9   2.0826   1.7385   5.8938  -0.8738  -1.3474   2.5385   0.00    0.0
2188 439770.000   2248126.6530    865684.8706   5886425.1739   5   9   2.0818   1.7384   5.9038  -0.8723  -1.3451   2.5396   0.00    0.0
2188 439800.000   2248127.1344    865685.0823   5886425.4726   5   9   2.0810   1.7382   5.9131  -0.8708  -1.3424   2.5405   0.00    0.0
2188 439830.000   2248127.5492    865685.2323   5886427.8674   5   9   2.0800   1.7381   5.9217  -0.8691  -1.3394   2.5409   0.00    0.0
2188 439860.000   2248126.9933    865685.0729   5886427.0277   5   9   2.0790   1.7380   5.9297  -0.8673  -1.3360   2.5411   0.00    0.0
2188 439890.000   2248127.0083    865685.1425   5886426.6127   5   9   2.0779   1.7379   5.9370  -0.8655  -1.3324   2.5409   0.00    0.0
2188 439920.000   2248126.7884    865686.1818   5886426.6138   5   9   2.0767   1.7378   5.9436  -0.8635  -1.3284   2.5404   0.00    0.0
2188 439950.000   2248126.3747    865685.2820   5886425.1964   5   9   2.0755   1.7377   5.9495  -0.8614  -1.3241   2.5395   0.00    0.0
2188 439980.000   2248126.6342    865685.4481   5886428.0623   5   9   2.0742   1.7376   5.9548  -0.8593  -1.3194   2.5383   0.00    0.0
2188 440010.000   2248126.7310    865685.6220   5886426.1189   5   9   2.0728   1.7376   5.9593  -0.8570  -1.3145   2.5368   0.00    0.0
2188 440040.000   2248126.8673    865685.2497   5886427.5179   5   9   2.0713   1.7375   5.9631  -0.8546  -1.3092   2.5349   0.00    0.0
2188 440070.000   2248127.2825    865685.6682   5886426.1734   5   9   2.0698   1.7375   5.9662  -0.8521  -1.3035   2.5326   0.00    0.0
2188 440100.000   2248127.4266    865684.9839   5886426.9873   5   9   2.0682   1.7375   5.9686  -0.8495  -1.2976   2.5301   0.00    0.0
2188 440130.000   2248127.4408    865684.2141   5886426.7143   5   9   2.0665   1.7375   5.9702  -0.8469  -1.2913   2.5271   0.00    0.0
2188 440160.000   2248126.9507    865685.5165   5886426.1795   5   9   2.0648   1.7376   5.9712  -0.8441  -1.2846   2.5239   0.00    0.0
2188 440190.000   2248127.4529    865685.0349   5886427.6995   5   9   2.0630   1.7376   5.9714  -0.8412  -1.2777   2.5203   0.00    0.0
2188 440220.000   2248126.6720    865684.7875   5886427.5599   5   9   2.0611   1.7377   5.9709  -0.8383  -1.2704   2.5164   0.00    0.0
2188 440250.000   2248126.8213    865685.1733   5886427.6551   5   9   2.0592   1.7378   5.9697  -0.8352  -1.2627   2.5121   0.00    0.0
2188 440280.000   2248127.2544    865685.6227   5886427.0997   5   9   2.0572   1.7379   5.9678  -0.8321  -1.2547   2.5075   0.00    0.0
2188 440310.000   2248127.2896    865685.4223   5886427.7034   5   9   2.0552   1.7380   5.9651  -0.8289  -1.2464   2.5026   0.00    0.0
2188 440340.000   2248126.5356    865684.7616   5886424.9274   5   9   2.0531   1.7382   5.9618  -0.8256  -1.2377   2.4974   0.00    0.0
2188 440370.000   2248127.3196    865685.4490   5886428.1301   5   9   2.0509   1.7384   5.9577  -0.8222  -1.2287   2.4919   0.00    0.0
2188 440400.000   2248126.0037    865685.6903   5886424.9524   5   9   2.0487   1.7386   5.9530  -0.8187  -1.2194   2.4860   0.00    0.0
2188 440430.000   2248126.0075    865685.0169   5886426.8154   5   9   2.0465   1.7389   5.9476  -0.8151  -1.2097   2.4799   0.00    0.0
2188 440460.000   2248127.1597    865685.3782   5886429.4635   5   9   2.0442   1.7392   5.9416  -0.8115  -1.1996   2.4735   0.00    0.0
2188 440490.000   2248126.2256    865685.1744   5886426.5221   5   9   2.0419   1.7395   5.9348  -0.8077  -1.1893   2.4668   0.00    0.0
2188 440520.000   2248126.0249    865685.8516   5886426.1285   5   9   2.0395   1.7398   5.9275  -0.8039  -1.1785   2.4598   0.00    0.0
2188 440550.000   2248126.3521    865684.6296   5886426.8086   5   9   2.0371   1.7402   5.9195  -0.8000  -1.1675   2.4525   0.00    0.0
2188 440580.000   2248126.7119    865685.2825   5886426.6266   5   9   2.0346   1.7406   5.9108  -0.7961  -1.1560   2.4450   0.00    0.0
2188 440610.000   2248126.7446    865686.0167   5886426.4371   5  10   1.7273   1.6960   5.3603  -0.4538  -0.5809   1.8156   0.00    0.0
2188 440640.000   2248126.7381    865685.1074   5886426.8768   5  10   1.7252   1.6969   5.3585  -0.4494  -0.5675   1.8116   0.00    0.0
2188 440670.000   2248127.1022    865685.3802   5886427.2401   5  10   1.7231   1.6979   5.3564  -0.4450  -0.5536   1.8075   0.00    0.0
2188 440700.000   2248127.4376    865685.3875   5886426.2526   5  10   1.7211   1.6989   5.3539  -0.4406  -0.5394   1.8035   0.00    0.0
2188 440730.000   2248126.8496    865685.4111   5886428.8294   5  10   1.7192   1.7000   5.3512  -0.4363  -0.5246   1.7995   0.00    0.0
2188 440760.000   2248127.1863    865684.8399   5886428.4020   5  10   1.7174   1.7011   5.3481  -0.4319  -0.5093   1.7956   0.00    0.0
2188 440790.000   2248126.9451    865685.7569   5886424.6832   5  10   1.7156   1.7024   5.3446  -0.4276  -0.4933   1.7917   0.00    0.0
2188 440820.000   2248127.6298    865686.1050   5886427.2995   5  10   1.7138   1.7036   5.3409  -0.4232  -0.4767   1.7877   0.00    0.0
2188 440850.000   2248127.0322    865685.5712   5886428.5440   5  10   1.7121   1.7049   5.3367  -0.4189  -0.4592   1.7838   0.00    0.0
2188 440880.000   2248127.0005    865683.7877   5886426.1659   5  10   1.7105   1.7063   5.3323  -0.4145  -0.4409   1.7799   0.00    0.0
2188 440910.000   2248126.8391    865684.3329   5886424.3507   5  10   1.7089   1.7078   5.3275  -0.4102  -0.4216   1.7760   0.00    0.0
2188 440940.000   2248126.2030    865684.8002   5886425.4014   5  10   1.7073   1.7093   5.3224  -0.4058  -0.4010   1.7721   0.00    0.0
2188 440970.000   2248126.6739    865685.3837   5886425.4525   5  10   1.7058   1.7108   5.3170  -0.4014  -0.3791   1.7682   0.00    0.0
2188 441000.000   2248128.1606    865685.2790   5886426.6428   5  10   1.7044   1.7125   5.3112  -0.3970  -0.3555   1.7643   0.00    0.0
2188 441030.000   2248125.9551    865684.6415   5886426.9071   5  10   1.7030   1.7142   5.3052  -0.3925  -0.3298   1.7604   0.00    0.0
2188 441060.000   2248127.0120    865684.9009   5886425.9789   5  10   1.7016   1.7160   5.2988  -0.3880  -0.3015   1.7565   0.00    0.0
2188 441090.000   2248127.3995    865685.0371   5886427.5219   5  10   1.7003   1.7178   5.2921  -0.3835  -0.2698   1.7526   0.00    0.0
2188 441120.000   2248126.5778    865685.1116   5886427.4230   5  10   1.6990   1.7197   5.2851  -0.3789  -0.2331   1.7487   0.00    0.0
2188 441150.000   2248127.4780    865685.2328   5886428.6502   5  10   1.6978   1.7217   5.2778  -0.3742  -0.1887   1.7448   0.00    0.0
2188 441180.000   2248127.3011    865684.5514   5886428.0775   5  10   1.6966   1.7237   5.2702  -0.3695  -0.1287   1.7409   0.00    0.0
2188 441210.000   2248126.7154    865685.5739   5886427.3103   5  10   1.6955   1.7259   5.2624  -0.3647   0.0531   1.7370   0.00    0.0
2188 441240.000   2248127.1230    865685.2172   5886427.5510   5  10   1.6944   1.7281   5.2542  -0.3599   0.1502   1.7331   0.00    0.0
2188 441270.000   2248127.4527    865685.0715   5886428.8431   5  10   1.6933   1.7303   5.2459  -0.3549   0.2066   1.7292   0.00    0.0
2188 441300.000   2248126.7444    865684.4046   5886425.9514   5  10   1.6923   1.7327   5.2373  -0.3499   0.2513   1.7254   0.00    0.0
2188 441330.000   2248126.6330    865685.1486   5886424.5866   5  10   1.6913   1.7352   5.2285  -0.3447   0.2900   1.7215   0.00    0.0
2188 441360.000   2248126.9117    865685.0571   5886427.6069   5  10   1.6903   1.7377   5.2194  -0.3395   0.3247   1.7177   0.00    0.0
2188 441390.000   2248127.5041    865685.1288   5886427.4132   5   9   1.7291   2.0549   5.6805   0.5392   1.6126   1.9419   0.00    0.0
2188 441420.000   2248126.2901    865685.3482   5886425.5174   5   9   1.7282   2.0573   5.6766   0.5423   1.6236   1.9394   0.00    0.0
2188 441450.000   2248126.2401    865685.8013   5886423.5170   5   9   1.7273   2.0597   5.6722   0.5453   1.6342   1.9369   0.00    0.0
2188 441480.000   2248126.0063    865684.2829   5886424.5873   5   9   1.7264   2.0621   5.6673   0.5481   1.6446   1.9342   0.00    0.0
2188 441510.000   2248127.1880    865684.0280   5886425.6815   5   9   1.7255   2.0645   5.6620   0.5508   1.6546   1.9315   0.00    0.0
2188 441540.000   2248126.9268    865685.3906   5886425.5664   5   9   1.7247   2.0670   5.6561   0.5535   1.6643   1.9286   0.00    0.0
2188 441570.000   2248127.3274    865685.2647   5886426.5720   5   9   1.7238   2.0694   5.6498   0.5560   1.6737   1.9256   0.00    0.0
2188 441600.000   2248127.4858    865685.8005   5886427.5063   5   9   1.7230   2.0718   5.6429   0.5584   1.6827   1.9225   0.00    0.0
2188 441630.000   2248127.1797    865685.1518   5886424.6516   5   9   1.7223   2.0742   5.6357   0.5607   1.6914   1.9193   0.00    0.0
2188 441660.000   2248127.1964    865685.1539   5886426.2906   5   9   1.7215   2.0766   5.6279   0.5628   1.6998   1.9160   0.00    0.0
2188 441690.000   2248126.3526    865685.7647   5886425.7804   5   9   1.7207   2.0790   5.6197   0.5649   1.7079   1.9126   0.00    0.0
2188 441720.000   2248126.3182    865685.4675   5886427.0861   5   9   1.7200   2.0814   5.6110   0.5669   1.7157   1.9091   0.00    0.0
2188 441750.000   2248126.1873    865685.2447   5886426.3218   5   9   1.7193   2.0838   5.6019   0.5687   1.7231   1.9054   0.00    0.0
2188 441780.000   2248126.1282    865684.8767   5886424.2346   5   9   1.7186   2.0862   5.5924   0.5704   1.7303   1.9017   0.00    0.0
2188 441810.000   2248126.4799    865684.8847   5886426.1842   5   9   1.7179   2.0885   5.5824   0.5721   1.7371   1.8979   0.00    0.0
2188 441840.000   2248126.7550    865684.6427   5886425.9374   5   9   1.7173   2.0909   5.5720   0.5736   1.7436   1.8940   0.00    0.0
2188 441870.000   2248127.3337    865685.6858   5886426.6020   5   9   1.7167   2.0932   5.5611   0.5750   1.7498   1.8899   0.00    0.0
2188 441900.000   2248126.6925    865685.6876   5886427.4177   5   9   1.7161   2.0956   5.5499   0.5763   1.7556   1.8858   0.00    0.0
2188 441930.000   2248126.5349    865686.0610   5886426.7193   5   9   1.7155   2.0979   5.5383   0.5775   1.7612   1.8816   0.00    0.0
2188 441960.000   2248126.5194    865685.4783   5886426.0646   5   9   1.7149   2.1002   5.5262   0.5786   1.7665   1.8773   0.00    0.0
2188 441990.000   2248126.8988    865686.0577   5886427.7850   5   9   1.7144   2.1025   5.5138   0.5796   1.7714   1.8730   0.00    0.0
2188 442020.000   2248126.8390    865685.3300   5886426.6478   5   9   1.7138   2.1047   5.5010   0.5805   1.7761   1.8685   0.00    0.0
2188 442050.000   2248126.3258    865685.9214   5886426.6206   5   9   1.7133   2.1070   5.4879   0.5813   1.7804   1.8640   0.00    0.0
2188 442080.000   2248127.3269    865684.7355   5886427.2065   5   9   1.7129   2.1092   5.4744   0.5820   1.7845   1.8594   0.00    0.0
2188 442110.000   2248126.5639    865684.1253   5886425.1189   5   9   1.7124   2.1114   5.4606   0.5826   1.7882   1.8547   0.00    0.0
2188 442140.000   2248126.8425    865684.7073   5886428.1103   5   9   1.7120   2.1136   5.4465   0.5831   1.7917   1.8500   0.00    0.0
2188 442170.000   2248127.0287    865684.5284   5886426.6558   5   9   1.7116   2.1157   5.4321   0.5835   1.7949   1.8452   0.00    0.0
2188 442200.000   2248126.9635    865685.5380   5886425.9770   5   9   1.7112   2.1178   5.4173   0.5838   1.7978   1.8404   0.00    0.0
2188 442230.000   2248127.1476    865685.5932   5886424.5016   5   9   1.7108   2.1200   5.4023   0.5839   1.8004   1.8355   0.00    0.0
2188 442260.000   2248127.7413    865685.5871   5886426.6277   5   9   1.7105   2.1220   5.3870   0.5841   1.8027   1.8305   0.00    0.0
2188 442290.000   2248127.6774    865685.5097   5886426.2842   5   9   1.7102   2.1241   5.3715   0.5841   1.8048   1.8256   0.00    0.0
2188 442320.000   2248126.8755    865686.5189   5886425.5930   5   9   1.7099   2.1261   5.3557   0.5840   1.8066   1.8205   0.00    0.0
2188 442350.000   2248125.5828    865686.0131   5886422.9399   5   9   1.7097   2.1281   5.3396   0.5838   1.8081   1.8155   0.00    0.0
2188 442380.000   2248127.0781    865685.7625   5886425.8804   5   9   1.7095   2.1301   5.3234   0.5835   1.8094   1.8104   0.00    0.0
2188 442410.000   2248127.4437    865685.6633   5886426.1140   5   9   1.7093   2.1321   5.3069   0.5832   1.8104   1.8053   0.00    0.0
2188 442440.000   2248127.2190    865685.7314   5886425.4306   5   9   1.7092   2.1340   5.2903   0.5827   1.8112   1.8002   0.00    0.0
2188 442470.000   2248127.1284    865685.6083   5886426.4973   5   9   1.7091   2.1359   5.2735   0.5822   1.8117   1.7950   0.00    0.0
2188 442500.000   2248127.9909    865685.2417   5886426.9727   5   9   1.7090   2.1378   5.2565   0.5815   1.8120   1.7899   0.00    0.0
2188 442530.000   2248127.4241    865685.2401   5886427.2277   5   9   1.7090   2.1396   5.2393   0.5808   1.8120   1.7848   0.00    0.0
2188 442560.000   2248125.3978    865685.2594   5886423.1325   5   9   1.7090   2.1414   5.2221   0.5800   1.8118   1.7796   0.00    0.0
2188 442590.000   2248126.7466    865685.0837   5886425.2232   5   9   1.7090   2.1432   5.2046   0.5792   1.8114   1.7745   0.00    0.0
2188 442620.000   2248126.3174    865685.1934   5886424.9909   5   9   1.7091   2.1449   5.1871   0.5782   1.8107   1.7694   0.00    0.0
2188 442650.000   2248127.0518    865685.2470   5886425.6625   5   9   1.7092   2.1467   5.1695   0.5771   1.8098   1.7643   0.00    0.0
2188 442680.000   2248127.0319    865685.8296   5886427.4646   5   9   1.7093   2.1484   5.1518   0.5760   1.8087   1.7592   0.00    0.0
2188 442710.000   2248126.0904    865685.5189   5886424.9546   5   9   1.7095   2.1501   5.1341   0.5748   1.8073   1.7542   0.00    0.0
2188 442740.000   2248125.9767    865685.8547   5886424.5475   5   9   1.7098   2.1517   5.1162   0.5735   1.8058   1.7492   0.00    0.0
2188 442770.000   2248126.7703    865685.6803   5886424.5269   5   9   1.7101   2.1533   5.0984   0.5721   1.8040   1.7442   0.00    0.0
2188 442800.000   2248126.8843    865685.5864   5886424.5696   5   9   1.7104   2.1549   5.0805   0.5707   1.8021   1.7393   0.00    0.0
2188 442830.000   2248126.3112    865686.0303   5886424.6447   5   9   1.7108   2.1565   5.0625   0.5692   1.7999   1.7344   0.00    0.0
2188 442860.000   2248126.1334    865684.8328   5886423.6433   5   9   1.7112   2.1580   5.0446   0.5676   1.7975   1.7296   0.00    0.0
2188 442890.000   2248125.8811    865686.1668   5886425.7804   5   9   1.7117   2.1595   5.0267   0.5659   1.7950   1.7249   0.00    0.0
2188 442920.000   2248126.6098    865685.1349   5886425.5899   5   9   1.7122   2.1610   5.0088   0.5641   1.7922   1.7202   0.00    0.0
2188 442950.000   2248126.2014    865685.2106   5886422.9390   5   9   1.7128   2.1625   4.9909   0.5623   1.7893   1.7156   0.00    0.0
2188 442980.000   2248126.9434    865685.1233   5886424.7200   5   9   1.7135   2.1639   4.9731   0.5604   1.7862   1.7111   0.00    0.0
2188 443010.000   2248127.4866    865685.2443   5886426.8429   5   9   1.7142   2.1653   4.9553   0.5584   1.7829   1.7067   0.00    0.0
2188 443040.000   2248126.8304    865685.8365   5886426.8042   5   9   1.7149   2.1667   4.9376   0.5563   1.7794   1.7024   0.00    0.0
2188 443070.000   2248126.4835    865685.6158   5886426.2272   5   9   1.7157   2.1680   4.9200   0.5542   1.7758   1.6981   0.00    0.0
2188 443100.000   2248126.3466    865686.2594   5886424.8077   5   9   1.7166   2.1694   4.9025   0.5520   1.7720   1.6940   0.00    0.0
2188 443130.000   2248126.6423    865686.4111   5886422.6023   5   9   1.7176   2.1707   4.8851   0.5497   1.7680   1.6900   0.00    0.0
2188 443160.000   2248126.9874    865685.7020   5886424.6062   5   9   1.7186   2.1720   4.8678   0.5473   1.7638   1.6861   0.00    0.0
2188 443190.000   2248126.7418    865686.1979   5886424.1584   5   9   1.7196   2.1733   4.8506   0.5449   1.7595   1.6824   0.00    0.0
2188 443220.000   2248127.3775    865686.2476   5886425.1452   5  10   1.7199   2.0341   3.8211   0.5799   0.8969   1.7264   0.00    0.0
2188 443250.000   2248127.5209    865684.9568   5886425.0166   5  10   1.7210   2.0347   3.8119   0.5807   0.8914   1.7269   0.00    0.0
2188 443280.000   2248127.9556    865684.7920   5886426.5246   5  10   1.7221   2.0353   3.8031   0.5815   0.8860   1.7275   0.00    0.0
2188 443310.000   2248128.2814    865684.9783   5886429.1093   5  10   1.7233   2.0360   3.7948   0.5823   0.8808   1.7282   0.00    0.0
2188 443340.000   2248127.7000    865683.9804   5886426.4974   5  10   1.7245   2.0367   3.7870   0.5830   0.8757   1.7290   0.00    0.0
2188 443370.000   2248127.2670    865684.9389   5886425.3521   5  10   1.7259   2.0375   3.7796   0.5836   0.8707   1.7300   0.00    0.0
2188 443400.000   2248127.6288    865686.3954   5886426.4134   5  10   1.7272   2.0383   3.7727   0.5842   0.8658   1.7310   0.00    0.0
2188 443430.000   2248126.9858    865685.6489   5886427.3574   5  10   1.7287   2.0392   3.7662   0.5847   0.8609   1.7322   0.00    0.0
2188 443460.000   2248127.5228    865686.1872   5886427.6109   5  10   1.7303   2.0400   3.7601   0.5851   0.8561   1.7335   0.00    0.0
2188 443490.000   2248127.8234    865686.2313   5886427.2559   5  10   1.7319   2.0410   3.7544   0.5854   0.8513   1.7350   0.00    0.0
2188 443520.000   2248127.5115    865686.0495   5886426.8550   5   9   1.9912   2.0813   4.0472  -0.2275   0.3197   2.1234   0.00    0.0
2188 443550.000   2248126.3096    865685.0262   5886426.7977   5   9   1.9916   2.0818   4.0429  -0.2192   0.3129   2.1241   0.00    0.0
2188 443580.000   2248126.8440    865685.5838   5886427.0288   5   9   1.9920   2.0823   4.0389  -0.2105   0.3063   2.1248   0.00    0.0
2188 443610.000   2248126.4660    865685.1022   5886427.1289   5   9   1.9924   2.0828   4.0351  -0.2013   0.2999   2.1255   0.00    0.0
2188 443640.000   2248126.5359    865684.9583   5886426.3323   5   9   1.9927   2.0833   4.0315  -0.1916   0.2938   2.1261   0.00    0.0
2188 443670.000   2248126.6148    865684.8793   5886425.0267   5   9   1.9930   2.0839   4.0281  -0.1813   0.2878   2.1266   0.00    0.0
2188 443700.000   2248127.6258    865685.9135   5886425.7402   5   9   1.9933   2.0845   4.0249  -0.1702   0.2820   2.1271   0.00    0.0
2188 443730.000   2248127.1574    865685.7945   5886425.9473   5   9   1.9935   2.0851   4.0219  -0.1583   0.2763   2.1276   0.00    0.0
2188 443760.000   2248126.8419    865685.6875   5886425.3721   5   9   1.9937   2.0857   4.0191  -0.1453   0.2708   2.1280   0.00    0.0
2188 443790.000   2248126.9843    865684.4076   5886425.9126   5   9   1.9939   2.0864   4.0165  -0.1310   0.2653   2.1284   0.00    0.0
2188 443820.000   2248126.6672    865684.7755   5886427.0538   5   9   1.9941   2.0871   4.0140  -0.1147   0.2600   2.1288   0.00    0.0
2188 443850.000   2248127.3033    865684.2575   5886427.6221   5   9   1.9942   2.0878   4.0117  -0.0956   0.2546   2.1291   0.00    0.0
2188 443880.000   2248125.9653    865685.2706   5886425.8339   5   9   1.9943   2.0886   4.0096  -0.0714   0.2493   2.1293   0.00    0.0
2188 443910.000   2248127.3439    865685.2240   5886425.3742   5   9   1.9943   2.0894   4.0077  -0.0322   0.2439   2.1295   0.00    0.0
2188 443940.000   2248127.6018    865686.1522   5886425.6138   5   9   1.9944   2.0902   4.0059   0.0552   0.2385   2.1297   0.00    0.0
2188 443970.000   2248125.8114    865685.6634   5886423.3998   5   9   1.9944   2.0910   4.0043   0.0845   0.2329   2.1298   0.00    0.0
2188 444000.000   2248126.9612    865685.1802   5886424.6920   5   9   1.9943   2.0919   4.0028   0.1062   0.2273   2.1299   0.00    0.0
2188 444030.000   2248126.3881    865685.7310   5886424.0932   5   9   1.9943   2.0928   4.0015   0.1241   0.2214   2.1299   0.00    0.0
2188 444060.000   2248125.9251    865685.6069   5886424.4960   5   9   1.9942   2.0937   4.0003   0.1398   0.2153   2.1299   0.00    0.0
2188 444090.000   2248126.6545    865685.4820   5886424.0369   5   9   1.9941   2.0946   3.9993   0.1540   0.2089   2.1298   0.00    0.0
2188 444120.000   2248126.8840    865684.8455   5886425.4791   5   9   1.9939   2.0956   3.9985   0.1670   0.2021   2.1297   0.00    0.0
2188 444150.000   2248126.6890    865685.7879   5886425.5055   5   9   1.9937   2.0966   3.9978   0.1791   0.1950   2.1296   0.00    0.0
2188 444180.000   2248126.9388    865685.7786   5886425.5584   5   9   1.9935   2.0976   3.9973   0.1905   0.1872   2.1294   0.00    0.0
2188 444210.000   2248127.3329    865685.3367   5886424.9039   5   9   1.9933   2.0987   3.9970   0.2012   0.1789   2.1292   0.00    0.0
2188 444240.000   2248126.9051    865685.9697   5886425.2233   5   9   1.9931   2.0998   3.9968   0.2114   0.1697   2.1290   0.00    0.0
2188 444270.000   2248127.1731    865685.6183   5886424.3352   5   9   1.9928   2.1009   3.9968   0.2212   0.1596   2.1287   0.00    0.0
2188 444300.000   2248126.8863    865685.5093   5886424.9829   5   9   1.9925   2.1021   3.9969   0.2305   0.1483   2.1284   0.00    0.0
2188 444330.000   2248127.0178    865685.2778   5886425.3982   5   9   1.9922   2.1033   3.9973   0.2395   0.1353   2.1281   0.00    0.0
2188 444360.000   2248127.2259    865685.4001   5886425.9008   5   9   1.9918   2.1045   3.9978   0.2482   0.1202   2.1278   0.00    0.0
2188 444390.000   2248126.2780    865685.6838   5886426.7026   5   9   1.9914   2.1058   3.9985   0.2566   0.1019   2.1274   0.00    0.0
2188 444420.000   2248126.8075    865686.0480   5886427.3930   5   9   1.9910   2.1071   3.9995   0.2647   0.0781   2.1270   0.00    0.0
2188 444450.000   2248126.0906    865685.8723   5886424.4955   5   9   1.9906   2.1084   4.0006   0.2725   0.0395   2.1266   0.00    0.0
2188 444480.000   2248126.4022    865685.4627   5886422.1779   5   9   1.9902   2.1098   4.0019   0.2802  -0.0569   2.1262   0.00    0.0
2188 444510.000   2248126.9294    865685.7722   5886423.7754   5   9   1.9897   2.1112   4.0035   0.2876  -0.0912   2.1257   0.00    0.0
2188 444540.000   2248126.5242    865686.6132   5886422.9300   5   9   1.9893   2.1126   4.0052   0.2949  -0.1171   2.1253   0.00    0.0
2188 444570.000   2248126.1875    865685.8058   5886423.0679   5   9   1.9888   2.1141   4.0073   0.3019  -0.1394   2.1249   0.00    0.0
2188 444600.000   2248126.4978    865685.3457   5886424.4445   5   9   1.9883   2.1157   4.0095   0.3088  -0.1596   2.1244   0.00    0.0
2188 444630.000   2248126.2611    865684.7506   5886423.1172   5   9   1.9878   2.1172   4.0121   0.3155  -0.1786   2.1240   0.00    0.0
2188 444660.000   2248126.6811    865684.9444   5886424.0683   5  10   1.7831   2.0251   3.6486   0.8066   1.0029   1.7435   0.00    0.0
2188 444690.000   2248127.2896    865685.9910   5886424.8936   5  10   1.7822   2.0259   3.6516   0.8111   1.0021   1.7425   0.00    0.0
2188 444720.000   2248126.5226    865685.9651   5886424.7249   5  10   1.7814   2.0267   3.6550   0.8155   1.0011   1.7416   0.00    0.0
2188 444750.000   2248126.0379    865685.3694   5886423.1321   5  10   1.7805   2.0276   3.6587   0.8198   0.9999   1.7407   0.00    0.0
2188 444780.000   2248126.0706    865685.5496   5886423.8859   5  10   1.7798   2.0286   3.6627   0.8240   0.9983   1.7400   0.00    0.0
2188 444810.000   2248126.5601    865685.8031   5886424.2423   5  10   1.7790   2.0296   3.6672   0.8282   0.9966   1.7393   0.00    0.0
2188 444840.000   2248127.4561    865686.1978   5886426.1291   5  10   1.7783   2.0307   3.6720   0.8323   0.9945   1.7386   0.00    0.0
2188 444870.000   2248126.9405    865685.8328   5886425.9294   5  10   1.7777   2.0319   3.6771   0.8363   0.9922   1.7381   0.00    0.0
2188 444900.000   2248126.6709    865685.5639   5886426.4787   5  10   1.7770   2.0331   3.6827   0.8402   0.9896   1.7376   0.00    0.0
2188 444930.000   2248126.4435    865685.5609   5886425.4767   5  10   1.7765   2.0344   3.6887   0.8441   0.9867   1.7372   0.00    0.0
