% program   : RTKPOST ver.2.4.3 b34
% inp file  : E:\GAMPII-GOOD\dataset_Win\obs\2021\351\MGEX\daily\kir83510.21o
% inp file  : E:\Navigation_Learn\GNSS\RTKLIB-b34k\data\data_IGM-A1_Vehicle_open_20211217-nsh\brdm3510.21p
% inp file  : E:\Navigation_Learn\GNSS\RTKLIB-b34k\data\data_IGM-A1_Vehicle_open_20211217-nsh\gbm21885.clk
% inp file  : E:\Navigation_Learn\GNSS\RTKLIB-b34k\data\data_IGM-A1_Vehicle_open_20211217-nsh\gbm21885.sp3
% obs start : 2021/12/17 00:00:00.0 GPST (week2188 432000.0s)
% obs end   : 2021/12/17 23:59:30.0 GPST (week2188 518370.0s)
% pos mode  : PPP Kinematic
% solution  : Forward
% elev mask : 10.0 deg
% dynamics  : off
% tidecorr  : off
% tropo opt : Saastamoinen
% ephemeris : Broadcast
% navi sys  : GPS
% antenna1  :                       ( 0.0000  0.0000  0.0000)
%
% (x/y/z-ecef=WGS84,Q=1:fix,2:float,3:sbas,4:dgps,5:single,6:ppp,ns=# of satellites)
%  GPST              x-ecef(m)      y-ecef(m)      z-ecef(m)   Q  ns   sdx(m)   sdy(m)   sdz(m)  sdxy(m)  sdyz(m)  sdzx(m) age(s)  ratio
2188 432000.000   2248126.2723    865685.9665   5886425.9469   6   9   2.9875   1.9068   9.8701  -0.6946  -1.1228   4.7729   0.00    0.0
2188 432030.000   2248127.6788    865686.3368   5886428.8671   6   9   2.4950   1.5740   8.2790  -0.6332  -1.0335   4.0069   0.00    0.0
2188 432060.000   2248128.1092    865686.0084   5886429.9997   6   9   2.3018   1.4458   7.6443  -0.6125  -1.0064   3.7015   0.00    0.0
2188 432090.000   2248127.7718    865685.7045   5886429.2358   6   9   2.2075   1.4725   7.3195  -0.4887  -0.7786   3.5522   0.00    0.0
2188 432120.000   2248127.3001    865685.6532   5886427.6165   6   9   2.1295   1.3746   7.0520  -0.5535  -0.9081   3.4194   0.00    0.0
2188 432150.000   2248127.1733    865686.0101   5886426.8021   6   9   2.0758   1.3281   6.8590  -0.5697  -0.9433   3.3253   0.00    0.0
2188 432180.000   2248127.4114    865685.7571   5886427.3768   6   9   2.0344   1.2989   6.7044  -0.5761  -0.9594   3.2502   0.00    0.0
2188 432210.000   2248127.5756    865685.9050   5886428.7085   6   9   2.0007   1.2784   6.5731  -0.5792  -0.9686   3.1865   0.00    0.0
2188 432240.000   2248127.0669    865686.0626   5886426.2504   6   9   1.9720   1.2630   6.4573  -0.5808  -0.9748   3.1303   0.00    0.0
2188 432270.000   2248127.2944    865685.7227   5886427.7419   6   9   1.9468   1.2510   6.3523  -0.5816  -0.9791   3.0794   0.00    0.0
2188 432300.000   2248127.2815    865685.7869   5886427.4250   6   9   1.9242   1.2413   6.2551  -0.5819  -0.9823   3.0322   0.00    0.0
2188 432330.000   2248127.2242    865685.9145   5886427.4550   6   9   1.9036   1.2334   6.1639  -0.5819  -0.9847   2.9878   0.00    0.0
2188 432360.000   2248127.3993    865685.9810   5886427.4164   6   9   1.8845   1.2267   6.0773  -0.5816  -0.9864   2.9457   0.00    0.0
2188 432390.000   2248127.8004    865685.8895   5886428.1523   6   9   1.8666   1.2211   5.9944  -0.5811  -0.9875   2.9053   0.00    0.0
2188 432420.000   2248127.4419    865685.7116   5886427.7758   6   9   1.8497   1.2162   5.9146  -0.5804  -0.9882   2.8663   0.00    0.0
2188 432450.000   2248127.3192    865685.8324   5886428.0211   6   9   1.8337   1.2120   5.8374  -0.5796  -0.9885   2.8286   0.00    0.0
2188 432480.000   2248127.8759    865685.5905   5886428.7063   6   9   1.8183   1.2083   5.7624  -0.5786  -0.9884   2.7919   0.00    0.0
2188 432510.000   2248127.4746    865685.6739   5886427.6487   6   9   1.8037   1.2050   5.6895  -0.5775  -0.9880   2.7561   0.00    0.0
2188 432540.000   2248127.4804    865685.8368   5886427.8960   6   9   1.7895   1.2021   5.6183  -0.5763  -0.9872   2.7211   0.00    0.0
2188 432570.000   2248127.4780    865685.9272   5886427.4796   6   9   1.7759   1.1995   5.5488  -0.5750  -0.9862   2.6870   0.00    0.0
2188 432600.000   2248127.5608    865685.7025   5886428.2741   6   9   1.7628   1.1972   5.4807  -0.5736  -0.9850   2.6535   0.00    0.0
2188 432630.000   2248127.9129    865685.7533   5886429.3674   6   9   1.7500   1.1950   5.4142  -0.5721  -0.9835   2.6207   0.00    0.0
2188 432660.000   2248127.6301    865685.6354   5886427.7173   6   9   1.7377   1.1931   5.3490  -0.5705  -0.9818   2.5885   0.00    0.0
2188 432690.000   2248127.2370    865685.9036   5886427.4185   6   9   1.7257   1.1914   5.2850  -0.5688  -0.9799   2.5569   0.00    0.0
2188 432720.000   2248127.4959    865685.9187   5886427.8257   6   9   1.7141   1.1897   5.2224  -0.5671  -0.9779   2.5259   0.00    0.0
2188 432750.000   2248128.0783    865685.6944   5886428.3972   6   9   1.7028   1.1883   5.1609  -0.5653  -0.9757   2.4954   0.00    0.0
2188 432780.000   2248127.6185    865685.7897   5886427.5675   6   9   1.6918   1.1869   5.1007  -0.5634  -0.9734   2.4655   0.00    0.0
2188 432810.000   2248127.3002    865685.8845   5886427.9397   6   9   1.6812   1.1857   5.0416  -0.5615  -0.9709   2.4361   0.00    0.0
2188 432840.000   2248127.4184    865685.8521   5886427.4256   6   9   1.6708   1.1845   4.9836  -0.5596  -0.9683   2.4072   0.00    0.0
2188 432870.000   2248127.4434    865685.9692   5886427.9617   6   9   1.6608   1.1834   4.9267  -0.5576  -0.9657   2.3789   0.00    0.0
2188 432900.000   2248127.3470    865685.8688   5886428.1905   6   9   1.6510   1.1824   4.8709  -0.5556  -0.9629   2.3510   0.00    0.0
2188 432930.000   2248127.6656    865685.9290   5886427.9784   6   9   1.6414   1.1815   4.8162  -0.5535  -0.9601   2.3237   0.00    0.0
2188 432960.000   2248127.6613    865685.7111   5886427.6667   6   9   1.6322   1.1807   4.7626  -0.5514  -0.9572   2.2968   0.00    0.0
2188 432990.000   2248127.5892    865686.0896   5886427.6282   6   9   1.6232   1.1799   4.7100  -0.5493  -0.9543   2.2704   0.00    0.0
2188 433020.000   2248127.9817    865685.5839   5886429.4359   6   9   1.6144   1.1791   4.6584  -0.5471  -0.9513   2.2445   0.00    0.0
2188 433050.000   2248127.2975    865685.7595   5886427.9557   6   9   1.6059   1.1784   4.6078  -0.5450  -0.9483   2.2190   0.00    0.0
2188 433080.000   2248127.7000    865685.5563   5886429.0778   6  10   1.5956   1.1652   4.4541  -0.5553  -1.0295   2.1763   0.00    0.0
2188 433110.000   2248127.7412    865685.7625   5886428.1971   6  10   1.5855   1.1458   4.2602  -0.5682  -1.1346   2.1306   0.00    0.0
2188 433140.000   2248127.8981    865685.8674   5886428.5178   6  10   1.5779   1.1381   4.1769  -0.5680  -1.1621   2.1049   0.00    0.0
2188 433170.000   2248127.2916    865685.9493   5886427.7625   6  10   1.5710   1.1335   4.1222  -0.5647  -1.1715   2.0843   0.00    0.0
2188 433200.000   2248127.2461    865685.9000   5886427.7761   6  10   1.5643   1.1301   4.0790  -0.5600  -1.1739   2.0656   0.00    0.0
2188 433230.000   2248126.9913    865685.9549   5886427.1750   6  10   1.5578   1.1273   4.0416  -0.5546  -1.1727   2.0479   0.00    0.0
2188 433260.000   2248127.3897    865686.0571   5886427.3878   6  10   1.5514   1.1249   4.0077  -0.5488  -1.1696   2.0308   0.00    0.0
2188 433290.000   2248127.4197    865685.9497   5886428.4994   6  10   1.5450   1.1228   3.9759  -0.5427  -1.1652   2.0141   0.00    0.0
2188 433320.000   2248127.5329    865685.9231   5886428.8488   6  10   1.5388   1.1209   3.9456  -0.5364  -1.1599   1.9976   0.00    0.0
2188 433350.000   2248127.5754    865685.7853   5886428.9779   6  10   1.5326   1.1191   3.9163  -0.5299  -1.1541   1.9813   0.00    0.0
2188 433380.000   2248127.6395    865685.5451   5886428.7769   6  10   1.5266   1.1174   3.8879  -0.5233  -1.1479   1.9651   0.00    0.0
2188 433410.000   2248127.6983    865685.7479   5886427.8782   6  10   1.5205   1.1158   3.8600  -0.5167  -1.1413   1.9491   0.00    0.0
2188 433440.000   2248127.5096    865685.9242   5886428.0161   6  10   1.5146   1.1143   3.8328  -0.5099  -1.1345   1.9331   0.00    0.0
2188 433470.000   2248127.0139    865685.6761   5886427.5741   6  10   1.5209   1.2066   3.8182  -0.4042  -1.0624   1.9325   0.00    0.0
2188 433500.000   2248127.4946    865685.9934   5886427.8132   6  10   1.5091   1.1592   3.7866  -0.4484  -1.0857   1.9098   0.00    0.0
2188 433530.000   2248127.3604    865685.7873   5886428.2296   6  10   1.5013   1.1421   3.7588  -0.4573  -1.0887   1.8918   0.00    0.0
2188 433560.000   2248127.5277    865685.7928   5886428.2114   6  10   1.5045   1.2022   3.7425  -0.3749  -1.0337   1.8877   0.00    0.0
2188 433590.000   2248127.5915    865685.9654   5886428.2086   6  10   1.4924   1.1551   3.7106  -0.4237  -1.0609   1.8640   0.00    0.0
2188 433620.000   2248127.2063    865685.8167   5886427.8862   6  10   1.4938   1.1996   3.6937  -0.3544  -1.0142   1.8582   0.00    0.0
2188 433650.000   2248127.1051    865686.1356   5886427.2050   6  10   1.4817   1.1527   3.6614  -0.4068  -1.0440   1.8339   0.00    0.0
2188 433680.000   2248127.3051    865685.8090   5886427.9581   6  10   1.4740   1.1358   3.6343  -0.4176  -1.0488   1.8156   0.00    0.0
2188 433710.000   2248127.2051    865685.5953   5886427.9587   6  10   1.4675   1.1268   3.6086  -0.4191  -1.0476   1.7989   0.00    0.0
2188 433740.000   2248127.2209    865685.7788   5886427.0112   6  10   1.4616   1.1210   3.5838  -0.4170  -1.0440   1.7828   0.00    0.0
2188 433770.000   2248127.6783    865685.8316   5886427.9019   6  10   1.4560   1.1168   3.5594  -0.4131  -1.0392   1.7672   0.00    0.0
2188 433800.000   2248127.4971    865685.7360   5886427.3615   6  10   1.4505   1.1136   3.5355  -0.4081  -1.0337   1.7517   0.00    0.0
2188 433830.000   2248127.3459    865685.9309   5886427.6858   6  10   1.4453   1.1110   3.5119  -0.4024  -1.0279   1.7365   0.00    0.0
2188 433860.000   2248127.3446    865685.7072   5886427.7508   6  10   1.4401   1.1088   3.4886  -0.3963  -1.0217   1.7215   0.00    0.0
2188 433890.000   2248127.4617    865685.8536   5886427.8253   6  10   1.4351   1.1069   3.4656  -0.3899  -1.0155   1.7066   0.00    0.0
2188 433920.000   2248127.6433    865685.8902   5886427.6315   6  10   1.4302   1.1052   3.4429  -0.3832  -1.0091   1.6919   0.00    0.0
2188 433950.000   2248127.3191    865685.9904   5886427.6105   6  10   1.4254   1.1038   3.4205  -0.3763  -1.0027   1.6772   0.00    0.0
2188 433980.000   2248127.0923    865685.7714   5886427.3182   6  10   1.4207   1.1024   3.3983  -0.3692  -0.9962   1.6627   0.00    0.0
2188 434010.000   2248127.2331    865685.9633   5886427.2524   6  10   1.4161   1.1013   3.3765  -0.3620  -0.9898   1.6483   0.00    0.0
2188 434040.000   2248127.0915    865686.1225   5886427.1707   6   9   1.4316   1.2120   3.3921  -0.0659  -0.8439   1.6703   0.00    0.0
2188 434070.000   2248126.9530    865685.8637   5886426.7283   6   9   1.4273   1.2111   3.3720   0.0332  -0.8343   1.6570   0.00    0.0
2188 434100.000   2248127.2524    865685.8520   5886427.3589   6   9   1.4231   1.2101   3.3523   0.0803  -0.8248   1.6438   0.00    0.0
2188 434130.000   2248127.2894    865685.9283   5886426.9376   6   9   1.4189   1.2092   3.3327   0.1080  -0.8155   1.6307   0.00    0.0
2188 434160.000   2248127.0533    865685.8653   5886427.0012   6   9   1.4148   1.2084   3.3135   0.1296  -0.8062   1.6177   0.00    0.0
2188 434190.000   2248127.3663    865686.0124   5886427.3479   6   9   1.4108   1.2075   3.2944   0.1477  -0.7970   1.6048   0.00    0.0
2188 434220.000   2248127.0768    865686.0989   5886427.6288   6   9   1.4069   1.2068   3.2756   0.1634  -0.7880   1.5919   0.00    0.0
2188 434250.000   2248127.1747    865685.8989   5886427.5836   6   9   1.4030   1.2061   3.2571   0.1775  -0.7791   1.5792   0.00    0.0
2188 434280.000   2248127.2680    865685.8906   5886427.3887   6   9   1.3991   1.2054   3.2388   0.1903  -0.7702   1.5665   0.00    0.0
2188 434310.000   2248126.9587    865686.0771   5886426.6156   6   9   1.3954   1.2047   3.2208   0.2020  -0.7615   1.5540   0.00    0.0
2188 434340.000   2248127.2981    865686.1193   5886427.4492   6   9   1.3917   1.2041   3.2030   0.2128  -0.7529   1.5415   0.00    0.0
2188 434370.000   2248127.1141    865686.3392   5886427.1636   6   9   1.3881   1.2036   3.1854   0.2229  -0.7444   1.5291   0.00    0.0
2188 434400.000   2248127.2458    865685.7905   5886427.4762   6   9   1.3846   1.2031   3.1681   0.2323  -0.7360   1.5167   0.00    0.0
2188 434430.000   2248127.1147    865686.1057   5886427.7855   6   9   1.3811   1.2026   3.1510   0.2412  -0.7278   1.5045   0.00    0.0
2188 434460.000   2248126.8340    865685.8991   5886427.0761   6   9   1.3777   1.2021   3.1342   0.2496  -0.7196   1.4924   0.00    0.0
2188 434490.000   2248126.9408    865685.9511   5886427.1384   6   9   1.3743   1.2017   3.1176   0.2575  -0.7116   1.4803   0.00    0.0
2188 434520.000   2248127.2183    865685.9369   5886426.6756   6   9   1.3710   1.2014   3.1012   0.2650  -0.7037   1.4683   0.00    0.0
2188 434550.000   2248127.3067    865685.7225   5886426.9899   6   9   1.3678   1.2010   3.0850   0.2721  -0.6959   1.4564   0.00    0.0
2188 434580.000   2248127.4608    865686.1954   5886427.4066   6   9   1.3646   1.2008   3.0691   0.2789  -0.6883   1.4446   0.00    0.0
2188 434610.000   2248127.4272    865685.8407   5886427.2033   6   9   1.3616   1.2005   3.0534   0.2854  -0.6808   1.4328   0.00    0.0
2188 434640.000   2248127.2257    865685.9496   5886426.8740   6   9   1.4293   1.2051   3.0380   0.1926  -0.6733   1.4210   0.00    0.0
2188 434670.000   2248126.9050    865685.8863   5886427.0216   6   9   1.3913   1.2024   3.0227   0.2555  -0.6658   1.4089   0.00    0.0
2188 434700.000   2248127.3642    865685.8653   5886427.6345   6   9   1.3765   1.2014   3.0077   0.2773  -0.6586   1.3972   0.00    0.0
2188 434730.000   2248127.3722    865685.8448   5886427.5737   6   9   1.3677   1.2009   2.9929   0.2904  -0.6515   1.3857   0.00    0.0
2188 434760.000   2248127.0992    865685.9531   5886427.2726   6   9   1.3614   1.2006   2.9783   0.3000  -0.6447   1.3743   0.00    0.0
2188 434790.000   2248127.1747    865686.0288   5886426.7436   6   9   1.3563   1.2003   2.9639   0.3079  -0.6379   1.3630   0.00    0.0
2188 434820.000   2248127.1181    865686.1496   5886426.5420   6   9   1.3519   1.2002   2.9498   0.3148  -0.6313   1.3517   0.00    0.0
2188 434850.000   2248127.4253    865685.8578   5886427.0158   6   9   1.3480   1.2002   2.9358   0.3209  -0.6248   1.3406   0.00    0.0
2188 434880.000   2248126.8823    865686.1819   5886426.4972   6   9   1.3445   1.2002   2.9220   0.3265  -0.6185   1.3295   0.00    0.0
2188 434910.000   2248126.9926    865686.0640   5886426.5290   6   9   1.3412   1.2002   2.9085   0.3317  -0.6122   1.3185   0.00    0.0
2188 434940.000   2248127.3672    865685.9096   5886427.0006   6   9   1.3382   1.2003   2.8951   0.3366  -0.6062   1.3076   0.00    0.0
2188 434970.000   2248126.9412    865686.1952   5886426.4931   6   9   1.3353   1.2004   2.8819   0.3412  -0.6002   1.2967   0.00    0.0
2188 435000.000   2248127.2518    865685.8929   5886426.7331   6   9   1.3325   1.2006   2.8689   0.3455  -0.5944   1.2859   0.00    0.0
2188 435030.000   2248127.1894    865686.0016   5886426.4758   6   9   1.3299   1.2008   2.8561   0.3497  -0.5887   1.2752   0.00    0.0
2188 435060.000   2248127.0452    865685.7428   5886427.5244   6   8   1.3867   1.2075   4.1936   0.4188  -0.8527   0.6023   0.00    0.0
2188 435090.000   2248127.1016    865686.0654   5886428.3652   6   9   1.3672   1.1946   4.1878   0.3721  -0.8560   0.5515   0.00    0.0
2188 435120.000   2248127.1436    865685.9939   5886428.2363   6   9   1.3312   1.1687   4.1820   0.2547  -0.8618   0.4907   0.00    0.0
2188 435150.000   2248127.0464    865686.1003   5886427.5894   6   9   1.3189   1.1597   4.1770   0.2051  -0.8582   0.4456   0.00    0.0
2188 435180.000   2248126.8282    865685.9223   5886427.3534   6   9   1.3128   1.1550   4.1719   0.1787  -0.8521   0.4021   0.00    0.0
2188 435210.000   2248126.8544    865686.0240   5886428.0325   6   9   1.3092   1.1520   4.1669   0.1637  -0.8452   0.3565   0.00    0.0
2188 435240.000   2248126.9875    865685.8397   5886427.0506   6   9   1.3069   1.1500   4.1617   0.1554  -0.8377   0.3060   0.00    0.0
2188 435270.000   2248127.1549    865686.0129   5886427.1972   6   9   1.3054   1.1484   4.1564   0.1513  -0.8301   0.2469   0.00    0.0
2188 435300.000   2248126.9638    865686.1338   5886427.6320   6   9   1.3044   1.1472   4.1510   0.1499  -0.8222   0.1698   0.00    0.0
2188 435330.000   2248126.9252    865686.0421   5886426.9807   6   9   1.3037   1.1463   4.1455   0.1502  -0.8142  -0.0533   0.00    0.0
2188 435360.000   2248127.0027    865686.0141   5886426.6767   6   9   1.3034   1.1455   4.1398   0.1518  -0.8062  -0.1848   0.00    0.0
2188 435390.000   2248126.8889    865686.2076   5886428.4960   6   9   1.3032   1.1449   4.1340   0.1542  -0.7982  -0.2552   0.00    0.0
2188 435420.000   2248127.0586    865686.0869   5886427.2318   6   9   1.3032   1.1443   4.1280   0.1570  -0.7901  -0.3095   0.00    0.0
2188 435450.000   2248126.8508    865686.1410   5886427.5488   6   9   1.3034   1.1439   4.1220   0.1602  -0.7820  -0.3551   0.00    0.0
2188 435480.000   2248127.1545    865685.9321   5886427.9226   6   9   1.3037   1.1435   4.1157   0.1636  -0.7738  -0.3952   0.00    0.0
2188 435510.000   2248126.7594    865685.9925   5886427.5162   6   9   1.3041   1.1432   4.1094   0.1671  -0.7657  -0.4312   0.00    0.0
2188 435540.000   2248126.9917    865686.0850   5886427.3589   6   9   1.3046   1.1430   4.1029   0.1706  -0.7576  -0.4642   0.00    0.0
2188 435570.000   2248127.2442    865685.9430   5886426.9031   6   9   1.3051   1.1428   4.0962   0.1741  -0.7494  -0.4946   0.00    0.0
2188 435600.000   2248126.5098    865686.3507   5886427.2602   6   9   1.2537   1.1320   3.9510   0.2972  -0.6209  -0.8118   0.00    0.0
2188 435630.000   2248126.4341    865686.3940   5886426.8700   6   9   1.2543   1.1323   3.9480   0.2977  -0.6156  -0.8262   0.00    0.0
2188 435660.000   2248126.4823    865686.5228   5886426.7816   6   9   1.2549   1.1327   3.9448   0.2982  -0.6103  -0.8401   0.00    0.0
2188 435690.000   2248126.7100    865686.3973   5886428.0759   6   9   1.2556   1.1330   3.9415   0.2987  -0.6049  -0.8536   0.00    0.0
2188 435720.000   2248126.6295    865686.3033   5886427.3901   6   9   1.2563   1.1334   3.9380   0.2992  -0.5996  -0.8668   0.00    0.0
2188 435750.000   2248126.6847    865686.3094   5886427.5409   6   9   1.2571   1.1338   3.9343   0.2997  -0.5942  -0.8795   0.00    0.0
2188 435780.000   2248126.2299    865686.3667   5886428.0324   6   9   1.2579   1.1342   3.9304   0.3002  -0.5888  -0.8920   0.00    0.0
2188 435810.000   2248126.5365    865686.4914   5886426.7162   6   9   1.2587   1.1346   3.9264   0.3007  -0.5834  -0.9040   0.00    0.0
2188 435840.000   2248126.7164    865686.4901   5886427.2654   6   9   1.2596   1.1351   3.9222   0.3012  -0.5780  -0.9158   0.00    0.0
2188 435870.000   2248126.6291    865686.5336   5886427.1582   6   9   1.2605   1.1356   3.9178   0.3016  -0.5726  -0.9272   0.00    0.0
2188 435900.000   2248126.6289    865686.6210   5886426.9125   6   9   1.2614   1.1360   3.9132   0.3021  -0.5671  -0.9383   0.00    0.0
2188 435930.000   2248126.5232    865685.7112   5886429.8436   6   8   1.2757   2.0726   9.3405   0.6400  -3.8754  -1.5676   0.00    0.0
2188 435960.000   2248126.3436    865685.6319   5886430.8627   6   8   1.2790   2.0859   9.4359   0.6632  -3.9155  -1.6220   0.00    0.0
2188 435990.000   2248126.3015    865685.9890   5886430.3189   6   8   1.2825   2.0989   9.5295   0.6862  -3.9549  -1.6758   0.00    0.0
2188 436020.000   2248126.7683    865686.2739   5886429.7093   6   7   1.4520   2.1345   9.9749   0.7343  -3.9149  -1.2680   0.00    0.0
2188 436050.000   2248126.4640    865686.1659   5886429.2304   6   7   1.4401   2.1350   9.9494   0.7220  -3.9997  -1.4382   0.00    0.0
2188 436080.000   2248126.4588    865685.8145   5886429.6126   6   7   1.4374   2.1433  10.0033   0.7305  -4.0531  -1.5252   0.00    0.0
2188 436110.000   2248126.7228    865685.5266   5886432.2515   6   7   1.4372   2.1533  10.0753   0.7443  -4.0977  -1.5922   0.00    0.0
2188 436140.000   2248126.5262    865685.9559   5886430.5328   6   6   1.4616   2.1737  10.6691   0.7953  -4.0541  -1.3665   0.00    0.0
2188 436170.000   2248126.5435    865685.7063   5886434.0647   6   6   1.4619   2.1815  10.8262   0.8061  -4.0971  -1.4142   0.00    0.0
2188 436200.000   2248126.6973    865686.0187   5886431.8163   6   6   1.4624   2.1890  10.9856   0.8170  -4.1401  -1.4622   0.00    0.0
2188 436230.000   2248126.6848    865686.0096   5886430.6914   6   6   1.4630   2.1965  11.1472   0.8280  -4.1832  -1.5106   0.00    0.0
2188 436260.000   2248126.7742    865686.1033   5886429.4190   6   6   1.4636   2.2037  11.3108   0.8391  -4.2261  -1.5592   0.00    0.0
2188 436290.000   2248126.4882    865686.0626   5886431.5227   6   6   1.4644   2.2107  11.4762   0.8503  -4.2689  -1.6082   0.00    0.0
2188 436320.000   2248126.6717    865685.9561   5886430.9645   6   6   1.4653   2.2175  11.6431   0.8615  -4.3114  -1.6574   0.00    0.0
2188 436350.000   2248126.2066    865685.6873   5886432.5052   6   6   1.4663   2.2240  11.8113   0.8728  -4.3535  -1.7069   0.00    0.0
2188 436380.000   2248126.5412    865685.6474   5886432.0728   6   6   1.4675   2.2301  11.9806   0.8841  -4.3951  -1.7566   0.00    0.0
2188 436410.000   2248126.5969    865685.7908   5886431.7353   6   6   1.4687   2.2359  12.1506   0.8954  -4.4360  -1.8065   0.00    0.0
2188 436440.000   2248126.6100    865685.7730   5886430.9966   6   6   1.4701   2.2413  12.3209   0.9067  -4.4761  -1.8566   0.00    0.0
2188 436470.000   2248126.9302    865685.7779   5886434.4914   6   6   1.4715   2.2462  12.4911   0.9180  -4.5151  -1.9067   0.00    0.0
2188 436500.000   2248126.4844    865685.7215   5886429.0419   6   6   1.4731   2.2506  12.6608   0.9292  -4.5531  -1.9568   0.00    0.0
2188 436530.000   2248126.4580    865685.5715   5886433.4206   6   6   1.4749   2.2544  12.8296   0.9402  -4.5896  -2.0069   0.00    0.0
2188 436560.000   2248126.6078    865685.4968   5886432.9764   6   6   1.4767   2.2577  12.9967   0.9511  -4.6246  -2.0568   0.00    0.0
2188 436590.000   2248126.7569    865685.2638   5886433.7424   6   6   1.4786   2.2603  13.1618   0.9618  -4.6579  -2.1064   0.00    0.0
2188 436620.000   2248126.3880    865685.5609   5886434.4366   6   6   1.4806   2.2622  13.3242   0.9723  -4.6892  -2.1556   0.00    0.0
2188 436650.000   2248126.5144    865686.0650   5886430.2941   6   6   1.4828   2.2634  13.4833   0.9825  -4.7183  -2.2043   0.00    0.0
2188 436680.000   2248126.8052    865686.2458   5886428.2474   6   6   1.4850   2.2637  13.6383   0.9924  -4.7450  -2.2524   0.00    0.0
2188 436710.000   2248126.4863    865685.8973   5886429.3948   6   6   1.4873   2.2632  13.7886   1.0019  -4.7689  -2.2997   0.00    0.0
2188 436740.000   2248126.6297    865685.8979   5886431.1169   6   6   1.4897   2.2618  13.9333   1.0110  -4.7900  -2.3460   0.00    0.0
2188 436770.000   2248126.6643    865685.9890   5886432.7118   6   6   1.4921   2.2594  14.0719   1.0196  -4.8080  -2.3913   0.00    0.0
2188 436800.000   2248126.5541    865686.0803   5886429.6241   6   6   1.4946   2.2560  14.2035   1.0277  -4.8225  -2.4353   0.00    0.0
2188 436830.000   2248126.6400    865685.7152   5886432.3232   6   6   1.4971   2.2516  14.3273   1.0353  -4.8335  -2.4779   0.00    0.0
2188 436860.000   2248126.8821    865686.6116   5886426.5021   6   7   1.4175   1.5574   6.0669   0.5422  -1.4893   0.2649   0.00    0.0
2188 436890.000   2248126.7420    865686.8245   5886427.1243   6   7   1.4098   1.4883   4.8101   0.4811  -0.6948   0.7583   0.00    0.0
2188 436920.000   2248126.5367    865686.4259   5886426.3550   6   7   1.4065   1.4652   4.3130   0.4591   0.3365   0.8632   0.00    0.0
2188 436950.000   2248126.4621    865686.7973   5886425.3097   6   8   1.4041   1.4143   3.8539   0.4560   0.0812   0.9261   0.00    0.0
2188 436980.000   2248126.5584    865686.3098   5886424.9577   6   8   1.4022   1.3230   3.5689   0.4518  -0.4635   0.9568   0.00    0.0
2188 437010.000   2248126.1596    865686.4499   5886425.2675   6   8   1.4006   1.2868   3.4147   0.4485  -0.4674   0.9756   0.00    0.0
2188 437040.000   2248126.8504    865686.6105   5886426.0463   6   8   1.3992   1.2662   3.3138   0.4463  -0.4346   0.9888   0.00    0.0
2188 437070.000   2248126.8197    865686.7356   5886426.5579   6   8   1.3978   1.2526   3.2427   0.4450  -0.3925   0.9986   0.00    0.0
2188 437100.000   2248126.7727    865686.5955   5886425.8856   6   8   1.3965   1.2428   3.1905   0.4442  -0.3468   1.0063   0.00    0.0
2188 437130.000   2248126.7515    865686.6141   5886425.7285   6   8   1.3953   1.2353   3.1513   0.4438  -0.2982   1.0125   0.00    0.0
2188 437160.000   2248126.7761    865686.5366   5886425.9388   6   8   1.3940   1.2292   3.1215   0.4438  -0.2450   1.0177   0.00    0.0
2188 437190.000   2248126.8267    865686.4982   5886426.0779   6   8   1.3928   1.2243   3.0986   0.4439  -0.1825   1.0222   0.00    0.0
2188 437220.000   2248127.1211    865686.4533   5886426.4565   6   8   1.3916   1.2201   3.0811   0.4443  -0.0921   1.0260   0.00    0.0
2188 437250.000   2248126.6540    865686.6797   5886426.0045   6   8   1.3904   1.2165   3.0679   0.4449   0.1217   1.0294   0.00    0.0
2188 437280.000   2248126.8465    865686.7153   5886425.8683   6   8   1.3893   1.2134   3.0581   0.4455   0.1919   1.0325   0.00    0.0
2188 437310.000   2248126.6210    865686.5019   5886425.6081   6   8   1.3881   1.2107   3.0511   0.4463   0.2403   1.0352   0.00    0.0
2188 437340.000   2248126.5767    865686.3936   5886425.7467   6   8   1.3870   1.2082   3.0464   0.4471   0.2790   1.0376   0.00    0.0
2188 437370.000   2248126.5965    865686.3189   5886425.8505   6   8   1.3858   1.2060   3.0438   0.4480   0.3117   1.0399   0.00    0.0
2188 437400.000   2248126.9088    865686.4365   5886425.7562   6   8   1.3847   1.2040   3.0428   0.4490   0.3405   1.0419   0.00    0.0
2188 437430.000   2248127.0204    865686.6176   5886425.9793   6   8   1.3835   1.2022   3.0434   0.4501   0.3663   1.0438   0.00    0.0
2188 437460.000   2248126.8274    865686.5843   5886425.1837   6   8   1.3824   1.2006   3.0452   0.4512   0.3899   1.0455   0.00    0.0
2188 437490.000   2248126.7009    865686.5750   5886424.8730   6   8   1.3813   1.1991   3.0481   0.4523   0.4117   1.0471   0.00    0.0
2188 437520.000   2248126.8048    865686.4453   5886425.6504   6   8   1.3802   1.1977   3.0521   0.4535   0.4322   1.0485   0.00    0.0
2188 437550.000   2248126.7292    865686.4871   5886425.5310   6   8   1.3791   1.1964   3.0570   0.4547   0.4514   1.0499   0.00    0.0
2188 437580.000   2248127.0070    865686.3145   5886426.5606   6   9   1.3488   1.1900   3.0343   0.4893   0.5169   0.9938   0.00    0.0
2188 437610.000   2248126.6958    865686.1744   5886425.5635   6   9   1.2940   1.1804   2.9997   0.5422   0.5954   0.8960   0.00    0.0
2188 437640.000   2248126.9476    865686.4905   5886425.5791   6   9   1.2745   1.1768   2.9941   0.5587   0.6268   0.8631   0.00    0.0
2188 437670.000   2248126.7453    865686.1101   5886425.4672   6   9   1.2641   1.1747   2.9963   0.5668   0.6472   0.8478   0.00    0.0
2188 437700.000   2248126.3784    865686.2629   5886425.4305   6   9   1.4516   1.1803   3.0173   0.6478   0.6919   0.9616   0.00    0.0
2188 437730.000   2248126.5711    865686.3657   5886425.0432   6   9   1.3615   1.1757   3.0207   0.6143   0.6937   0.9137   0.00    0.0
2188 437760.000   2248126.7858    865686.1782   5886425.1185   6   9   1.3267   1.1737   3.0284   0.6040   0.7020   0.8949   0.00    0.0
2188 437790.000   2248126.8669    865686.4421   5886425.2849   6   9   1.3070   1.1726   3.0377   0.5995   0.7115   0.8847   0.00    0.0
2188 437820.000   2248126.7233    865686.0810   5886425.2252   6   9   1.2939   1.1718   3.0481   0.5972   0.7214   0.8785   0.00    0.0
2188 437850.000   2248126.8019    865686.1959   5886425.2546   6   9   1.2844   1.1712   3.0594   0.5959   0.7313   0.8746   0.00    0.0
2188 437880.000   2248127.0039    865686.3674   5886424.8563   6   9   1.2769   1.1708   3.0714   0.5952   0.7412   0.8721   0.00    0.0
2188 437910.000   2248126.9023    865686.3947   5886424.9503   6   9   1.2709   1.1705   3.0840   0.5948   0.7510   0.8705   0.00    0.0
2188 437940.000   2248126.9258    865686.3042   5886425.1250   6   9   1.2659   1.1703   3.0971   0.5945   0.7607   0.8697   0.00    0.0
2188 437970.000   2248126.8265    865686.0661   5886425.2284   6   9   1.2615   1.1702   3.1107   0.5944   0.7704   0.8694   0.00    0.0
2188 438000.000   2248126.6621    865686.1642   5886425.0428   6   9   1.2577   1.1702   3.1247   0.5944   0.7800   0.8694   0.00    0.0
2188 438030.000   2248126.8498    865686.0713   5886424.5178   6   8   1.4748   1.1848   3.1710   0.7052   0.8404   1.0506   0.00    0.0
2188 438060.000   2248127.1048    865686.2730   5886425.0930   6   8   1.4731   1.1854   3.1882   0.7074   0.8523   1.0581   0.00    0.0
2188 438090.000   2248126.8185    865686.2775   5886425.3536   6   8   1.4715   1.1861   3.2060   0.7096   0.8641   1.0658   0.00    0.0
2188 438120.000   2248126.7117    865686.3261   5886425.1064   6   8   1.4701   1.1868   3.2242   0.7118   0.8760   1.0736   0.00    0.0
2188 438150.000   2248127.1070    865686.2643   5886424.7771   6   8   1.4687   1.1876   3.2429   0.7139   0.8879   1.0816   0.00    0.0
2188 438180.000   2248126.4524    865686.0974   5886424.8883   6   8   1.4674   1.1885   3.2619   0.7161   0.8998   1.0897   0.00    0.0
2188 438210.000   2248126.7322    865686.0819   5886424.8409   6   8   1.4662   1.1894   3.2814   0.7184   0.9118   1.0979   0.00    0.0
2188 438240.000   2248127.0862    865686.2361   5886424.9764   6   8   1.4650   1.1903   3.3014   0.7206   0.9239   1.1061   0.00    0.0
2188 438270.000   2248126.6224    865686.0945   5886424.6430   6   8   1.4639   1.1914   3.3217   0.7228   0.9360   1.1145   0.00    0.0
2188 438300.000   2248126.5038    865686.1776   5886424.6174   6   8   1.4628   1.1925   3.3424   0.7251   0.9482   1.1230   0.00    0.0
2188 438330.000   2248126.9237    865686.3500   5886424.8056   6   8   1.4618   1.1936   3.3635   0.7274   0.9604   1.1316   0.00    0.0
2188 438360.000   2248126.9443    865686.4732   5886424.8388   6   8   1.4609   1.1948   3.3850   0.7297   0.9728   1.1402   0.00    0.0
2188 438390.000   2248126.8384    865685.9356   5886424.3403   6   8   1.4599   1.1961   3.4069   0.7320   0.9852   1.1489   0.00    0.0
2188 438420.000   2248126.9414    865686.1800   5886424.4766   6   8   1.4591   1.1974   3.4292   0.7343   0.9977   1.1577   0.00    0.0
2188 438450.000   2248126.7099    865686.2322   5886423.8620   6   8   1.4582   1.1988   3.4518   0.7367   1.0103   1.1666   0.00    0.0
2188 438480.000   2248126.6760    865686.0375   5886424.4617   6   8   1.4574   1.2002   3.4748   0.7391   1.0230   1.1755   0.00    0.0
2188 438510.000   2248126.8916    865686.2697   5886425.2922   6   8   1.4566   1.2017   3.4982   0.7415   1.0357   1.1845   0.00    0.0
2188 438540.000   2248126.7458    865686.3216   5886424.6517   6   8   1.4559   1.2033   3.5219   0.7440   1.0486   1.1935   0.00    0.0
2188 438570.000   2248126.8390    865686.0094   5886424.3841   6   8   1.4552   1.2049   3.5460   0.7464   1.0616   1.2026   0.00    0.0
2188 438600.000   2248126.8308    865686.0949   5886424.4639   6   8   1.4545   1.2065   3.5704   0.7489   1.0746   1.2118   0.00    0.0
2188 438630.000   2248126.8701    865686.0771   5886425.0595   6   8   1.4539   1.2083   3.5951   0.7515   1.0878   1.2210   0.00    0.0
2188 438660.000   2248126.6738    865685.7554   5886423.8486   6   8   1.4533   1.2101   3.6202   0.7540   1.1010   1.2303   0.00    0.0
2188 438690.000   2248126.5142    865685.8170   5886423.7526   6   8   1.4527   1.2119   3.6455   0.7566   1.1144   1.2396   0.00    0.0
2188 438720.000   2248126.6682    865685.9714   5886423.5598   6   8   1.4521   1.2138   3.6712   0.7592   1.1278   1.2490   0.00    0.0
2188 438750.000   2248126.5415    865686.2308   5886424.0368   6   8   1.4515   1.2158   3.6972   0.7619   1.1414   1.2584   0.00    0.0
2188 438780.000   2248126.7762    865686.4809   5886424.4493   6   8   1.4510   1.2178   3.7235   0.7645   1.1550   1.2678   0.00    0.0
2188 438810.000   2248126.9797    865686.1371   5886424.5299   6   8   1.4505   1.2199   3.7501   0.7672   1.1687   1.2773   0.00    0.0
2188 438840.000   2248126.8624    865686.0100   5886424.4618   6   8   1.4501   1.2221   3.7769   0.7700   1.1826   1.2868   0.00    0.0
2188 438870.000   2248126.9377    865686.0514   5886424.1727   6   8   1.4496   1.2243   3.8040   0.7727   1.1965   1.2963   0.00    0.0
2188 438900.000   2248127.0652    865685.9268   5886424.3602   6   8   1.4492   1.2265   3.8313   0.7755   1.2105   1.3059   0.00    0.0
2188 438930.000   2248126.8863    865686.1048   5886424.1164   6   8   1.4488   1.2289   3.8589   0.7783   1.2246   1.3154   0.00    0.0
2188 438960.000   2248126.6766    865686.0362   5886424.2509   6   8   1.4484   1.2313   3.8867   0.7811   1.2388   1.3250   0.00    0.0
2188 438990.000   2248126.7039    865686.0888   5886425.1795   6   8   1.4480   1.2337   3.9147   0.7840   1.2530   1.3346   0.00    0.0
2188 439020.000   2248126.7657    865685.9700   5886424.1903   6   8   1.4476   1.2362   3.9429   0.7869   1.2673   1.3442   0.00    0.0
2188 439050.000   2248126.6003    865685.7115   5886423.5443   6   8   1.4473   1.2388   3.9712   0.7898   1.2817   1.3537   0.00    0.0
2188 439080.000   2248126.7641    865685.9713   5886423.9707   6   8   1.4469   1.2414   3.9997   0.7927   1.2962   1.3633   0.00    0.0
2188 439110.000   2248126.7009    865685.9845   5886424.7748   6   8   1.4466   1.2441   4.0284   0.7956   1.3107   1.3728   0.00    0.0
2188 439140.000   2248126.6214    865685.9736   5886424.0740   6   8   1.4463   1.2468   4.0572   0.7986   1.3253   1.3824   0.00    0.0
2188 439170.000   2248126.6888    865685.9466   5886423.7052   6   8   1.4460   1.2496   4.0860   0.8015   1.3399   1.3919   0.00    0.0
2188 439200.000   2248126.5694    865685.5491   5886423.6253   6   8   1.4926   1.2546   4.2595   0.7873   1.3242   1.5401   0.00    0.0
2188 439230.000   2248126.6087    865685.7327   5886424.3757   6   8   1.4931   1.2572   4.2942   0.7914   1.3406   1.5529   0.00    0.0
2188 439260.000   2248126.9668    865685.9029   5886425.0001   6   8   1.4937   1.2599   4.3291   0.7955   1.3571   1.5658   0.00    0.0
2188 439290.000   2248126.5257    865685.5490   5886423.1700   6   8   1.4942   1.2627   4.3643   0.7997   1.3736   1.5787   0.00    0.0
2188 439320.000   2248126.3084    865685.5338   5886423.7579   6   8   1.4949   1.2655   4.3995   0.8038   1.3902   1.5915   0.00    0.0
2188 439350.000   2248126.9332    865686.1767   5886424.8051   6   8   1.4955   1.2684   4.4349   0.8081   1.4069   1.6044   0.00    0.0
2188 439380.000   2248126.4931    865685.6915   5886424.7435   6   8   1.4961   1.2713   4.4704   0.8123   1.4237   1.6172   0.00    0.0
2188 439410.000   2248126.7695    865685.8402   5886424.2317   6   8   1.4968   1.2743   4.5059   0.8166   1.4405   1.6300   0.00    0.0
2188 439440.000   2248126.8417    865685.6824   5886423.9852   6   8   1.4974   1.2774   4.5414   0.8208   1.4574   1.6427   0.00    0.0
2188 439470.000   2248126.6774    865686.0856   5886422.8763   6   8   1.4981   1.2805   4.5769   0.8251   1.4742   1.6554   0.00    0.0
2188 439500.000   2248126.7916    865685.9649   5886424.3722   6   8   1.4988   1.2837   4.6123   0.8295   1.4911   1.6680   0.00    0.0
2188 439530.000   2248127.0479    865685.6890   5886424.6167   6   8   1.4995   1.2870   4.6477   0.8338   1.5080   1.6806   0.00    0.0
2188 439560.000   2248126.1448    865685.4281   5886423.3251   6   8   1.5002   1.2903   4.6829   0.8381   1.5249   1.6930   0.00    0.0
2188 439590.000   2248126.5695    865685.5337   5886423.1712   6   8   1.5009   1.2936   4.7179   0.8425   1.5418   1.7053   0.00    0.0
2188 439620.000   2248126.8379    865685.8069   5886423.7383   6   8   1.5016   1.2970   4.7527   0.8468   1.5586   1.7175   0.00    0.0
2188 439650.000   2248126.6608    865685.7671   5886423.2389   6   8   1.5023   1.3005   4.7872   0.8511   1.5753   1.7295   0.00    0.0
2188 439680.000   2248126.4097    865685.8478   5886422.4171   6   8   1.5030   1.3039   4.8213   0.8554   1.5919   1.7413   0.00    0.0
2188 439710.000   2248126.4446    865685.7455   5886422.7925   6   8   1.5037   1.3075   4.8550   0.8597   1.6085   1.7529   0.00    0.0
2188 439740.000   2248126.6096    865685.6667   5886423.7821   6   8   1.5043   1.3110   4.8884   0.8640   1.6249   1.7644   0.00    0.0
2188 439770.000   2248126.4816    865685.5225   5886422.9242   6   8   1.5050   1.3146   4.9212   0.8682   1.6411   1.7756   0.00    0.0
2188 439800.000   2248126.7606    865685.5824   5886424.9505   6   8   1.5056   1.3182   4.9534   0.8724   1.6572   1.7865   0.00    0.0
2188 439830.000   2248126.4856    865685.5540   5886423.3938   6   8   1.5062   1.3219   4.9850   0.8766   1.6731   1.7972   0.00    0.0
2188 439860.000   2248126.3718    865685.6908   5886423.4771   6   8   1.5068   1.3255   5.0159   0.8807   1.6887   1.8076   0.00    0.0
2188 439890.000   2248126.7117    865685.8309   5886423.8908   6   8   1.5073   1.3292   5.0461   0.8847   1.7041   1.8177   0.00    0.0
2188 439920.000   2248126.6117    865685.7183   5886424.2046   6   8   1.5078   1.3329   5.0755   0.8887   1.7193   1.8274   0.00    0.0
2188 439950.000   2248126.5902    865685.6418   5886423.5872   6   8   1.5082   1.3365   5.1040   0.8926   1.7341   1.8368   0.00    0.0
2188 439980.000   2248126.6177    865685.5731   5886422.7169   6   8   1.5086   1.3402   5.1316   0.8964   1.7487   1.8458   0.00    0.0
2188 440010.000   2248126.7654    865685.6355   5886423.3548   6   8   1.5090   1.3438   5.1581   0.9002   1.7629   1.8544   0.00    0.0
2188 440040.000   2248126.8458    865685.7685   5886424.2835   6   8   1.5093   1.3475   5.1836   0.9038   1.7767   1.8626   0.00    0.0
2188 440070.000   2248126.6927    865685.4236   5886422.9518   6   8   1.5095   1.3511   5.2080   0.9073   1.7901   1.8703   0.00    0.0
2188 440100.000   2248126.3386    865685.4480   5886422.2880   6   8   1.5097   1.3546   5.2312   0.9108   1.8031   1.8776   0.00    0.0
2188 440130.000   2248126.8758    865685.5762   5886423.5313   6   8   1.5098   1.3582   5.2532   0.9141   1.8156   1.8844   0.00    0.0
2188 440160.000   2248126.5176    865685.4452   5886423.0262   6   8   1.5098   1.3616   5.2739   0.9173   1.8277   1.8907   0.00    0.0
2188 440190.000   2248126.7299    865685.5996   5886423.2154   6   8   1.5098   1.3651   5.2932   0.9203   1.8393   1.8965   0.00    0.0
2188 440220.000   2248126.4794    865685.5121   5886422.8349   6   8   1.5097   1.3685   5.3111   0.9233   1.8503   1.9017   0.00    0.0
2188 440250.000   2248126.4676    865685.5806   5886423.6687   6   8   1.5095   1.3718   5.3275   0.9260   1.8609   1.9064   0.00    0.0
2188 440280.000   2248126.6759    865685.5243   5886423.5860   6   8   1.5092   1.3750   5.3424   0.9287   1.8708   1.9105   0.00    0.0
2188 440310.000   2248126.5806    865685.5788   5886423.3144   6   8   1.5088   1.3781   5.3558   0.9311   1.8802   1.9140   0.00    0.0
2188 440340.000   2248126.6040    865685.6156   5886423.1133   6   8   1.5084   1.3812   5.3676   0.9335   1.8889   1.9170   0.00    0.0
2188 440370.000   2248126.7192    865685.4533   5886423.1477   6   8   1.5079   1.3842   5.3778   0.9356   1.8971   1.9193   0.00    0.0
2188 440400.000   2248126.3943    865685.4712   5886422.7055   6   8   1.5072   1.3871   5.3864   0.9376   1.9046   1.9210   0.00    0.0
2188 440430.000   2248126.8231    865685.5753   5886422.0949   6   8   1.5065   1.3899   5.3932   0.9394   1.9115   1.9222   0.00    0.0
2188 440460.000   2248126.6839    865685.5327   5886423.5530   6   8   1.5057   1.3925   5.3984   0.9410   1.9177   1.9226   0.00    0.0
2188 440490.000   2248126.4049    865685.6062   5886423.0481   6   8   1.5048   1.3951   5.4018   0.9425   1.9232   1.9225   0.00    0.0
2188 440520.000   2248126.3459    865685.5698   5886422.9816   6   8   1.5038   1.3976   5.4035   0.9437   1.9280   1.9217   0.00    0.0
2188 440550.000   2248126.3517    865685.6292   5886423.2691   6   8   1.5027   1.3999   5.4036   0.9448   1.9322   1.9203   0.00    0.0
2188 440580.000   2248126.3629    865685.3464   5886423.1000   6   8   1.5016   1.4021   5.4018   0.9457   1.9357   1.9183   0.00    0.0
2188 440610.000   2248126.4786    865685.3152   5886422.6491   6   8   1.5003   1.4042   5.3984   0.9464   1.9384   1.9156   0.00    0.0
2188 440640.000   2248126.3111    865685.2147   5886421.9348   6   8   1.4990   1.4062   5.3932   0.9470   1.9405   1.9124   0.00    0.0
2188 440670.000   2248126.3562    865685.3246   5886423.7296   6   8   1.4975   1.4080   5.3864   0.9473   1.9419   1.9085   0.00    0.0
2188 440700.000   2248126.6844    865685.5799   5886423.6712   6   8   1.4960   1.4097   5.3779   0.9475   1.9426   1.9040   0.00    0.0
2188 440730.000   2248126.3746    865685.3920   5886422.5480   6   8   1.4944   1.4113   5.3677   0.9475   1.9426   1.8989   0.00    0.0
2188 440760.000   2248126.7695    865685.7206   5886424.4128   6   8   1.4928   1.4128   5.3559   0.9473   1.9419   1.8933   0.00    0.0
2188 440790.000   2248126.5482    865685.6251   5886423.3110   6   8   1.4910   1.4141   5.3426   0.9470   1.9406   1.8871   0.00    0.0
2188 440820.000   2248126.4346    865685.6135   5886423.0285   6   8   1.4892   1.4153   5.3277   0.9464   1.9386   1.8803   0.00    0.0
2188 440850.000   2248126.2460    865685.4368   5886422.9617   6   8   1.4873   1.4164   5.3113   0.9457   1.9360   1.8731   0.00    0.0
2188 440880.000   2248126.2489    865685.4546   5886422.7100   6   8   1.4853   1.4173   5.2935   0.9449   1.9328   1.8653   0.00    0.0
2188 440910.000   2248126.3278    865685.7874   5886423.8511   6   8   1.4833   1.4182   5.2742   0.9439   1.9289   1.8570   0.00    0.0
2188 440940.000   2248126.4144    865685.3988   5886423.0420   6   8   1.4813   1.4189   5.2537   0.9428   1.9244   1.8482   0.00    0.0
2188 440970.000   2248126.3759    865685.6052   5886423.3583   6   8   1.4792   1.4195   5.2318   0.9415   1.9194   1.8390   0.00    0.0
2188 441000.000   2248126.5551    865685.5836   5886422.0554   6   9   1.4308   1.3516   5.0673   0.8509   1.7714   1.7043   0.00    0.0
2188 441030.000   2248126.5345    865685.1714   5886422.8478   6   9   1.3614   1.2490   4.8431   0.7052   1.5453   1.5036   0.00    0.0
2188 441060.000   2248126.3045    865685.4317   5886422.5916   6   9   1.3373   1.2136   4.7595   0.6499   1.4641   1.4300   0.00    0.0
2188 441090.000   2248126.4264    865685.4686   5886421.7712   6   9   1.3250   1.1961   4.7115   0.6210   1.4232   1.3913   0.00    0.0
2188 441120.000   2248126.3381    865685.5976   5886422.4160   6   9   1.3175   1.1859   4.6775   0.6033   1.3990   1.3671   0.00    0.0
2188 441150.000   2248126.1325    865685.3237   5886422.2462   6   9   1.3123   1.1795   4.6501   0.5916   1.3833   1.3501   0.00    0.0
2188 441180.000   2248126.8324    865685.4234   5886422.7609   6   9   1.3086   1.1752   4.6260   0.5833   1.3724   1.3373   0.00    0.0
2188 441210.000   2248126.3757    865685.4432   5886422.1053   6   9   1.3057   1.1723   4.6038   0.5773   1.3644   1.3271   0.00    0.0
2188 441240.000   2248126.3913    865685.5018   5886422.5133   6   9   1.3035   1.1702   4.5825   0.5727   1.3583   1.3185   0.00    0.0
2188 441270.000   2248126.3872    865685.3496   5886423.4129   6   9   1.3016   1.1688   4.5617   0.5692   1.3534   1.3110   0.00    0.0
2188 441300.000   2248126.2523    865685.5980   5886422.7597   6   9   1.3000   1.1678   4.5411   0.5664   1.3493   1.3042   0.00    0.0
2188 441330.000   2248126.4194    865685.3036   5886422.0683   6   9   1.2987   1.1671   4.5203   0.5642   1.3458   1.2980   0.00    0.0
2188 441360.000   2248126.5298    865685.3098   5886422.6458   6   9   1.2975   1.1667   4.4994   0.5624   1.3426   1.2921   0.00    0.0
2188 441390.000   2248125.9780    865685.6368   5886421.3415   6   8   1.5445   1.1812   5.2153   0.3981   1.1392   1.9746   0.00    0.0
2188 441420.000   2248126.2108    865685.5383   5886422.3659   6   8   1.5445   1.1809   5.2022   0.3982   1.1374   1.9743   0.00    0.0
2188 441450.000   2248126.3858    865685.5839   5886422.0507   6   8   1.5446   1.1807   5.1882   0.3986   1.1358   1.9736   0.00    0.0
2188 441480.000   2248126.6832    865685.3020   5886423.1771   6   8   1.5446   1.1806   5.1733   0.3992   1.1342   1.9727   0.00    0.0
2188 441510.000   2248126.0520    865685.2425   5886421.2136   6   8   1.5446   1.1805   5.1575   0.4000   1.1327   1.9715   0.00    0.0
2188 441540.000   2248126.5486    865685.0960   5886424.1114   6   8   1.5446   1.1805   5.1408   0.4009   1.1312   1.9700   0.00    0.0
2188 441570.000   2248126.3019    865685.3550   5886422.5766   6   8   1.5446   1.1805   5.1231   0.4019   1.1296   1.9681   0.00    0.0
2188 441600.000   2248126.2431    865685.3427   5886423.1556   6   8   1.5446   1.1806   5.1045   0.4029   1.1280   1.9658   0.00    0.0
2188 441630.000   2248126.2975    865685.3612   5886423.4922   6   8   1.5445   1.1807   5.0849   0.4041   1.1264   1.9632   0.00    0.0
2188 441660.000   2248126.0784    865685.4353   5886422.5211   6   8   1.5443   1.1809   5.0645   0.4052   1.1246   1.9601   0.00    0.0
2188 441690.000   2248126.4125    865685.2599   5886423.5202   6   8   1.5441   1.1810   5.0432   0.4064   1.1227   1.9567   0.00    0.0
2188 441720.000   2248126.4199    865685.1897   5886422.3349   6   8   1.5439   1.1812   5.0210   0.4076   1.1208   1.9529   0.00    0.0
2188 441750.000   2248126.1795    865685.3742   5886422.7609   6   8   1.5436   1.1815   4.9980   0.4088   1.1186   1.9488   0.00    0.0
2188 441780.000   2248126.2926    865685.2845   5886421.7553   6   8   1.5432   1.1817   4.9743   0.4100   1.1164   1.9442   0.00    0.0
2188 441810.000   2248126.2460    865685.2133   5886423.3129   6   8   1.5428   1.1819   4.9498   0.4111   1.1140   1.9393   0.00    0.0
2188 441840.000   2248126.6032    865685.4132   5886424.3522   6   8   1.5423   1.1822   4.9245   0.4123   1.1115   1.9341   0.00    0.0
2188 441870.000   2248126.2895    865685.1102   5886423.9647   6   8   1.5418   1.1824   4.8986   0.4134   1.1089   1.9285   0.00    0.0
2188 441900.000   2248126.2335    865685.3006   5886423.2886   6   8   1.5412   1.1827   4.8721   0.4145   1.1061   1.9225   0.00    0.0
2188 441930.000   2248126.4327    865685.2302   5886423.6879   6   8   1.5405   1.1830   4.8449   0.4155   1.1032   1.9162   0.00    0.0
2188 441960.000   2248126.3111    865685.1729   5886422.3769   6   8   1.5398   1.1833   4.8172   0.4166   1.1002   1.9097   0.00    0.0
2188 441990.000   2248126.4974    865685.1315   5886423.1548   6   8   1.5390   1.1836   4.7890   0.4176   1.0970   1.9028   0.00    0.0
2188 442020.000   2248126.2020    865685.0511   5886422.9490   6   8   1.5382   1.1839   4.7603   0.4185   1.0937   1.8956   0.00    0.0
2188 442050.000   2248126.2392    865685.0255   5886422.6929   6   8   1.5373   1.1842   4.7312   0.4194   1.0903   1.8882   0.00    0.0
2188 442080.000   2248126.5397    865685.5014   5886422.5461   6   8   1.5364   1.1846   4.7016   0.4203   1.0868   1.8805   0.00    0.0
2188 442110.000   2248126.4556    865685.2914   5886423.3493   6   8   1.5354   1.1849   4.6717   0.4212   1.0831   1.8726   0.00    0.0
2188 442140.000   2248126.1731    865685.0291   5886421.7806   6   8   1.5344   1.1852   4.6414   0.4220   1.0793   1.8644   0.00    0.0
2188 442170.000   2248126.5431    865685.2165   5886423.1890   6   8   1.5333   1.1856   4.6109   0.4228   1.0755   1.8560   0.00    0.0
2188 442200.000   2248126.1643    865685.2374   5886422.1650   6   8   1.5322   1.1859   4.5801   0.4235   1.0715   1.8474   0.00    0.0
2188 442230.000   2248126.3019    865685.0528   5886423.0901   6   8   1.5311   1.1863   4.5491   0.4243   1.0674   1.8386   0.00    0.0
2188 442260.000   2248126.1976    865685.5796   5886423.4617   6   8   1.5299   1.1866   4.5178   0.4250   1.0632   1.8296   0.00    0.0
2188 442290.000   2248126.4830    865685.2198   5886423.7007   6   8   1.5287   1.1870   4.4865   0.4256   1.0590   1.8205   0.00    0.0
2188 442320.000   2248126.4620    865685.3011   5886423.5660   6   8   1.5275   1.1873   4.4550   0.4262   1.0547   1.8112   0.00    0.0
2188 442350.000   2248126.2808    865684.9170   5886423.7100   6   8   1.5262   1.1877   4.4234   0.4268   1.0502   1.8017   0.00    0.0
2188 442380.000   2248126.0826    865685.2283   5886423.2080   6   8   1.5249   1.1881   4.3917   0.4274   1.0458   1.7921   0.00    0.0
2188 442410.000   2248126.3776    865685.2344   5886423.5100   6   8   1.5236   1.1884   4.3600   0.4280   1.0412   1.7824   0.00    0.0
2188 442440.000   2248126.5721    865684.9700   5886423.0954   6   8   1.5223   1.1888   4.3283   0.4285   1.0366   1.7726   0.00    0.0
2188 442470.000   2248126.5462    865684.8829   5886422.1354   6   8   1.5209   1.1892   4.2967   0.4290   1.0319   1.7627   0.00    0.0
2188 442500.000   2248126.4135    865685.2905   5886423.0036   6   8   1.5195   1.1896   4.2650   0.4295   1.0272   1.7527   0.00    0.0
2188 442530.000   2248126.2351    865685.1076   5886422.7918   6   8   1.5181   1.1900   4.2334   0.4300   1.0224   1.7427   0.00    0.0
2188 442560.000   2248126.3368    865685.3383   5886423.9311   6   8   1.5167   1.1904   4.2019   0.4304   1.0175   1.7325   0.00    0.0
2188 442590.000   2248126.1815    865684.9392   5886423.4058   6   8   1.5153   1.1907   4.1705   0.4309   1.0126   1.7223   0.00    0.0
2188 442620.000   2248126.5297    865685.0178   5886423.0028   6   8   1.5139   1.1911   4.1393   0.4313   1.0077   1.7121   0.00    0.0
2188 442650.000   2248126.6071    865685.3393   5886424.3689   6   8   1.5125   1.1915   4.1081   0.4317   1.0028   1.7018   0.00    0.0
2188 442680.000   2248126.7109    865685.5048   5886424.3012   6   8   1.5111   1.1919   4.0771   0.4321   0.9978   1.6915   0.00    0.0
2188 442710.000   2248126.6845    865685.3123   5886423.4896   6   9   1.5092   1.1759   3.8152   0.4241   0.8483   1.6664   0.00    0.0
2188 442740.000   2248126.6045    865685.3105   5886423.6433   6   9   1.5074   1.1557   3.4877   0.4164   0.6233   1.6422   0.00    0.0
2188 442770.000   2248126.7805    865685.3117   5886424.6054   6   9   1.5061   1.1493   3.3670   0.4166   0.5307   1.6317   0.00    0.0
2188 442800.000   2248126.4502    865685.2745   5886423.5525   6   9   1.3987   1.1431   3.0402   0.3579   0.3480   1.3873   0.00    0.0
2188 442830.000   2248126.1635    865685.4823   5886423.7253   6   9   1.3979   1.1415   3.0018   0.3610   0.3053   1.3851   0.00    0.0
2188 442860.000   2248126.1288    865685.4026   5886423.2518   6   9   1.3970   1.1405   2.9744   0.3640   0.2749   1.3827   0.00    0.0
2188 442890.000   2248126.1837    865685.2722   5886422.8180   6   9   1.3962   1.1399   2.9531   0.3669   0.2525   1.3802   0.00    0.0
2188 442920.000   2248126.4418    865685.3695   5886423.5406   6   9   1.3953   1.1396   2.9357   0.3698   0.2357   1.3775   0.00    0.0
2188 442950.000   2248126.4483    865685.3894   5886423.7836   6   9   1.3944   1.1394   2.9208   0.3727   0.2231   1.3747   0.00    0.0
2188 442980.000   2248126.2724    865685.3424   5886423.3707   6   9   1.3935   1.1394   2.9077   0.3756   0.2137   1.3717   0.00    0.0
2188 443010.000   2248125.9387    865685.3445   5886423.2810   6   9   1.3926   1.1394   2.8959   0.3784   0.2068   1.3687   0.00    0.0
2188 443040.000   2248126.3775    865685.2205   5886423.6103   6   9   1.3916   1.1395   2.8850   0.3812   0.2020   1.3655   0.00    0.0
2188 443070.000   2248126.2214    865685.2339   5886423.1739   6   9   1.3906   1.1397   2.8748   0.3840   0.1988   1.3622   0.00    0.0
2188 443100.000   2248126.1106    865685.0066   5886423.0602   6   9   1.3896   1.1399   2.8651   0.3868   0.1969   1.3588   0.00    0.0
2188 443130.000   2248126.3355    865685.0319   5886424.0019   6   9   1.3886   1.1401   2.8558   0.3895   0.1960   1.3553   0.00    0.0
2188 443160.000   2248126.1957    865685.1611   5886423.3813   6   9   1.3875   1.1404   2.8468   0.3922   0.1960   1.3517   0.00    0.0
2188 443190.000   2248126.3753    865684.9532   5886423.4164   6   9   1.3865   1.1407   2.8382   0.3949   0.1967   1.3480   0.00    0.0
2188 443220.000   2248126.6641    865685.4296   5886423.8077   6   9   1.3854   1.1410   2.8297   0.3975   0.1980   1.3442   0.00    0.0
2188 443250.000   2248126.1291    865685.2224   5886423.2094   6   9   1.3843   1.1414   2.8213   0.4001   0.1997   1.3403   0.00    0.0
2188 443280.000   2248126.3104    865685.1060   5886423.5370   6   9   1.3832   1.1418   2.8131   0.4027   0.2018   1.3363   0.00    0.0
2188 443310.000   2248126.1162    865685.0883   5886423.9162   6   9   1.3820   1.1421   2.8051   0.4053   0.2042   1.3323   0.00    0.0
2188 443340.000   2248126.1712    865685.2512   5886423.8923   6   9   1.3809   1.1425   2.7971   0.4078   0.2067   1.3281   0.00    0.0
2188 443370.000   2248126.3482    865684.9616   5886423.5559   6   9   1.3797   1.1430   2.7892   0.4103   0.2094   1.3238   0.00    0.0
2188 443400.000   2248126.3751    865685.1440   5886423.9664   6   9   1.3785   1.1434   2.7813   0.4128   0.2123   1.3195   0.00    0.0
2188 443430.000   2248126.3044    865685.0419   5886423.8575   6   9   1.3773   1.1438   2.7735   0.4152   0.2152   1.3151   0.00    0.0
2188 443460.000   2248126.4756    865685.1608   5886423.5017   6   9   1.3761   1.1443   2.7657   0.4176   0.2182   1.3106   0.00    0.0
2188 443490.000   2248126.2931    865685.1096   5886423.4823   6   9   1.3749   1.1447   2.7580   0.4200   0.2212   1.3060   0.00    0.0
2188 443520.000   2248126.4415    865684.9745   5886424.0638   6   9   1.3736   1.1452   2.7503   0.4223   0.2242   1.3013   0.00    0.0
2188 443550.000   2248126.3757    865685.0103   5886423.9983   6   9   1.3724   1.1457   2.7426   0.4246   0.2272   1.2965   0.00    0.0
2188 443580.000   2248126.3428    865685.0368   5886423.9119   6   9   1.3712   1.1462   2.7350   0.4268   0.2302   1.2917   0.00    0.0
2188 443610.000   2248126.2872    865685.0330   5886423.9750   6   9   1.3699   1.1467   2.7274   0.4291   0.2332   1.2868   0.00    0.0
2188 443640.000   2248126.1673    865685.0694   5886423.8968   6   9   1.3686   1.1472   2.7198   0.4313   0.2361   1.2819   0.00    0.0
2188 443670.000   2248126.1152    865685.0163   5886424.0070   6   9   1.3674   1.1477   2.7122   0.4334   0.2389   1.2768   0.00    0.0
2188 443700.000   2248126.1598    865685.0778   5886424.0864   6   9   1.3661   1.1483   2.7047   0.4355   0.2417   1.2717   0.00    0.0
2188 443730.000   2248126.1491    865685.0596   5886423.8713   6   9   1.3648   1.1488   2.6971   0.4376   0.2445   1.2665   0.00    0.0
2188 443760.000   2248126.4361    865684.9242   5886424.3761   6   9   1.3635   1.1494   2.6896   0.4397   0.2471   1.2613   0.00    0.0
2188 443790.000   2248126.3030    865684.8720   5886424.0171   6   9   1.3622   1.1499   2.6821   0.4417   0.2497   1.2560   0.00    0.0
2188 443820.000   2248126.2261    865684.8909   5886423.7783   6   9   1.3609   1.1505   2.6747   0.4436   0.2523   1.2507   0.00    0.0
2188 443850.000   2248126.2467    865684.9808   5886424.3203   6   9   1.3597   1.1511   2.6672   0.4456   0.2547   1.2452   0.00    0.0
2188 443880.000   2248126.5094    865685.1087   5886423.7380   6   9   1.3584   1.1517   2.6598   0.4475   0.2571   1.2398   0.00    0.0
2188 443910.000   2248126.3894    865685.1479   5886423.9188   6   9   1.3571   1.1523   2.6524   0.4493   0.2593   1.2342   0.00    0.0
2188 443940.000   2248126.4131    865685.0050   5886423.8552   6   9   1.3558   1.1529   2.6450   0.4512   0.2615   1.2286   0.00    0.0
2188 443970.000   2248125.8905    865685.0058   5886424.1600   6   9   1.3545   1.1535   2.6377   0.4530   0.2636   1.2230   0.00    0.0
2188 444000.000   2248126.3085    865685.3503   5886424.4898   6   9   1.3532   1.1541   2.6304   0.4547   0.2657   1.2173   0.00    0.0
2188 444030.000   2248126.3085    865685.0474   5886423.4032   6   9   1.3519   1.1547   2.6231   0.4564   0.2676   1.2116   0.00    0.0
2188 444060.000   2248126.5489    865685.1284   5886424.8346   6   9   1.3507   1.1554   2.6158   0.4581   0.2695   1.2058   0.00    0.0
2188 444090.000   2248126.5033    865685.1205   5886423.7949   6   9   1.3494   1.1560   2.6086   0.4598   0.2713   1.2000   0.00    0.0
2188 444120.000   2248126.5184    865685.0985   5886424.1491   6   9   1.3481   1.1567   2.6014   0.4614   0.2730   1.1941   0.00    0.0
2188 444150.000   2248126.4287    865684.8764   5886424.8193   6   9   1.3469   1.1573   2.5942   0.4630   0.2746   1.1882   0.00    0.0
2188 444180.000   2248126.4626    865684.8957   5886424.1854   6   9   1.3456   1.1580   2.5871   0.4645   0.2761   1.1822   0.00    0.0
2188 444210.000   2248126.2811    865684.8423   5886423.8746   6   9   1.3444   1.1587   2.5800   0.4660   0.2776   1.1762   0.00    0.0
2188 444240.000   2248126.3476    865685.0353   5886424.1491   6   9   1.3432   1.1594   2.5730   0.4675   0.2790   1.1702   0.00    0.0
2188 444270.000   2248126.3676    865685.1151   5886424.4433   6   9   1.3419   1.1600   2.5659   0.4689   0.2803   1.1641   0.00    0.0
2188 444300.000   2248126.3646    865685.0606   5886424.5617   6  10   1.3167   1.1456   2.5514   0.4170   0.2057   1.1363   0.00    0.0
2188 444330.000   2248126.6659    865685.3871   5886424.4586   6  10   1.2691   1.1168   2.5309   0.2927  -0.1569   1.0892   0.00    0.0
2188 444360.000   2248126.7907    865684.9753   5886424.3272   6  10   1.2526   1.1071   2.5207   0.2389  -0.2097   1.0708   0.00    0.0
2188 444390.000   2248126.5151    865684.8507   5886424.3405   6  10   1.2440   1.1024   2.5130   0.2083  -0.2267   1.0598   0.00    0.0
2188 444420.000   2248126.5958    865684.8285   5886424.2380   6  10   1.2387   1.0996   2.5063   0.1888  -0.2325   1.0517   0.00    0.0
2188 444450.000   2248126.4702    865684.9893   5886424.2832   6  10   1.2351   1.0978   2.5001   0.1756  -0.2332   1.0450   0.00    0.0
2188 444480.000   2248126.3653    865685.1703   5886424.5238   6  10   1.2324   1.0966   2.4943   0.1666  -0.2309   1.0392   0.00    0.0
2188 444510.000   2248126.6785    865685.0957   5886424.0892   6  10   1.2303   1.0958   2.4886   0.1603  -0.2268   1.0340   0.00    0.0
2188 444540.000   2248126.9182    865685.0094   5886424.4832   6  10   1.2286   1.0952   2.4830   0.1559  -0.2214   1.0290   0.00    0.0
2188 444570.000   2248126.9575    865685.0709   5886424.3025   6  10   1.2272   1.0948   2.4776   0.1530  -0.2150   1.0243   0.00    0.0
2188 444600.000   2248126.9221    865685.2975   5886424.2233   6  10   1.2260   1.0945   2.4722   0.1512  -0.2077   1.0197   0.00    0.0
2188 444630.000   2248126.7002    865685.2767   5886424.0188   6  10   1.2249   1.0944   2.4668   0.1502  -0.1996   1.0152   0.00    0.0
2188 444660.000   2248126.4422    865685.0097   5886423.9461   6  10   1.2240   1.0943   2.4615   0.1498  -0.1908   1.0108   0.00    0.0
2188 444690.000   2248126.4510    865685.1889   5886423.8535   6  10   1.2232   1.0942   2.4562   0.1499  -0.1813   1.0065   0.00    0.0
2188 444720.000   2248126.6723    865685.1204   5886423.7055   6  10   1.2224   1.0943   2.4509   0.1503  -0.1711   1.0022   0.00    0.0
2188 444750.000   2248126.7919    865685.2126   5886424.0529   6  10   1.2218   1.0944   2.4457   0.1511  -0.1599   0.9979   0.00    0.0
2188 444780.000   2248126.8065    865685.0226   5886424.4965   6  10   1.2212   1.0945   2.4405   0.1520  -0.1477   0.9936   0.00    0.0
2188 444810.000   2248126.5261    865685.0575   5886423.9024   6  10   1.2206   1.0946   2.4353   0.1531  -0.1343   0.9894   0.00    0.0
2188 444840.000   2248126.7134    865685.2774   5886424.3269   6  10   1.2201   1.0948   2.4301   0.1543  -0.1192   0.9852   0.00    0.0
2188 444870.000   2248126.7978    865684.9477   5886424.3982   6  10   1.2197   1.0950   2.4249   0.1555  -0.1018   0.9810   0.00    0.0
