% program   : RTKLIB ver.demo5 b34j
% inp file  : E:\GAMPII-GOOD\dataset_Win\obs\2021\351\MGEX\daily\kir83510.21o
% inp file  : E:\Navigation_Learn\GNSS\RTKLIB-b34k\data\data_IGM-A1_Vehicle_open_20211217-nsh\brdm3510.21p
% inp file  : E:\Navigation_Learn\GNSS\RTKLIB-b34k\data\data_IGM-A1_Vehicle_open_20211217-nsh\wum21885.sp3
% inp file  : E:\Navigation_Learn\GNSS\RTKLIB-b34k\data\data_IGM-A1_Vehicle_open_20211217-nsh\wum21885.clk
% inp file  : E:\Navigation_Learn\GNSS\RTKLIB-b34k\data\data_IGM-A1_Vehicle_open_20211217-nsh\CAS0MGXRAP_20213510000_01D_01D_DCB.BSX
% obs start : 2021/12/17 00:00:00.0 GPST (week2188 432000.0s)
% obs end   : 2021/12/17 23:59:30.0 GPST (week2188 518370.0s)
% pos mode  : PPP Kinematic
% solution  : Forward
% elev mask : 7.0 deg
% dynamics  : off
% tidecorr  : off
% tropo opt : Estimate ZTD
% ephemeris : Precise
% navi sys  : GPS
% antenna1  : LEIAR25.R3      LEIT  ( 0.0000  0.0000  0.0030)
%
% (x/y/z-ecef=WGS84,Q=1:fix,2:float,3:sbas,4:dgps,5:single,6:ppp,ns=# of satellites)
%  GPST              x-ecef(m)      y-ecef(m)      z-ecef(m)   Q  ns   sdx(m)   sdy(m)   sdz(m)  sdxy(m)  sdyz(m)  sdzx(m) age(s)  ratio
2188 432000.000   2248125.4174    865685.6575   5886421.3123   6   7   1.7149   1.1235   5.2592   0.4180   0.7720   2.5164   0.00    0.0
2188 432030.000   2248126.5211    865685.9087   5886423.8143   6   8   1.1743   0.7943   3.4303   0.3128   0.5812   1.6509   0.00    0.0
2188 432060.000   2248126.9545    865685.9227   5886424.6154   6   8   0.8922   0.6465   2.3150   0.2524   0.4667   1.1229   0.00    0.0
2188 432090.000   2248126.9337    865685.7103   5886424.5405   6   7   0.7314   0.5610   1.6409   0.2174   0.3932   0.8091   0.00    0.0
2188 432120.000   2248126.8965    865685.6203   5886424.6683   6   7   0.6309   0.5029   1.2248   0.1949   0.3456   0.6173   0.00    0.0
2188 432150.000   2248126.8672    865685.7158   5886424.5926   6   7   0.5722   0.4609   1.0278   0.1714   0.2959   0.5324   0.00    0.0
2188 432180.000   2248126.8974    865685.6793   5886424.5949   6   8   0.5164   0.4265   0.7945   0.1691   0.2914   0.4242   0.00    0.0
2188 432210.000   2248126.8866    865685.6914   5886424.5767   6   8   0.4803   0.3993   0.6796   0.1607   0.2741   0.3743   0.00    0.0
2188 432240.000   2248126.9162    865685.7529   5886424.6358   6   8   0.4575   0.3779   0.6512   0.1467   0.2448   0.3658   0.00    0.0
2188 432270.000   2248126.8563    865685.7033   5886424.4702   6   8   0.4294   0.3575   0.5457   0.1496   0.2513   0.3183   0.00    0.0
2188 432300.000   2248126.8583    865685.6737   5886424.4729   6   8   0.4100   0.3407   0.5013   0.1445   0.2412   0.3000   0.00    0.0
2188 432330.000   2248126.8568    865685.6774   5886424.5067   6   7   0.3980   0.3271   0.5143   0.1342   0.2194   0.3078   0.00    0.0
2188 432360.000   2248126.8759    865685.6795   5886424.5297   6   9   0.3797   0.3128   0.4463   0.1372   0.2270   0.2781   0.00    0.0
2188 432390.000   2248126.9324    865685.6866   5886424.5532   6   9   0.3670   0.3006   0.4229   0.1332   0.2192   0.2687   0.00    0.0
2188 432420.000   2248126.9432    865685.6761   5886424.5789   6   8   0.3557   0.2894   0.4056   0.1292   0.2116   0.2612   0.00    0.0
2188 432450.000   2248126.9165    865685.6684   5886424.6265   6   9   0.3456   0.2789   0.3886   0.1254   0.2060   0.2548   0.00    0.0
2188 432480.000   2248126.9642    865685.6461   5886424.6375   6   9   0.3361   0.2687   0.3743   0.1208   0.1992   0.2488   0.00    0.0
2188 432510.000   2248126.9787    865685.6040   5886424.6853   6   8   0.3274   0.2595   0.3630   0.1165   0.1913   0.2430   0.00    0.0
2188 432540.000   2248126.9868    865685.6145   5886424.7170   6   9   0.3195   0.2504   0.3495   0.1125   0.1870   0.2382   0.00    0.0
2188 432570.000   2248127.0121    865685.6253   5886424.7785   6   8   0.3118   0.2420   0.3395   0.1076   0.1786   0.2324   0.00    0.0
2188 432600.000   2248127.0228    865685.6126   5886424.8208   6   9   0.3048   0.2334   0.3269   0.1031   0.1749   0.2281   0.00    0.0
2188 432630.000   2248127.0497    865685.6204   5886424.8595   6   9   0.2975   0.2245   0.3157   0.0971   0.1687   0.2225   0.00    0.0
2188 432660.000   2248127.0688    865685.6018   5886424.8689   6   8   0.2908   0.2172   0.3067   0.0922   0.1603   0.2163   0.00    0.0
2188 432690.000   2248127.0654    865685.6286   5886424.9045   6   8   0.2873   0.2112   0.3220   0.0877   0.1519   0.2221   0.00    0.0
2188 432720.000   2248127.0713    865685.6550   5886424.8995   6   8   0.2796   0.2053   0.2994   0.0839   0.1456   0.2102   0.00    0.0
2188 432750.000   2248127.1018    865685.6443   5886424.8683   6  10   0.2697   0.1968   0.2644   0.0758   0.1428   0.1936   0.00    0.0
2188 432780.000   2248127.1146    865685.6436   5886424.8637   6   9   0.2612   0.1902   0.2451   0.0687   0.1332   0.1798   0.00    0.0
2188 432810.000   2248127.1007    865685.6477   5886424.8651   6   9   0.2543   0.1837   0.2317   0.0633   0.1320   0.1732   0.00    0.0
2188 432840.000   2248127.0878    865685.6423   5886424.8455   6   8   0.2453   0.1793   0.2227   0.0551   0.1183   0.1592   0.00    0.0
2188 432870.000   2248127.0688    865685.6626   5886424.8182   6  10   0.2349   0.1720   0.1928   0.0415   0.1145   0.1428   0.00    0.0
2188 432900.000   2248127.0290    865685.6587   5886424.7657   6   9   0.2274   0.1663   0.1767   0.0330   0.1070   0.1293   0.00    0.0
2188 432930.000   2248127.0318    865685.6636   5886424.7432   6  10   0.2194   0.1599   0.1643   0.0124   0.1047   0.1212   0.00    0.0
2188 432960.000   2248127.0239    865685.6477   5886424.7080   6   9   0.2131   0.1548   0.1523  -0.0172   0.0980   0.1099   0.00    0.0
2188 432990.000   2248127.0081    865685.6480   5886424.6713   6   8   0.2099   0.1511   0.1638  -0.0180   0.0955   0.1130   0.00    0.0
2188 433020.000   2248127.0258    865685.6410   5886424.6769   6  10   0.2015   0.1460   0.1370  -0.0324   0.0933   0.0992   0.00    0.0
2188 433050.000   2248127.0150    865685.6505   5886424.6628   6   9   0.1965   0.1414   0.1286  -0.0371   0.0877   0.0900   0.00    0.0
2188 433080.000   2248127.0370    865685.6573   5886424.6569   6  10   0.1906   0.1368   0.1228  -0.0432   0.0867   0.0871   0.00    0.0
2188 433110.000   2248127.0514    865685.6589   5886424.6813   6   9   0.1863   0.1326   0.1165  -0.0457   0.0817   0.0791   0.00    0.0
2188 433140.000   2248127.0762    865685.6748   5886424.6729   6  10   0.1812   0.1287   0.1121  -0.0491   0.0809   0.0776   0.00    0.0
2188 433170.000   2248127.0643    865685.6829   5886424.6587   6   8   0.1775   0.1250   0.1098  -0.0505   0.0770   0.0718   0.00    0.0
2188 433200.000   2248127.0564    865685.6975   5886424.6538   6   9   0.1746   0.1224   0.1042  -0.0492   0.0749   0.0682   0.00    0.0
2188 433230.000   2248127.0480    865685.6998   5886424.6800   6   7   0.2136   0.1203   0.3706  -0.0307   0.0964   0.2227   0.00    0.0
2188 433260.000   2248127.0426    865685.7132   5886424.6503   6   9   0.1700   0.1180   0.0989  -0.0481   0.0720   0.0650   0.00    0.0
2188 433290.000   2248127.0468    865685.7138   5886424.6585   6  10   0.1648   0.1145   0.0962  -0.0511   0.0715   0.0649   0.00    0.0
2188 433320.000   2248127.0378    865685.7144   5886424.6645   6  10   0.1594   0.1107   0.0923  -0.0551   0.0683   0.0595   0.00    0.0
2188 433350.000   2248127.0356    865685.7099   5886424.6561   6  10   0.1548   0.1072   0.0891  -0.0577   0.0656   0.0551   0.00    0.0
2188 433380.000   2248127.0407    865685.6995   5886424.6346   6   9   0.1520   0.1043   0.0869  -0.0582   0.0626   0.0493   0.00    0.0
2188 433410.000   2248127.0539    865685.6959   5886424.6371   6   9   0.1500   0.1023   0.0852  -0.0570   0.0617   0.0489   0.00    0.0
2188 433440.000   2248127.0533    865685.6988   5886424.6458   6   9   0.1499   0.1001   0.0958  -0.0565   0.0620   0.0639   0.00    0.0
2188 433470.000   2248126.9544    865685.6939   5886424.4120   6   7   0.2087   0.1000   0.3934  -0.0209   0.1012   0.2444   0.00    0.0
2188 433500.000   2248127.0344    865685.6984   5886424.6381   6  10   0.1424   0.0972   0.0798  -0.0563   0.0587   0.0463   0.00    0.0
2188 433530.000   2248126.9944    865685.6950   5886424.5333   6   7   0.2009   0.0963   0.3722  -0.0297   0.0965   0.2323   0.00    0.0
2188 433560.000   2248126.9744    865685.6937   5886424.5076   6   6   0.2067   0.0961   0.3927  -0.0132   0.1043   0.2459   0.00    0.0
2188 433590.000   2248127.0254    865685.7064   5886424.6343   6   8   0.1394   0.0929   0.0897  -0.0569   0.0566   0.0551   0.00    0.0
2188 433620.000   2248127.0163    865685.7189   5886424.6377   6   8   0.1354   0.0918   0.0790  -0.0562   0.0556   0.0375   0.00    0.0
2188 433650.000   2248126.9572    865685.7256   5886424.5011   6   7   0.1971   0.0921   0.3644  -0.0201   0.0981   0.2297   0.00    0.0
2188 433680.000   2248126.9559    865685.7215   5886424.5274   6   7   0.1938   0.0914   0.3551  -0.0190   0.0978   0.2240   0.00    0.0
2188 433710.000   2248126.9272    865685.7150   5886424.4610   6   7   0.1912   0.0908   0.3477  -0.0172   0.0978   0.2195   0.00    0.0
2188 433740.000   2248126.9854    865685.7223   5886424.6206   6   8   0.1325   0.0878   0.0926  -0.0545   0.0536   0.0482   0.00    0.0
2188 433770.000   2248126.9921    865685.7195   5886424.6292   6   9   0.1289   0.0867   0.0725  -0.0543   0.0520   0.0293   0.00    0.0
2188 433800.000   2248126.9851    865685.7188   5886424.6132   6   9   0.1297   0.0849   0.0908  -0.0544   0.0523   0.0466   0.00    0.0
2188 433830.000   2248126.9640    865685.7174   5886424.5752   6   7   0.1811   0.0864   0.3187  -0.0167   0.0947   0.2027   0.00    0.0
2188 433860.000   2248126.9740    865685.7190   5886424.6159   6   8   0.1253   0.0833   0.0733  -0.0535   0.0515   0.0288   0.00    0.0
2188 433890.000   2248126.9757    865685.7278   5886424.6303   6  10   0.1241   0.0821   0.0695  -0.0533   0.0503   0.0269   0.00    0.0
2188 433920.000   2248126.9788    865685.7295   5886424.6250   6   9   0.1226   0.0804   0.0701  -0.0537   0.0501   0.0256   0.00    0.0
2188 433950.000   2248126.9805    865685.7323   5886424.6211   6   9   0.1233   0.0790   0.0802  -0.0543   0.0483   0.0398   0.00    0.0
2188 433980.000   2248126.9319    865685.7227   5886424.5104   6   7   0.1682   0.0811   0.2856  -0.0193   0.0911   0.1821   0.00    0.0
2188 434010.000   2248126.9352    865685.7224   5886424.5457   6   7   0.1659   0.0807   0.2799  -0.0175   0.0912   0.1784   0.00    0.0
2188 434040.000   2248126.9136    865685.7186   5886424.5286   6   7   0.1637   0.0803   0.2743  -0.0156   0.0913   0.1748   0.00    0.0
2188 434070.000   2248126.9766    865685.7216   5886424.6759   6   7   0.1616   0.0799   0.2689  -0.0135   0.0913   0.1713   0.00    0.0
2188 434100.000   2248126.9703    865685.7211   5886424.6528   6   8   0.1594   0.0795   0.2637  -0.0113   0.0913   0.1679   0.00    0.0
2188 434130.000   2248126.9615    865685.7295   5886424.6507   6   8   0.1573   0.0792   0.2586  -0.0086   0.0913   0.1645   0.00    0.0
2188 434160.000   2248126.9938    865685.7420   5886424.7213   6   7   0.1553   0.0788   0.2536  -0.0048   0.0913   0.1613   0.00    0.0
2188 434190.000   2248126.9684    865685.7468   5886424.6471   6   9   0.1320   0.0772   0.1722  -0.0320   0.0768   0.1049   0.00    0.0
2188 434220.000   2248126.9501    865685.7446   5886424.6418   6   8   0.1287   0.0764   0.1612  -0.0345   0.0734   0.0973   0.00    0.0
2188 434250.000   2248126.9478    865685.7402   5886424.6470   6   8   0.1254   0.0765   0.1507  -0.0316   0.0756   0.0893   0.00    0.0
2188 434280.000   2248126.9341    865685.7367   5886424.6068   6   8   0.1229   0.0760   0.1433  -0.0318   0.0747   0.0838   0.00    0.0
2188 434310.000   2248126.9334    865685.7356   5886424.6083   6   7   0.1457   0.0770   0.2317   0.0140   0.0907   0.1466   0.00    0.0
2188 434340.000   2248126.8910    865685.7195   5886424.5481   6   7   0.1439   0.0766   0.2278   0.0153   0.0905   0.1440   0.00    0.0
2188 434370.000   2248126.9220    865685.7380   5886424.6310   6   8   0.1211   0.0739   0.1410  -0.0333   0.0701   0.0839   0.00    0.0
2188 434400.000   2248126.9122    865685.7414   5886424.6255   6   9   0.1171   0.0732   0.1302  -0.0313   0.0708   0.0746   0.00    0.0
2188 434430.000   2248126.9063    865685.7451   5886424.6416   6   8   0.1176   0.0729   0.1330  -0.0332   0.0684   0.0780   0.00    0.0
2188 434460.000   2248126.9421    865685.7525   5886424.7123   6   7   0.1447   0.0759   0.2325   0.0301   0.0951   0.1493   0.00    0.0
2188 434490.000   2248126.8983    865685.7384   5886424.6143   6   8   0.1139   0.0727   0.1262  -0.0290   0.0715   0.0710   0.00    0.0
2188 434520.000   2248126.8984    865685.7340   5886424.6377   6   8   0.1365   0.0742   0.2104   0.0209   0.0887   0.1337   0.00    0.0
2188 434550.000   2248126.9029    865685.7350   5886424.6305   6   9   0.1118   0.0720   0.1233  -0.0287   0.0708   0.0684   0.00    0.0
2188 434580.000   2248126.9304    865685.7465   5886424.6725   6   8   0.1295   0.0730   0.1932   0.0110   0.0841   0.1208   0.00    0.0
2188 434610.000   2248126.9206    865685.7376   5886424.6084   6   9   0.1098   0.0714   0.1209  -0.0284   0.0703   0.0662   0.00    0.0
2188 434640.000   2248126.9520    865685.7376   5886424.6919   6   7   0.1425   0.0776   0.2751   0.0442   0.1122   0.1635   0.00    0.0
2188 434670.000   2248126.9476    865685.7357   5886424.6763   6   7   0.1345   0.0744   0.2381   0.0321   0.0983   0.1430   0.00    0.0
2188 434700.000   2248126.9436    865685.7392   5886424.6428   6   9   0.1071   0.0694   0.1192  -0.0284   0.0684   0.0623   0.00    0.0
2188 434730.000   2248126.9559    865685.7401   5886424.6544   6   8   0.1085   0.0690   0.1279  -0.0307   0.0659   0.0699   0.00    0.0
2188 434760.000   2248126.9476    865685.7458   5886424.6430   6   8   0.1078   0.0686   0.1271  -0.0306   0.0652   0.0694   0.00    0.0
2188 434790.000   2248126.9456    865685.7539   5886424.6407   6   8   0.1071   0.0681   0.1266  -0.0304   0.0647   0.0690   0.00    0.0
2188 434820.000   2248126.9508    865685.7612   5886424.6540   6   8   0.1064   0.0677   0.1261  -0.0301   0.0643   0.0686   0.00    0.0
2188 434850.000   2248126.9615    865685.7580   5886424.6603   6   9   0.1026   0.0671   0.1170  -0.0271   0.0659   0.0590   0.00    0.0
2188 434880.000   2248126.9521    865685.7510   5886424.6697   6   8   0.1045   0.0670   0.1246  -0.0295   0.0634   0.0669   0.00    0.0
2188 434910.000   2248126.9581    865685.7551   5886424.6889   6   8   0.1039   0.0666   0.1244  -0.0291   0.0630   0.0668   0.00    0.0
2188 434940.000   2248126.9664    865685.7564   5886424.6749   6   8   0.1000   0.0677   0.1177  -0.0257   0.0669   0.0578   0.00    0.0
2188 434970.000   2248126.9591    865685.7522   5886424.6888   6   8   0.1026   0.0660   0.1243  -0.0280   0.0625   0.0668   0.00    0.0
2188 435000.000   2248126.9520    865685.7584   5886424.6698   6   8   0.1021   0.0656   0.1242  -0.0275   0.0622   0.0668   0.00    0.0
2188 435030.000   2248126.9497    865685.7643   5886424.6547   6   8   0.1015   0.0653   0.1241  -0.0270   0.0619   0.0668   0.00    0.0
2188 435060.000   2248126.9475    865685.7627   5886424.6522   6   9   0.0969   0.0647   0.1159  -0.0232   0.0636   0.0567   0.00    0.0
2188 435090.000   2248126.9481    865685.7683   5886424.6593   6   9   0.0959   0.0644   0.1159  -0.0227   0.0634   0.0565   0.00    0.0
2188 435120.000   2248126.9502    865685.7788   5886424.6602   6   9   0.0949   0.0640   0.1160  -0.0223   0.0631   0.0563   0.00    0.0
2188 435150.000   2248126.9467    865685.7767   5886424.6726   6   8   0.0972   0.0640   0.1235  -0.0248   0.0608   0.0648   0.00    0.0
2188 435180.000   2248126.9403    865685.7739   5886424.6822   6   8   0.0968   0.0636   0.1237  -0.0241   0.0605   0.0651   0.00    0.0
2188 435210.000   2248126.9461    865685.7775   5886424.6940   6   8   0.0963   0.0634   0.1240  -0.0233   0.0603   0.0653   0.00    0.0
2188 435240.000   2248126.9372    865685.7792   5886424.7054   6   7   0.1052   0.0674   0.1688   0.0229   0.0796   0.0962   0.00    0.0
2188 435270.000   2248126.9264    865685.7831   5886424.6849   6   8   0.0954   0.0628   0.1247  -0.0216   0.0600   0.0659   0.00    0.0
2188 435300.000   2248126.9131    865685.7858   5886424.6847   6   8   0.0950   0.0625   0.1251  -0.0208   0.0598   0.0662   0.00    0.0
2188 435330.000   2248126.9163    865685.7842   5886424.7160   6   8   0.0946   0.0622   0.1255  -0.0199   0.0596   0.0666   0.00    0.0
2188 435360.000   2248126.9190    865685.7835   5886424.7114   6   9   0.0941   0.0619   0.1260  -0.0188   0.0594   0.0670   0.00    0.0
2188 435390.000   2248126.9237    865685.7892   5886424.7230   6   9   0.0930   0.0615   0.1232  -0.0162   0.0603   0.0647   0.00    0.0
2188 435420.000   2248126.9178    865685.7902   5886424.7450   6   8   0.0933   0.0613   0.1271  -0.0166   0.0591   0.0678   0.00    0.0
2188 435450.000   2248126.9036    865685.7924   5886424.7267   6   8   0.0930   0.0611   0.1277  -0.0153   0.0590   0.0682   0.00    0.0
2188 435480.000   2248126.9070    865685.7892   5886424.7564   6   8   0.0913   0.0609   0.1282  -0.0103   0.0586   0.0639   0.00    0.0
2188 435510.000   2248126.8901    865685.8002   5886424.7442   6   8   0.0923   0.0618   0.1350  -0.0105   0.0567   0.0691   0.00    0.0
2188 435540.000   2248126.8947    865685.8076   5886424.7354   6   7   0.0920   0.0612   0.1356  -0.0099   0.0566   0.0695   0.00    0.0
2188 435570.000   2248126.9063    865685.8203   5886424.7620   6   7   0.0916   0.0609   0.1362  -0.0083   0.0565   0.0699   0.00    0.0
2188 435600.000   2248126.8949    865685.8271   5886424.7491   6   7   0.0913   0.0606   0.1369  -0.0057   0.0564   0.0703   0.00    0.0
2188 435630.000   2248126.8942    865685.8300   5886424.7507   6   7   0.0910   0.0604   0.1377   0.0019   0.0563   0.0707   0.00    0.0
2188 435660.000   2248126.8945    865685.8336   5886424.7665   6   7   0.0907   0.0601   0.1384   0.0065   0.0562   0.0711   0.00    0.0
2188 435690.000   2248126.8968    865685.8363   5886424.7817   6   7   0.0904   0.0599   0.1393   0.0089   0.0561   0.0715   0.00    0.0
2188 435720.000   2248126.8939    865685.8354   5886424.7905   6   7   0.0901   0.0598   0.1401   0.0108   0.0560   0.0719   0.00    0.0
2188 435750.000   2248126.8958    865685.8371   5886424.8037   6   7   0.0898   0.0596   0.1410   0.0123   0.0559   0.0723   0.00    0.0
2188 435780.000   2248126.8938    865685.8427   5886424.8045   6   7   0.0895   0.0594   0.1420   0.0137   0.0558   0.0727   0.00    0.0
2188 435810.000   2248126.8872    865685.8507   5886424.7761   6   8   0.0892   0.0593   0.1430   0.0149   0.0557   0.0731   0.00    0.0
2188 435840.000   2248126.8843    865685.8522   5886424.7761   6   8   0.0882   0.0589   0.1390   0.0175   0.0572   0.0704   0.00    0.0
2188 435870.000   2248126.8842    865685.8506   5886424.7581   6   7   0.0886   0.0590   0.1451   0.0171   0.0556   0.0738   0.00    0.0
2188 435900.000   2248126.8785    865685.8523   5886424.7629   6   7   0.0883   0.0588   0.1463   0.0180   0.0556   0.0742   0.00    0.0
2188 435930.000   2248126.8859    865685.8459   5886424.7781   6   7   0.0880   0.0587   0.1475   0.0188   0.0555   0.0745   0.00    0.0
2188 435960.000   2248126.8861    865685.8408   5886424.8208   6   7   0.0877   0.0586   0.1487   0.0197   0.0554   0.0749   0.00    0.0
2188 435990.000   2248126.8834    865685.8492   5886424.8143   6   7   0.0873   0.0585   0.1500   0.0204   0.0554   0.0752   0.00    0.0
2188 436020.000   2248126.8742    865685.8419   5886424.8128   6   8   0.0874   0.0589   0.1518   0.0225   0.0561   0.0761   0.00    0.0
2188 436050.000   2248126.8834    865685.8354   5886424.8264   6   7   0.0870   0.0585   0.1532   0.0227   0.0558   0.0763   0.00    0.0
2188 436080.000   2248126.8781    865685.8375   5886424.8116   6   7   0.0866   0.0584   0.1546   0.0231   0.0556   0.0766   0.00    0.0
2188 436110.000   2248126.8807    865685.8443   5886424.8111   6   7   0.0863   0.0583   0.1562   0.0236   0.0555   0.0769   0.00    0.0
2188 436140.000   2248126.8737    865685.8412   5886424.7697   6   7   0.0859   0.0582   0.1578   0.0241   0.0555   0.0772   0.00    0.0
2188 436170.000   2248126.8712    865685.8415   5886424.7983   6   7   0.0856   0.0581   0.1595   0.0245   0.0554   0.0775   0.00    0.0
2188 436200.000   2248126.8765    865685.8532   5886424.7744   6   8   0.0853   0.0580   0.1613   0.0249   0.0552   0.0778   0.00    0.0
2188 436230.000   2248126.8635    865685.8588   5886424.7404   6   7   0.0849   0.0579   0.1631   0.0253   0.0551   0.0781   0.00    0.0
2188 436260.000   2248126.8635    865685.8579   5886424.7579   6   7   0.0846   0.0578   0.1650   0.0257   0.0550   0.0783   0.00    0.0
2188 436290.000   2248126.8670    865685.8611   5886424.7763   6   7   0.0842   0.0578   0.1670   0.0260   0.0548   0.0785   0.00    0.0
2188 436320.000   2248126.8692    865685.8638   5886424.7829   6   7   0.0838   0.0577   0.1690   0.0263   0.0547   0.0787   0.00    0.0
2188 436350.000   2248126.8570    865685.8870   5886424.5877   6   6   0.0834   0.0746   0.3225   0.0254  -0.0998   0.0810   0.00    0.0
2188 436380.000   2248126.8712    865685.8674   5886424.7476   6   6   0.0833   0.0736   0.3187   0.0265  -0.0966   0.0797   0.00    0.0
2188 436410.000   2248126.8794    865685.8759   5886424.7252   6   7   0.0832   0.0727   0.3149   0.0274  -0.0934   0.0784   0.00    0.0
2188 436440.000   2248126.8795    865685.8899   5886424.6765   6   7   0.0830   0.0653   0.2508   0.0304  -0.0510   0.0719   0.00    0.0
2188 436470.000   2248126.8848    865685.8949   5886424.6673   6   7   0.0829   0.0625   0.2249   0.0315  -0.0230   0.0693   0.00    0.0
2188 436500.000   2248126.8795    865685.9196   5886424.6798   6   7   0.0870   0.0757   0.2485   0.0472   0.0802   0.0901   0.00    0.0
2188 436530.000   2248126.8743    865685.8991   5886424.6116   6   8   0.0828   0.0603   0.2017   0.0328   0.0340   0.0668   0.00    0.0
2188 436560.000   2248126.8656    865685.8996   5886424.5972   6   8   0.0827   0.0596   0.1935   0.0331   0.0396   0.0655   0.00    0.0
2188 436590.000   2248126.8676    865685.8912   5886424.5934   6   8   0.0825   0.0593   0.1878   0.0331   0.0428   0.0648   0.00    0.0
2188 436620.000   2248126.8687    865685.8837   5886424.5957   6   7   0.0829   0.0591   0.1827   0.0335   0.0455   0.0641   0.00    0.0
2188 436650.000   2248126.8690    865685.8839   5886424.6090   6   8   0.0813   0.0590   0.1772   0.0338   0.0476   0.0601   0.00    0.0
2188 436680.000   2248126.8853    865685.8794   5886424.6574   6   7   0.0826   0.0590   0.1755   0.0341   0.0494   0.0623   0.00    0.0
2188 436710.000   2248126.8815    865685.8725   5886424.6666   6   7   0.0825   0.0589   0.1728   0.0344   0.0508   0.0615   0.00    0.0
2188 436740.000   2248126.8712    865685.8767   5886424.6584   6   7   0.0824   0.0589   0.1704   0.0347   0.0521   0.0606   0.00    0.0
2188 436770.000   2248126.8625    865685.8680   5886424.6623   6   6   0.0825   0.0589   0.1701   0.0352   0.0538   0.0611   0.00    0.0
2188 436800.000   2248126.8627    865685.8642   5886424.6689   6   7   0.0824   0.0589   0.1683   0.0353   0.0545   0.0602   0.00    0.0
2188 436830.000   2248126.8675    865685.8656   5886424.6768   6   6   0.0822   0.0589   0.1668   0.0355   0.0551   0.0593   0.00    0.0
2188 436860.000   2248126.8713    865685.8636   5886424.6532   6   7   0.0820   0.0589   0.1653   0.0356   0.0556   0.0583   0.00    0.0
2188 436890.000   2248126.8675    865685.8668   5886424.6242   6   6   0.0819   0.0589   0.1640   0.0358   0.0561   0.0574   0.00    0.0
2188 436920.000   2248126.8749    865685.8664   5886424.6210   6   6   0.0817   0.0589   0.1627   0.0359   0.0565   0.0564   0.00    0.0
2188 436950.000   2248126.8665    865685.8671   5886424.6205   6   7   0.0815   0.0589   0.1616   0.0360   0.0569   0.0554   0.00    0.0
2188 436980.000   2248126.8649    865685.8684   5886424.6135   6   7   0.0811   0.0589   0.1598   0.0361   0.0572   0.0536   0.00    0.0
2188 437010.000   2248126.8603    865685.8647   5886424.6157   6   7   0.0808   0.0589   0.1585   0.0361   0.0575   0.0524   0.00    0.0
2188 437040.000   2248126.8668    865685.8693   5886424.6276   6   8   0.0806   0.0589   0.1575   0.0362   0.0577   0.0511   0.00    0.0
2188 437070.000   2248126.8679    865685.8688   5886424.6382   6   7   0.0803   0.0588   0.1565   0.0362   0.0578   0.0499   0.00    0.0
2188 437100.000   2248126.8611    865685.8661   5886424.6272   6   7   0.0800   0.0588   0.1556   0.0361   0.0580   0.0487   0.00    0.0
2188 437130.000   2248126.8591    865685.8615   5886424.6173   6   7   0.0798   0.0587   0.1547   0.0361   0.0580   0.0475   0.00    0.0
2188 437160.000   2248126.8463    865685.8584   5886424.5941   6   7   0.0795   0.0587   0.1539   0.0360   0.0580   0.0463   0.00    0.0
2188 437190.000   2248126.8443    865685.8462   5886424.6125   6   7   0.0792   0.0586   0.1531   0.0360   0.0580   0.0450   0.00    0.0
2188 437220.000   2248126.8530    865685.8494   5886424.6360   6   7   0.0789   0.0586   0.1524   0.0359   0.0580   0.0437   0.00    0.0
2188 437250.000   2248126.8566    865685.8528   5886424.6464   6   7   0.0786   0.0585   0.1516   0.0358   0.0579   0.0423   0.00    0.0
2188 437280.000   2248126.8467    865685.8514   5886424.6099   6   7   0.0783   0.0584   0.1510   0.0356   0.0579   0.0409   0.00    0.0
2188 437310.000   2248126.8431    865685.8569   5886424.6036   6   8   0.0780   0.0583   0.1503   0.0355   0.0577   0.0395   0.00    0.0
2188 437340.000   2248126.8490    865685.8619   5886424.6110   6   7   0.0776   0.0582   0.1496   0.0353   0.0576   0.0380   0.00    0.0
2188 437370.000   2248126.8556    865685.8620   5886424.6110   6   7   0.0773   0.0581   0.1490   0.0352   0.0575   0.0365   0.00    0.0
2188 437400.000   2248126.8551    865685.8596   5886424.6065   6   7   0.0770   0.0580   0.1484   0.0350   0.0573   0.0348   0.00    0.0
2188 437430.000   2248126.8590    865685.8570   5886424.6244   6   8   0.0751   0.0578   0.1468   0.0339   0.0565   0.0290   0.00    0.0
2188 437460.000   2248126.8572    865685.8597   5886424.6205   6   7   0.0762   0.0578   0.1471   0.0346   0.0568   0.0316   0.00    0.0
2188 437490.000   2248126.8575    865685.8592   5886424.6192   6   7   0.0759   0.0577   0.1465   0.0345   0.0566   0.0298   0.00    0.0
2188 437520.000   2248126.8552    865685.8556   5886424.6068   6   8   0.0733   0.0574   0.1449   0.0330   0.0557   0.0215   0.00    0.0
2188 437550.000   2248126.8521    865685.8572   5886424.6012   6   7   0.0751   0.0574   0.1452   0.0341   0.0560   0.0262   0.00    0.0
2188 437580.000   2248126.8464    865685.8489   5886424.5860   6   8   0.0722   0.0571   0.1436   0.0324   0.0549   0.0156   0.00    0.0
2188 437610.000   2248126.8503    865685.8480   5886424.6042   6   7   0.0743   0.0571   0.1438   0.0337   0.0554   0.0225   0.00    0.0
2188 437640.000   2248126.8486    865685.8501   5886424.6177   6   7   0.0739   0.0570   0.1433   0.0335   0.0551   0.0201   0.00    0.0
2188 437670.000   2248126.8445    865685.8454   5886424.5944   6   8   0.0705   0.0566   0.1420   0.0316   0.0541  -0.0028   0.00    0.0
2188 437700.000   2248126.8477    865685.8470   5886424.5743   6   7   0.0748   0.0567   0.1424   0.0336   0.0546   0.0224   0.00    0.0
2188 437730.000   2248126.8475    865685.8432   5886424.5739   6   7   0.0738   0.0566   0.1415   0.0328   0.0539   0.0170   0.00    0.0
2188 437760.000   2248126.8475    865685.8464   5886424.5862   6   7   0.0732   0.0565   0.1408   0.0323   0.0535   0.0123   0.00    0.0
2188 437790.000   2248126.8403    865685.8458   5886424.5562   6   7   0.0727   0.0564   0.1403   0.0319   0.0532   0.0059   0.00    0.0
2188 437820.000   2248126.8387    865685.8450   5886424.5557   6   7   0.0722   0.0563   0.1397   0.0315   0.0528  -0.0084   0.00    0.0
2188 437850.000   2248126.8402    865685.8478   5886424.5498   6   8   0.0718   0.0562   0.1392   0.0312   0.0525  -0.0130   0.00    0.0
2188 437880.000   2248126.8402    865685.8406   5886424.5363   6   8   0.0702   0.0558   0.1372   0.0295   0.0511  -0.0231   0.00    0.0
2188 437910.000   2248126.8366    865685.8373   5886424.5024   6   7   0.0710   0.0560   0.1381   0.0304   0.0519  -0.0188   0.00    0.0
2188 437940.000   2248126.8397    865685.8359   5886424.4959   6   8   0.0688   0.0556   0.1361   0.0284   0.0503  -0.0278   0.00    0.0
2188 437970.000   2248126.8302    865685.8296   5886424.4899   6   8   0.0681   0.0554   0.1354   0.0278   0.0498  -0.0297   0.00    0.0
2188 438000.000   2248126.8265    865685.8209   5886424.4618   6   7   0.0698   0.0557   0.1364   0.0295   0.0508  -0.0243   0.00    0.0
2188 438030.000   2248126.8226    865685.8121   5886424.4469   6   7   0.0694   0.0557   0.1359   0.0292   0.0505  -0.0258   0.00    0.0
2188 438060.000   2248126.8293    865685.8155   5886424.4669   6   7   0.0690   0.0555   0.1353   0.0289   0.0502  -0.0271   0.00    0.0
2188 438090.000   2248126.8271    865685.8161   5886424.4649   6   7   0.0687   0.0555   0.1348   0.0286   0.0499  -0.0283   0.00    0.0
2188 438120.000   2248126.8210    865685.8154   5886424.4646   6   7   0.0683   0.0554   0.1342   0.0283   0.0496  -0.0295   0.00    0.0
2188 438150.000   2248126.8245    865685.8182   5886424.4674   6   7   0.0679   0.0553   0.1337   0.0281   0.0493  -0.0305   0.00    0.0
2188 438180.000   2248126.8207    865685.8157   5886424.4492   6   7   0.0675   0.0552   0.1331   0.0278   0.0490  -0.0314   0.00    0.0
2188 438210.000   2248126.8184    865685.8162   5886424.4552   6   8   0.0671   0.0551   0.1325   0.0276   0.0487  -0.0322   0.00    0.0
2188 438240.000   2248126.8274    865685.8257   5886424.4472   6   8   0.0655   0.0546   0.1305   0.0259   0.0471  -0.0364   0.00    0.0
2188 438270.000   2248126.8341    865685.8205   5886424.4541   6   7   0.0663   0.0549   0.1313   0.0271   0.0480  -0.0336   0.00    0.0
2188 438300.000   2248126.8215    865685.8103   5886424.4308   6   7   0.0659   0.0548   0.1307   0.0269   0.0477  -0.0342   0.00    0.0
2188 438330.000   2248126.8417    865685.8187   5886424.4613   6   8   0.0636   0.0544   0.1290   0.0247   0.0462  -0.0384   0.00    0.0
2188 438360.000   2248126.8370    865685.8148   5886424.4594   6   8   0.0629   0.0542   0.1280   0.0243   0.0457  -0.0391   0.00    0.0
2188 438390.000   2248126.8390    865685.8147   5886424.4615   6   8   0.0623   0.0540   0.1271   0.0240   0.0452  -0.0395   0.00    0.0
2188 438420.000   2248126.8436    865685.8169   5886424.4690   6   8   0.0617   0.0539   0.1263   0.0237   0.0448  -0.0396   0.00    0.0
2188 438450.000   2248126.8466    865685.8153   5886424.4510   6   8   0.0638   0.0542   0.1267   0.0262   0.0458  -0.0355   0.00    0.0
2188 438480.000   2248126.8414    865685.8203   5886424.4621   6   7   0.0634   0.0541   0.1260   0.0260   0.0455  -0.0357   0.00    0.0
2188 438510.000   2248126.8361    865685.8152   5886424.4687   6   9   0.0600   0.0530   0.1210   0.0230   0.0413  -0.0399   0.00    0.0
2188 438540.000   2248126.8320    865685.8155   5886424.4552   6   8   0.0596   0.0526   0.1187   0.0227   0.0398  -0.0395   0.00    0.0
2188 438570.000   2248126.8382    865685.8178   5886424.4709   6   8   0.0589   0.0524   0.1167   0.0226   0.0387  -0.0391   0.00    0.0
2188 438600.000   2248126.8290    865685.8175   5886424.4927   6   8   0.0583   0.0522   0.1149   0.0226   0.0378  -0.0385   0.00    0.0
2188 438630.000   2248126.8384    865685.8227   5886424.5043   6   7   0.0601   0.0521   0.1133   0.0230   0.0369  -0.0394   0.00    0.0
2188 438660.000   2248126.8387    865685.8166   5886424.5064   6   6   0.0608   0.0536   0.1198   0.0259   0.0432  -0.0329   0.00    0.0
2188 438690.000   2248126.8199    865685.8097   5886424.4811   6   6   0.0604   0.0535   0.1192   0.0257   0.0430  -0.0331   0.00    0.0
2188 438720.000   2248126.8173    865685.8098   5886424.4995   6   6   0.0600   0.0535   0.1186   0.0256   0.0428  -0.0332   0.00    0.0
2188 438750.000   2248126.8253    865685.8114   5886424.4965   6   7   0.0586   0.0519   0.1098   0.0228   0.0357  -0.0393   0.00    0.0
2188 438780.000   2248126.8347    865685.8162   5886424.4967   6   7   0.0583   0.0518   0.1087   0.0226   0.0352  -0.0394   0.00    0.0
2188 438810.000   2248126.8385    865685.8205   5886424.5049   6   7   0.0587   0.0533   0.1167   0.0252   0.0423  -0.0333   0.00    0.0
2188 438840.000   2248126.8345    865685.8124   5886424.5180   6   6   0.0582   0.0533   0.1161   0.0251   0.0422  -0.0333   0.00    0.0
2188 438870.000   2248126.8431    865685.8107   5886424.5150   6   8   0.0563   0.0516   0.1061   0.0222   0.0345  -0.0390   0.00    0.0
2188 438900.000   2248126.8415    865685.8111   5886424.5113   6   8   0.0555   0.0514   0.1052   0.0221   0.0342  -0.0387   0.00    0.0
2188 438930.000   2248126.8432    865685.8138   5886424.5127   6   8   0.0549   0.0514   0.1042   0.0221   0.0339  -0.0383   0.00    0.0
2188 438960.000   2248126.8455    865685.8067   5886424.4956   6   6   0.0564   0.0530   0.1135   0.0247   0.0417  -0.0328   0.00    0.0
2188 438990.000   2248126.8422    865685.8106   5886424.5180   6   8   0.0538   0.0513   0.1023   0.0220   0.0335  -0.0370   0.00    0.0
2188 439020.000   2248126.8374    865685.8153   5886424.5345   6   8   0.0532   0.0512   0.1012   0.0220   0.0332  -0.0363   0.00    0.0
2188 439050.000   2248126.8444    865685.8120   5886424.5481   6   6   0.0551   0.0527   0.1113   0.0246   0.0413  -0.0318   0.00    0.0
2188 439080.000   2248126.8401    865685.8058   5886424.5460   6   8   0.0522   0.0510   0.0992   0.0223   0.0328  -0.0348   0.00    0.0
2188 439110.000   2248126.8380    865685.8086   5886424.5547   6   8   0.0516   0.0509   0.0979   0.0222   0.0324  -0.0339   0.00    0.0
2188 439140.000   2248126.8322    865685.8065   5886424.5462   6   8   0.0510   0.0508   0.0966   0.0223   0.0321  -0.0330   0.00    0.0
2188 439170.000   2248126.8378    865685.8039   5886424.5532   6   8   0.0505   0.0507   0.0953   0.0224   0.0317  -0.0320   0.00    0.0
2188 439200.000   2248126.8308    865685.8064   5886424.5427   6   7   0.0500   0.0520   0.1067   0.0227   0.0400  -0.0301   0.00    0.0
2188 439230.000   2248126.8370    865685.8053   5886424.5409   6   6   0.0520   0.0522   0.1060   0.0245   0.0401  -0.0279   0.00    0.0
2188 439260.000   2248126.8322    865685.8018   5886424.5509   6   8   0.0489   0.0504   0.0919   0.0228   0.0310  -0.0288   0.00    0.0
2188 439290.000   2248126.8273    865685.7984   5886424.5070   6   5   0.1042   0.0722   0.3262   0.0718   0.1307   0.1654   0.00    0.0
2188 439320.000   2248126.8286    865685.7863   5886424.4956   6   6   0.0509   0.0519   0.1047   0.0245   0.0398  -0.0274   0.00    0.0
2188 439350.000   2248126.8288    865685.7989   5886424.5573   6   8   0.0476   0.0501   0.0895   0.0232   0.0306  -0.0261   0.00    0.0
2188 439380.000   2248126.8284    865685.7996   5886424.5581   6   7   0.0496   0.0500   0.0894   0.0234   0.0300  -0.0294   0.00    0.0
2188 439410.000   2248126.8253    865685.7990   5886424.5641   6   8   0.0465   0.0499   0.0869   0.0232   0.0299  -0.0234   0.00    0.0
2188 439440.000   2248126.8131    865685.7916   5886424.5368   6   7   0.0458   0.0513   0.1008   0.0236   0.0393  -0.0211   0.00    0.0
2188 439470.000   2248126.8124    865685.7972   5886424.5661   6   7   0.0461   0.0496   0.0917   0.0240   0.0296  -0.0088   0.00    0.0
2188 439500.000   2248126.8117    865685.8004   5886424.5708   6   8   0.0449   0.0495   0.0827   0.0239   0.0290  -0.0176   0.00    0.0
2188 439530.000   2248126.8143    865685.8010   5886424.5793   6   8   0.0443   0.0493   0.0812   0.0241   0.0284  -0.0157   0.00    0.0
2188 439560.000   2248126.8392    865685.8097   5886424.6466   6   5   0.1213   0.0897   0.4410   0.0943   0.1824   0.2189   0.00    0.0
2188 439590.000   2248126.8097    865685.7920   5886424.5718   6   8   0.0437   0.0491   0.0798   0.0241   0.0280  -0.0129   0.00    0.0
2188 439620.000   2248126.8146    865685.7917   5886424.5776   6   6   0.0496   0.0489   0.0880   0.0250   0.0288   0.0168   0.00    0.0
2188 439650.000   2248126.7972    865685.7809   5886424.5415   6   6   0.0455   0.0542   0.1642   0.0300   0.0642   0.0446   0.00    0.0
2188 439680.000   2248126.8096    865685.7942   5886424.6001   6   6   0.0493   0.0487   0.0883   0.0252   0.0295   0.0179   0.00    0.0
2188 439710.000   2248126.8165    865685.7910   5886424.5939   6   6   0.0490   0.0487   0.0885   0.0254   0.0298   0.0188   0.00    0.0
2188 439740.000   2248126.8170    865685.7914   5886424.5898   6   6   0.0488   0.0486   0.0886   0.0254   0.0301   0.0196   0.00    0.0
2188 439770.000   2248126.8162    865685.7887   5886424.5812   6   7   0.0486   0.0485   0.0887   0.0256   0.0304   0.0203   0.00    0.0
2188 439800.000   2248126.8079    865685.7919   5886424.6074   6   8   0.0423   0.0484   0.0846   0.0256   0.0308   0.0206   0.00    0.0
2188 439830.000   2248126.8072    865685.7908   5886424.6120   6   7   0.0423   0.0484   0.0880   0.0258   0.0308   0.0258   0.00    0.0
2188 439860.000   2248126.8023    865685.7917   5886424.6080   6   7   0.0419   0.0483   0.0875   0.0261   0.0309   0.0273   0.00    0.0
2188 439890.000   2248126.7996    865685.7923   5886424.6161   6   7   0.0417   0.0482   0.0871   0.0262   0.0310   0.0286   0.00    0.0
2188 439920.000   2248126.7944    865685.7918   5886424.6007   6   8   0.0407   0.0481   0.0804   0.0264   0.0309   0.0249   0.00    0.0
2188 439950.000   2248126.7983    865685.7963   5886424.6197   6   8   0.0403   0.0480   0.0793   0.0265   0.0310   0.0253   0.00    0.0
2188 439980.000   2248126.7954    865685.7996   5886424.6195   6   7   0.0412   0.0479   0.0864   0.0268   0.0314   0.0320   0.00    0.0
2188 440010.000   2248126.7914    865685.7978   5886424.6263   6   8   0.0397   0.0479   0.0778   0.0268   0.0309   0.0265   0.00    0.0
2188 440040.000   2248126.7955    865685.7927   5886424.6342   6   7   0.0417   0.0477   0.0798   0.0269   0.0310   0.0211   0.00    0.0
2188 440070.000   2248126.7957    865685.7933   5886424.6460   6   8   0.0393   0.0476   0.0766   0.0271   0.0310   0.0272   0.00    0.0
2188 440100.000   2248126.7888    865685.7937   5886424.6361   6   8   0.0391   0.0475   0.0759   0.0273   0.0309   0.0277   0.00    0.0
2188 440130.000   2248126.7787    865685.7888   5886424.6322   6   8   0.0388   0.0475   0.0753   0.0274   0.0307   0.0281   0.00    0.0
2188 440160.000   2248126.7834    865685.7890   5886424.6239   6   8   0.0387   0.0473   0.0748   0.0276   0.0306   0.0286   0.00    0.0
2188 440190.000   2248126.7823    865685.7898   5886424.6337   6   8   0.0386   0.0472   0.0743   0.0275   0.0305   0.0290   0.00    0.0
2188 440220.000   2248126.7820    865685.7890   5886424.6447   6   7   0.0405   0.0472   0.0868   0.0282   0.0319   0.0379   0.00    0.0
2188 440250.000   2248126.7811    865685.7891   5886424.6458   6   6   0.0439   0.0470   0.0877   0.0283   0.0321   0.0361   0.00    0.0
2188 440280.000   2248126.7762    865685.7864   5886424.6315   6   8   0.0382   0.0468   0.0732   0.0279   0.0302   0.0297   0.00    0.0
2188 440310.000   2248126.7800    865685.7910   5886424.6447   6   8   0.0381   0.0467   0.0728   0.0280   0.0300   0.0300   0.00    0.0
2188 440340.000   2248126.7722    865685.7837   5886424.6321   6   8   0.0380   0.0466   0.0723   0.0279   0.0297   0.0303   0.00    0.0
2188 440370.000   2248126.7780    865685.7881   5886424.6333   6   8   0.0379   0.0464   0.0719   0.0280   0.0294   0.0305   0.00    0.0
2188 440400.000   2248126.7854    865685.7902   5886424.6421   6   7   0.0404   0.0464   0.0882   0.0289   0.0321   0.0411   0.00    0.0
2188 440430.000   2248126.7834    865685.7890   5886424.6535   6   8   0.0378   0.0462   0.0711   0.0281   0.0289   0.0308   0.00    0.0
2188 440460.000   2248126.7785    865685.7922   5886424.6609   6   8   0.0376   0.0460   0.0707   0.0280   0.0286   0.0310   0.00    0.0
2188 440490.000   2248126.7725    865685.7918   5886424.6518   6   6   0.0430   0.0460   0.0909   0.0289   0.0322   0.0391   0.00    0.0
2188 440520.000   2248126.7690    865685.7880   5886424.6366   6   7   0.0406   0.0458   0.0895   0.0293   0.0321   0.0429   0.00    0.0
2188 440550.000   2248126.7772    865685.7905   5886424.6518   6   8   0.0406   0.0457   0.0897   0.0293   0.0320   0.0434   0.00    0.0
2188 440580.000   2248126.7759    865685.7869   5886424.6434   6   8   0.0404   0.0455   0.0884   0.0291   0.0311   0.0427   0.00    0.0
2188 440610.000   2248126.7762    865685.7922   5886424.6529   6   8   0.0402   0.0453   0.0880   0.0291   0.0306   0.0427   0.00    0.0
2188 440640.000   2248126.7792    865685.7967   5886424.6658   6   7   0.0485   0.0579   0.2170   0.0428   0.0902   0.0849   0.00    0.0
2188 440670.000   2248126.7839    865685.7877   5886424.6573   6   8   0.0402   0.0450   0.0877   0.0290   0.0301   0.0429   0.00    0.0
2188 440700.000   2248126.7698    865685.7818   5886424.6247   6   8   0.0401   0.0448   0.0876   0.0290   0.0298   0.0430   0.00    0.0
2188 440730.000   2248126.7692    865685.7845   5886424.6345   6   8   0.0401   0.0447   0.0876   0.0289   0.0295   0.0432   0.00    0.0
2188 440760.000   2248126.7678    865685.7877   5886424.6353   6   8   0.0401   0.0445   0.0875   0.0290   0.0292   0.0433   0.00    0.0
2188 440790.000   2248126.7723    865685.7828   5886424.6505   6   8   0.0401   0.0443   0.0875   0.0290   0.0290   0.0434   0.00    0.0
2188 440820.000   2248126.7771    865685.7800   5886424.6576   6   8   0.0401   0.0442   0.0874   0.0289   0.0287   0.0436   0.00    0.0
2188 440850.000   2248126.7770    865685.7765   5886424.6359   6   9   0.0401   0.0440   0.0873   0.0289   0.0284   0.0436   0.00    0.0
2188 440880.000   2248126.7735    865685.7721   5886424.6398   6   8   0.0400   0.0439   0.0872   0.0288   0.0282   0.0437   0.00    0.0
2188 440910.000   2248126.7728    865685.7681   5886424.6252   6   8   0.0400   0.0436   0.0871   0.0288   0.0279   0.0437   0.00    0.0
2188 440940.000   2248126.7712    865685.7696   5886424.6354   6   9   0.0386   0.0436   0.0772   0.0283   0.0258   0.0386   0.00    0.0
2188 440970.000   2248126.7709    865685.7698   5886424.6342   6   8   0.0400   0.0434   0.0869   0.0287   0.0272   0.0438   0.00    0.0
2188 441000.000   2248126.7741    865685.7737   5886424.6324   6   9   0.0379   0.0432   0.0732   0.0280   0.0244   0.0366   0.00    0.0
2188 441030.000   2248126.7689    865685.7716   5886424.6232   6   9   0.0377   0.0431   0.0711   0.0278   0.0236   0.0356   0.00    0.0
2188 441060.000   2248126.7715    865685.7714   5886424.6510   6   8   0.0399   0.0430   0.0864   0.0284   0.0263   0.0438   0.00    0.0
2188 441090.000   2248126.7820    865685.7706   5886424.6681   6   8   0.0398   0.0429   0.0862   0.0283   0.0257   0.0437   0.00    0.0
2188 441120.000   2248126.7718    865685.7739   5886424.6413   6   9   0.0373   0.0425   0.0689   0.0274   0.0220   0.0345   0.00    0.0
2188 441150.000   2248126.7767    865685.7642   5886424.6214   6   8   0.0397   0.0425   0.0857   0.0281   0.0253   0.0436   0.00    0.0
2188 441180.000   2248126.7676    865685.7683   5886424.6246   6   9   0.0369   0.0422   0.0674   0.0272   0.0210   0.0338   0.00    0.0
2188 441210.000   2248126.7640    865685.7663   5886424.6043   6   8   0.0396   0.0422   0.0851   0.0281   0.0244   0.0433   0.00    0.0
2188 441240.000   2248126.7677    865685.7678   5886424.6110   6   8   0.0395   0.0421   0.0847   0.0278   0.0241   0.0432   0.00    0.0
2188 441270.000   2248126.7632    865685.7687   5886424.6154   6   9   0.0367   0.0418   0.0657   0.0267   0.0194   0.0329   0.00    0.0
2188 441300.000   2248126.7668    865685.7677   5886424.6084   6   8   0.0393   0.0418   0.0840   0.0277   0.0233   0.0429   0.00    0.0
2188 441330.000   2248126.7674    865685.7702   5886424.5976   6   8   0.0392   0.0416   0.0836   0.0275   0.0230   0.0427   0.00    0.0
2188 441360.000   2248126.7657    865685.7661   5886424.5980   6   9   0.0362   0.0413   0.0641   0.0264   0.0181   0.0320   0.00    0.0
2188 441390.000   2248126.7570    865685.7647   5886424.5795   6   8   0.0390   0.0413   0.0828   0.0273   0.0222   0.0423   0.00    0.0
2188 441420.000   2248126.7613    865685.7624   5886424.5867   6   8   0.0389   0.0412   0.0823   0.0271   0.0217   0.0421   0.00    0.0
2188 441450.000   2248126.7543    865685.7700   5886424.5989   6   8   0.0388   0.0410   0.0819   0.0271   0.0214   0.0418   0.00    0.0
2188 441480.000   2248126.7649    865685.7718   5886424.6097   6   9   0.0356   0.0407   0.0621   0.0260   0.0158   0.0307   0.00    0.0
2188 441510.000   2248126.7623    865685.7714   5886424.6090   6   8   0.0386   0.0407   0.0809   0.0267   0.0206   0.0413   0.00    0.0
2188 441540.000   2248126.7568    865685.7717   5886424.6076   6   9   0.0354   0.0404   0.0611   0.0256   0.0147   0.0300   0.00    0.0
2188 441570.000   2248126.7599    865685.7776   5886424.5962   6   8   0.0383   0.0403   0.0798   0.0264   0.0198   0.0407   0.00    0.0
2188 441600.000   2248126.7531    865685.7715   5886424.5893   6   8   0.0381   0.0402   0.0793   0.0264   0.0193   0.0404   0.00    0.0
2188 441630.000   2248126.7508    865685.7699   5886424.5942   6   8   0.0380   0.0401   0.0787   0.0263   0.0191   0.0401   0.00    0.0
2188 441660.000   2248126.7541    865685.7702   5886424.6005   6   8   0.0379   0.0399   0.0782   0.0261   0.0187   0.0398   0.00    0.0
2188 441690.000   2248126.7454    865685.7684   5886424.5835   6   6   0.0449   0.0415   0.1883   0.0304  -0.0307  -0.0479   0.00    0.0
2188 441720.000   2248126.7507    865685.7688   5886424.5762   6   9   0.0377   0.0397   0.0770   0.0260   0.0178   0.0392   0.00    0.0
2188 441750.000   2248126.7537    865685.7735   5886424.5915   6   8   0.0375   0.0396   0.0764   0.0257   0.0175   0.0389   0.00    0.0
2188 441780.000   2248126.7546    865685.7737   5886424.5832   6   8   0.0373   0.0394   0.0758   0.0257   0.0175   0.0385   0.00    0.0
2188 441810.000   2248126.7504    865685.7749   5886424.5839   6   8   0.0372   0.0393   0.0752   0.0255   0.0169   0.0382   0.00    0.0
2188 441840.000   2248126.7521    865685.7729   5886424.5774   6   8   0.0360   0.0391   0.0674   0.0248   0.0128   0.0339   0.00    0.0
2188 441870.000   2248126.7438    865685.7722   5886424.5675   6   8   0.0352   0.0388   0.0632   0.0245   0.0115   0.0313   0.00    0.0
2188 441900.000   2248126.7449    865685.7740   5886424.5620   6   7   0.0373   0.0388   0.0761   0.0252   0.0155   0.0389   0.00    0.0
2188 441930.000   2248126.7546    865685.7735   5886424.5923   6   8   0.0348   0.0386   0.0603   0.0242   0.0103   0.0295   0.00    0.0
2188 441960.000   2248126.7568    865685.7748   5886424.5742   6   7   0.0370   0.0386   0.0744   0.0250   0.0153   0.0379   0.00    0.0
2188 441990.000   2248126.7598    865685.7686   5886424.5963   6   8   0.0343   0.0383   0.0584   0.0241   0.0092   0.0283   0.00    0.0
2188 442020.000   2248126.7493    865685.7650   5886424.5876   6   8   0.0341   0.0382   0.0572   0.0240   0.0088   0.0276   0.00    0.0
2188 442050.000   2248126.7564    865685.7662   5886424.5897   6   7   0.0365   0.0381   0.0720   0.0248   0.0148   0.0366   0.00    0.0
2188 442080.000   2248126.7640    865685.7632   5886424.6181   6   7   0.0363   0.0380   0.0712   0.0247   0.0145   0.0361   0.00    0.0
2188 442110.000   2248126.7554    865685.7694   5886424.5831   6   8   0.0337   0.0377   0.0556   0.0237   0.0085   0.0264   0.00    0.0
2188 442140.000   2248126.7581    865685.7653   5886424.5824   6   7   0.0360   0.0377   0.0696   0.0246   0.0142   0.0352   0.00    0.0
2188 442170.000   2248126.7521    865685.7649   5886424.5783   6   8   0.0334   0.0374   0.0545   0.0236   0.0082   0.0257   0.00    0.0
2188 442200.000   2248126.7567    865685.7666   5886424.5931   6   7   0.0357   0.0374   0.0681   0.0244   0.0141   0.0344   0.00    0.0
2188 442230.000   2248126.7578    865685.7652   5886424.5868   6   7   0.0334   0.0379   0.0537   0.0239   0.0085   0.0252   0.00    0.0
2188 442260.000   2248126.7533    865685.7646   5886424.5827   6   8   0.0331   0.0369   0.0532   0.0233   0.0071   0.0247   0.00    0.0
2188 442290.000   2248126.7521    865685.7661   5886424.5953   6   9   0.0330   0.0368   0.0527   0.0233   0.0070   0.0244   0.00    0.0
2188 442320.000   2248126.7556    865685.7719   5886424.6145   6   9   0.0328   0.0366   0.0509   0.0232   0.0047   0.0239   0.00    0.0
2188 442350.000   2248126.7532    865685.7661   5886424.6081   6   8   0.0329   0.0372   0.0500   0.0235   0.0063   0.0239   0.00    0.0
2188 442380.000   2248126.7612    865685.7684   5886424.6264   6   8   0.0349   0.0365   0.0602   0.0237   0.0107   0.0312   0.00    0.0
2188 442410.000   2248126.7520    865685.7688   5886424.6125   6   9   0.0325   0.0361   0.0488   0.0229   0.0012   0.0233   0.00    0.0
2188 442440.000   2248126.7425    865685.7637   5886424.5972   6   7   0.0356   0.0374   0.0613   0.0253   0.0167   0.0330   0.00    0.0
2188 442470.000   2248126.7451    865685.7558   5886424.5918   6   7   0.0356   0.0372   0.0607   0.0251   0.0163   0.0326   0.00    0.0
2188 442500.000   2248126.7438    865685.7646   5886424.5944   6   8   0.0344   0.0359   0.0571   0.0234   0.0092   0.0298   0.00    0.0
2188 442530.000   2248126.7461    865685.7618   5886424.5961   6   8   0.0343   0.0357   0.0564   0.0233   0.0091   0.0295   0.00    0.0
2188 442560.000   2248126.7463    865685.7598   5886424.5865   6   8   0.0342   0.0355   0.0557   0.0232   0.0091   0.0292   0.00    0.0
2188 442590.000   2248126.7519    865685.7641   5886424.5774   6   7   0.0351   0.0366   0.0581   0.0248   0.0160   0.0315   0.00    0.0
2188 442620.000   2248126.7640    865685.7630   5886424.6141   6   8   0.0340   0.0353   0.0545   0.0230   0.0084   0.0286   0.00    0.0
2188 442650.000   2248126.7603    865685.7641   5886424.6135   6   9   0.0339   0.0351   0.0540   0.0230   0.0086   0.0284   0.00    0.0
2188 442680.000   2248126.7581    865685.7673   5886424.6248   6   9   0.0328   0.0348   0.0492   0.0225   0.0062   0.0248   0.00    0.0
2188 442710.000   2248126.7564    865685.7669   5886424.6101   6   8   0.0337   0.0347   0.0529   0.0228   0.0085   0.0279   0.00    0.0
2188 442740.000   2248126.7576    865685.7661   5886424.6126   6   8   0.0336   0.0345   0.0524   0.0227   0.0084   0.0277   0.00    0.0
2188 442770.000   2248126.7538    865685.7618   5886424.6015   6   7   0.0345   0.0357   0.0551   0.0243   0.0159   0.0299   0.00    0.0
2188 442800.000   2248126.7566    865685.7659   5886424.6056   6   8   0.0334   0.0342   0.0514   0.0225   0.0079   0.0271   0.00    0.0
2188 442830.000   2248126.7544    865685.7606   5886424.6123   6   9   0.0321   0.0339   0.0462   0.0220   0.0044   0.0230   0.00    0.0
2188 442860.000   2248126.7464    865685.7638   5886424.5941   6   8   0.0333   0.0337   0.0506   0.0224   0.0082   0.0267   0.00    0.0
2188 442890.000   2248126.7490    865685.7674   5886424.5943   6   7   0.0341   0.0351   0.0533   0.0239   0.0156   0.0290   0.00    0.0
2188 442920.000   2248126.7569    865685.7627   5886424.6106   6   9   0.0317   0.0334   0.0446   0.0217   0.0033   0.0217   0.00    0.0
2188 442950.000   2248126.7583    865685.7641   5886424.6179   6   9   0.0315   0.0332   0.0440   0.0216   0.0017   0.0214   0.00    0.0
2188 442980.000   2248126.7556    865685.7615   5886424.6099   6   8   0.0330   0.0331   0.0490   0.0220   0.0076   0.0259   0.00    0.0
2188 443010.000   2248126.7505    865685.7599   5886424.5924   6   7   0.0428   0.0331   0.0827   0.0199  -0.0120   0.0499   0.00    0.0
2188 443040.000   2248126.7604    865685.7612   5886424.6077   6   7   0.0336   0.0343   0.0515   0.0235   0.0155   0.0280   0.00    0.0
2188 443070.000   2248126.7581    865685.7553   5886424.6230   6   8   0.0327   0.0328   0.0480   0.0217   0.0075   0.0254   0.00    0.0
2188 443100.000   2248126.7541    865685.7543   5886424.6123   6   7   0.0334   0.0341   0.0508   0.0233   0.0153   0.0276   0.00    0.0
2188 443130.000   2248126.7518    865685.7610   5886424.6142   6   8   0.0326   0.0324   0.0473   0.0215   0.0074   0.0249   0.00    0.0
2188 443160.000   2248126.7499    865685.7607   5886424.6114   6   8   0.0324   0.0323   0.0470   0.0215   0.0072   0.0249   0.00    0.0
2188 443190.000   2248126.7497    865685.7598   5886424.5972   6   7   0.0332   0.0336   0.0499   0.0230   0.0152   0.0270   0.00    0.0
2188 443220.000   2248126.7489    865685.7593   5886424.6017   6   9   0.0324   0.0319   0.0464   0.0212   0.0073   0.0245   0.00    0.0
2188 443250.000   2248126.7481    865685.7608   5886424.6018   6   8   0.0323   0.0318   0.0462   0.0212   0.0070   0.0244   0.00    0.0
2188 443280.000   2248126.7501    865685.7552   5886424.6052   6   8   0.0322   0.0316   0.0460   0.0211   0.0068   0.0243   0.00    0.0
2188 443310.000   2248126.7466    865685.7526   5886424.6152   6   8   0.0322   0.0313   0.0457   0.0210   0.0069   0.0241   0.00    0.0
2188 443340.000   2248126.7524    865685.7555   5886424.6158   6   8   0.0321   0.0312   0.0455   0.0208   0.0073   0.0241   0.00    0.0
2188 443370.000   2248126.7460    865685.7589   5886424.6086   6   7   0.0327   0.0328   0.0482   0.0224   0.0151   0.0260   0.00    0.0
2188 443400.000   2248126.7423    865685.7541   5886424.6080   6   8   0.0320   0.0309   0.0450   0.0208   0.0069   0.0237   0.00    0.0
2188 443430.000   2248126.7525    865685.7523   5886424.5944   6   8   0.0319   0.0308   0.0448   0.0206   0.0070   0.0236   0.00    0.0
2188 443460.000   2248126.7504    865685.7510   5886424.6035   6   8   0.0324   0.0324   0.0475   0.0221   0.0150   0.0256   0.00    0.0
2188 443490.000   2248126.7485    865685.7477   5886424.5959   6   8   0.0318   0.0305   0.0445   0.0204   0.0067   0.0233   0.00    0.0
2188 443520.000   2248126.7406    865685.7460   5886424.6080   6   9   0.0310   0.0302   0.0427   0.0197   0.0030   0.0214   0.00    0.0
2188 443550.000   2248126.7425    865685.7479   5886424.5956   6   9   0.0306   0.0300   0.0418   0.0196   0.0010   0.0205   0.00    0.0
2188 443580.000   2248126.7421    865685.7419   5886424.6027   6   9   0.0304   0.0298   0.0413   0.0193   0.0009   0.0200   0.00    0.0
2188 443610.000   2248126.7456    865685.7389   5886424.6156   6   8   0.0316   0.0297   0.0437   0.0198   0.0066   0.0229   0.00    0.0
2188 443640.000   2248126.7366    865685.7358   5886424.5865   6   7   0.0320   0.0315   0.0464   0.0214   0.0148   0.0246   0.00    0.0
2188 443670.000   2248126.7383    865685.7399   5886424.5878   6   7   0.0319   0.0315   0.0462   0.0212   0.0146   0.0245   0.00    0.0
2188 443700.000   2248126.7400    865685.7388   5886424.6198   6   9   0.0300   0.0293   0.0409   0.0189  -0.0034   0.0195   0.00    0.0
2188 443730.000   2248126.7397    865685.7359   5886424.6201   6   8   0.0314   0.0292   0.0433   0.0196   0.0062   0.0225   0.00    0.0
2188 443760.000   2248126.7376    865685.7393   5886424.6081   6   9   0.0299   0.0288   0.0407   0.0186  -0.0017   0.0190   0.00    0.0
2188 443790.000   2248126.7433    865685.7401   5886424.6143   6   9   0.0298   0.0286   0.0406   0.0185  -0.0024   0.0191   0.00    0.0
2188 443820.000   2248126.7378    865685.7352   5886424.6124   6   7   0.0388   0.0286   0.0652   0.0187  -0.0006   0.0403   0.00    0.0
2188 443850.000   2248126.7334    865685.7347   5886424.6039   6   9   0.0311   0.0285   0.0429   0.0191   0.0058   0.0221   0.00    0.0
2188 443880.000   2248126.7374    865685.7364   5886424.5972   6  10   0.0293   0.0282   0.0405   0.0179  -0.0037   0.0185   0.00    0.0
2188 443910.000   2248126.7304    865685.7337   5886424.6022   6   9   0.0307   0.0281   0.0426   0.0186   0.0049   0.0216   0.00    0.0
2188 443940.000   2248126.7376    865685.7375   5886424.6036   6   9   0.0306   0.0277   0.0426   0.0185   0.0050   0.0214   0.00    0.0
2188 443970.000   2248126.7369    865685.7343   5886424.6021   6   9   0.0306   0.0278   0.0424   0.0183   0.0038   0.0213   0.00    0.0
2188 444000.000   2248126.7369    865685.7335   5886424.5938   6   9   0.0304   0.0275   0.0424   0.0181   0.0047   0.0212   0.00    0.0
2188 444030.000   2248126.7453    865685.7274   5886424.6091   6   7   0.0690   0.0391   0.1491   0.0439   0.0614   0.0964   0.00    0.0
2188 444060.000   2248126.7368    865685.7303   5886424.5941   6   9   0.0303   0.0275   0.0423   0.0179   0.0034   0.0209   0.00    0.0
2188 444090.000   2248126.7399    865685.7346   5886424.6016   6   8   0.0370   0.0272   0.0612   0.0175  -0.0040   0.0371   0.00    0.0
2188 444120.000   2248126.7382    865685.7322   5886424.5837   6   9   0.0302   0.0271   0.0423   0.0177   0.0007   0.0207   0.00    0.0
2188 444150.000   2248126.7373    865685.7369   5886424.5938   6   9   0.0301   0.0270   0.0422   0.0175   0.0019   0.0206   0.00    0.0
2188 444180.000   2248126.7420    865685.7345   5886424.6066   6   9   0.0300   0.0269   0.0422   0.0174   0.0007   0.0204   0.00    0.0
2188 444210.000   2248126.7381    865685.7347   5886424.5991   6   9   0.0299   0.0267   0.0423   0.0172  -0.0018   0.0203   0.00    0.0
2188 444240.000   2248126.7395    865685.7394   5886424.5966   6   9   0.0299   0.0265   0.0422   0.0171  -0.0022   0.0202   0.00    0.0
2188 444270.000   2248126.7393    865685.7397   5886424.5910   6   9   0.0298   0.0263   0.0423   0.0169  -0.0037   0.0201   0.00    0.0
2188 444300.000   2248126.7461    865685.7448   5886424.6032   6   9   0.0297   0.0262   0.0423   0.0168  -0.0042   0.0201   0.00    0.0
2188 444330.000   2248126.7484    865685.7498   5886424.6108   6   9   0.0296   0.0261   0.0423   0.0167  -0.0046   0.0200   0.00    0.0
2188 444360.000   2248126.7545    865685.7491   5886424.5974   6   9   0.0296   0.0260   0.0424   0.0165  -0.0047   0.0198   0.00    0.0
2188 444390.000   2248126.7555    865685.7467   5886424.6084   6   9   0.0358   0.0259   0.0590   0.0163  -0.0050   0.0349   0.00    0.0
2188 444420.000   2248126.7436    865685.7439   5886424.6038   6   8   0.0295   0.0287   0.0439   0.0169   0.0108   0.0200   0.00    0.0
2188 444450.000   2248126.7427    865685.7392   5886424.6043   6   9   0.0294   0.0257   0.0425   0.0163  -0.0058   0.0195   0.00    0.0
2188 444480.000   2248126.7416    865685.7369   5886424.6090   6   9   0.0293   0.0256   0.0426   0.0162  -0.0057   0.0194   0.00    0.0
2188 444510.000   2248126.7470    865685.7414   5886424.6121   6   9   0.0293   0.0255   0.0427   0.0161  -0.0059   0.0193   0.00    0.0
2188 444540.000   2248126.7463    865685.7414   5886424.6088   6  10   0.0287   0.0254   0.0424   0.0156  -0.0073   0.0185   0.00    0.0
2188 444570.000   2248126.7429    865685.7449   5886424.5997   6  10   0.0283   0.0251   0.0424   0.0151  -0.0079   0.0179   0.00    0.0
2188 444600.000   2248126.7452    865685.7477   5886424.5966   6  10   0.0280   0.0250   0.0424   0.0148  -0.0087   0.0176   0.00    0.0
2188 444630.000   2248126.7478    865685.7506   5886424.5983   6   8   0.0350   0.0250   0.0583   0.0157  -0.0060   0.0336   0.00    0.0
2188 444660.000   2248126.7535    865685.7459   5886424.6107   6   7   0.0497   0.0379   0.1070   0.0353   0.0502   0.0655   0.00    0.0
2188 444690.000   2248126.7467    865685.7456   5886424.5997   6   8   0.0349   0.0250   0.0583   0.0158  -0.0058   0.0334   0.00    0.0
2188 444720.000   2248126.7503    865685.7438   5886424.5942   6   8   0.0349   0.0250   0.0584   0.0157  -0.0059   0.0333   0.00    0.0
2188 444750.000   2248126.7558    865685.7446   5886424.6005   6  10   0.0277   0.0246   0.0432   0.0140  -0.0094   0.0173   0.00    0.0
2188 444780.000   2248126.7495    865685.7443   5886424.6070   6  10   0.0274   0.0245   0.0434   0.0138  -0.0100   0.0172   0.00    0.0
2188 444810.000   2248126.7463    865685.7477   5886424.5919   6   8   0.0346   0.0247   0.0584   0.0154  -0.0067   0.0330   0.00    0.0
2188 444840.000   2248126.7498    865685.7496   5886424.5922   6  10   0.0274   0.0243   0.0438   0.0134  -0.0101   0.0170   0.00    0.0
