% program   : RTKLIB ver.demo5 b34j
% inp file  : E:\GAMPII-GOOD\dataset_Win\obs\2021\351\MGEX\daily\kiru3510.21o
% inp file  : E:\Navigation_Learn\GNSS\RTKLIB-b34k\data\data_IGM-A1_Vehicle_open_20211217-nsh\wum21885.sp3
% inp file  : E:\Navigation_Learn\GNSS\RTKLIB-b34k\data\data_IGM-A1_Vehicle_open_20211217-nsh\wum21885.clk
% inp file  : E:\Navigation_Learn\GNSS\RTKLIB-b34k\data\data_IGM-A1_Vehicle_open_20211217-nsh\CAS0MGXRAP_20213510000_01D_01D_OSB.BIA
% obs start : 2021/12/17 00:00:00.0 GPST (week2188 432000.0s)
% obs end   : 2021/12/17 23:59:30.0 GPST (week2188 518370.0s)
% pos mode  : Single
% elev mask : 10.0 deg
% ionos opt : Iono-Free LC
% tropo opt : Saastamoinen
% ephemeris : Precise
% navi sys  : BDS
%
% (x/y/z-ecef=WGS84,Q=1:fix,2:float,3:sbas,4:dgps,5:single,6:ppp,ns=# of satellites)
%  GPST              x-ecef(m)      y-ecef(m)      z-ecef(m)   Q  ns   sdx(m)   sdy(m)   sdz(m)  sdxy(m)  sdyz(m)  sdzx(m) age(s)  ratio
2188 432000.000   2251419.5957    862817.6447   5885475.9734   5  10   1.2498   0.8508   2.4325   0.3085   0.4385   0.9729   0.00    0.0
2188 432030.000   2251420.1565    862817.8768   5885475.3227   5  10   1.2490   0.8502   2.4321   0.3066   0.4404   0.9750   0.00    0.0
2188 432060.000   2251420.3023    862818.3498   5885474.9009   5  10   1.2483   0.8497   2.4318   0.3046   0.4424   0.9770   0.00    0.0
2188 432090.000   2251419.8623    862817.9081   5885477.3145   5  10   1.2475   0.8491   2.4317   0.3027   0.4444   0.9790   0.00    0.0
2188 432120.000   2251420.9391    862817.1790   5885476.9448   5  10   1.2467   0.8486   2.4317   0.3007   0.4465   0.9810   0.00    0.0
2188 432150.000   2251420.6199    862817.9528   5885476.9148   5  10   1.2460   0.8481   2.4319   0.2988   0.4487   0.9829   0.00    0.0
2188 432180.000   2251420.9569    862818.0563   5885477.2529   5  10   1.2453   0.8476   2.4322   0.2969   0.4509   0.9847   0.00    0.0
2188 432210.000   2251420.4939    862817.3330   5885475.3548   5  10   1.2446   0.8472   2.4326   0.2950   0.4531   0.9866   0.00    0.0
2188 432240.000   2251420.6481    862817.4611   5885475.2023   5  10   1.2439   0.8467   2.4332   0.2932   0.4555   0.9884   0.00    0.0
2188 432270.000   2251420.6716    862817.6821   5885475.8347   5  10   1.2433   0.8463   2.4339   0.2913   0.4579   0.9901   0.00    0.0
2188 432300.000   2251419.8168    862818.2571   5885474.9985   5  10   1.2426   0.8459   2.4347   0.2895   0.4603   0.9918   0.00    0.0
2188 432330.000   2251420.1075    862818.1916   5885476.1781   5  10   1.2420   0.8455   2.4357   0.2877   0.4628   0.9935   0.00    0.0
2188 432360.000   2251419.6142    862817.7625   5885475.6769   5  10   1.2413   0.8452   2.4367   0.2859   0.4654   0.9951   0.00    0.0
2188 432390.000   2251419.3796    862818.5761   5885476.0003   5  10   1.2407   0.8449   2.4379   0.2841   0.4680   0.9967   0.00    0.0
2188 432420.000   2251419.3199    862817.8413   5885475.2051   5  10   1.2401   0.8446   2.4392   0.2824   0.4707   0.9982   0.00    0.0
2188 432450.000   2251420.6125    862818.0502   5885475.6943   5  10   1.2395   0.8443   2.4407   0.2806   0.4734   0.9997   0.00    0.0
2188 432480.000   2251419.8363    862817.9910   5885475.9476   5  10   1.2390   0.8440   2.4422   0.2789   0.4762   1.0012   0.00    0.0
2188 432510.000   2251418.9062    862817.0519   5885476.3555   5  10   1.2384   0.8438   2.4439   0.2772   0.4791   1.0026   0.00    0.0
2188 432540.000   2251420.1864    862817.5453   5885476.6818   5  10   1.2378   0.8435   2.4457   0.2755   0.4820   1.0039   0.00    0.0
2188 432570.000   2251420.4637    862818.5917   5885476.6808   5  10   1.2373   0.8433   2.4476   0.2738   0.4850   1.0052   0.00    0.0
2188 432600.000   2251419.7696    862817.9778   5885475.8001   5  10   1.2368   0.8432   2.4497   0.2721   0.4880   1.0065   0.00    0.0
2188 432630.000   2251420.6011    862817.7273   5885475.9015   5  10   1.2362   0.8430   2.4518   0.2705   0.4911   1.0077   0.00    0.0
2188 432660.000   2251419.7885    862817.7938   5885474.5533   5  10   1.2357   0.8429   2.4541   0.2688   0.4943   1.0089   0.00    0.0
2188 432690.000   2251419.5677    862818.1419   5885476.2924   5  10   1.2352   0.8428   2.4564   0.2672   0.4975   1.0101   0.00    0.0
2188 432720.000   2251420.7948    862817.9850   5885474.6979   5  10   1.2347   0.8427   2.4589   0.2656   0.5008   1.0111   0.00    0.0
2188 432750.000   2251420.0868    862818.2440   5885478.2076   5  10   1.2342   0.8426   2.4615   0.2640   0.5041   1.0122   0.00    0.0
2188 432780.000   2251419.6559    862818.7046   5885478.1245   5  10   1.2337   0.8426   2.4642   0.2624   0.5075   1.0132   0.00    0.0
2188 432810.000   2251418.7468    862818.1247   5885478.3977   5  10   1.2332   0.8426   2.4670   0.2609   0.5110   1.0141   0.00    0.0
2188 432840.000   2251420.0212    862818.5186   5885475.0475   5  10   1.2328   0.8426   2.4700   0.2593   0.5145   1.0151   0.00    0.0
2188 432870.000   2251420.9725    862817.7907   5885474.1686   5   9   1.2376   0.9048   2.7692   0.1694   0.8241   0.9430   0.00    0.0
2188 432900.000   2251420.5132    862817.2410   5885472.7118   5   9   1.2369   0.9043   2.7733   0.1703   0.8259   0.9456   0.00    0.0
2188 432930.000   2251420.4792    862817.6673   5885474.9168   5   9   1.2362   0.9038   2.7774   0.1713   0.8277   0.9481   0.00    0.0
2188 432960.000   2251420.3536    862818.0735   5885474.0661   5   9   1.2355   0.9034   2.7815   0.1722   0.8294   0.9506   0.00    0.0
2188 432990.000   2251420.4690    862817.7804   5885473.2077   5   9   1.2348   0.9030   2.7857   0.1731   0.8312   0.9530   0.00    0.0
2188 433020.000   2251420.3118    862817.5681   5885471.9940   5   9   1.2342   0.9026   2.7899   0.1740   0.8330   0.9554   0.00    0.0
2188 433050.000   2251420.6542    862817.7594   5885474.7768   5   9   1.2335   0.9022   2.7941   0.1749   0.8348   0.9577   0.00    0.0
2188 433080.000   2251420.3424    862817.2011   5885474.1042   5   9   1.2329   0.9018   2.7984   0.1758   0.8366   0.9599   0.00    0.0
2188 433110.000   2251420.5486    862817.4664   5885478.0604   5   9   1.2323   0.9014   2.8027   0.1767   0.8384   0.9621   0.00    0.0
2188 433140.000   2251420.4110    862817.8252   5885477.4794   5   9   1.2316   0.9011   2.8070   0.1776   0.8402   0.9643   0.00    0.0
2188 433170.000   2251419.3085    862817.1898   5885476.8173   5   9   1.2310   0.9008   2.8113   0.1784   0.8420   0.9663   0.00    0.0
2188 433200.000   2251420.2999    862817.7909   5885476.4847   5   9   1.2305   0.9005   2.8156   0.1792   0.8438   0.9683   0.00    0.0
2188 433230.000   2251420.0589    862818.1405   5885477.4680   5   9   1.2299   0.9002   2.8199   0.1800   0.8456   0.9703   0.00    0.0
2188 433260.000   2251420.3153    862818.9655   5885477.5909   5   9   1.2293   0.8999   2.8243   0.1808   0.8474   0.9722   0.00    0.0
2188 433290.000   2251419.3035    862818.0998   5885476.7303   5   9   1.2288   0.8996   2.8286   0.1816   0.8492   0.9740   0.00    0.0
2188 433320.000   2251419.6915    862817.7880   5885476.8099   5   9   1.2282   0.8994   2.8329   0.1823   0.8510   0.9757   0.00    0.0
2188 433350.000   2251420.9600    862818.0535   5885478.0280   5   9   1.2277   0.8992   2.8372   0.1830   0.8528   0.9774   0.00    0.0
2188 433380.000   2251420.9296    862817.7160   5885475.7601   5   9   1.2272   0.8989   2.8415   0.1837   0.8545   0.9790   0.00    0.0
2188 433410.000   2251420.3749    862817.4977   5885477.6996   5   9   1.2267   0.8987   2.8458   0.1844   0.8563   0.9806   0.00    0.0
2188 433440.000   2251420.1235    862817.1682   5885474.4329   5   9   1.2262   0.8986   2.8500   0.1851   0.8580   0.9821   0.00    0.0
2188 433470.000   2251419.8359    862817.3751   5885476.7080   5   9   1.2257   0.8984   2.8543   0.1857   0.8597   0.9835   0.00    0.0
2188 433500.000   2251420.4485    862817.9643   5885475.1705   5   9   1.2252   0.8982   2.8585   0.1863   0.8614   0.9848   0.00    0.0
2188 433530.000   2251420.6391    862817.9270   5885476.9961   5   9   1.2247   0.8981   2.8626   0.1869   0.8631   0.9861   0.00    0.0
2188 433560.000   2251419.3092    862818.2698   5885478.1727   5   9   1.2243   0.8979   2.8668   0.1875   0.8647   0.9873   0.00    0.0
2188 433590.000   2251420.9576    862818.3412   5885476.7634   5   9   1.2238   0.8978   2.8709   0.1880   0.8664   0.9884   0.00    0.0
2188 433620.000   2251419.5750    862817.2379   5885476.2898   5   9   1.2234   0.8977   2.8749   0.1885   0.8680   0.9895   0.00    0.0
2188 433650.000   2251420.2647    862818.1423   5885478.4126   5   9   1.2230   0.8976   2.8789   0.1890   0.8695   0.9905   0.00    0.0
2188 433680.000   2251420.3844    862817.9135   5885477.3212   5   9   1.2226   0.8975   2.8828   0.1895   0.8711   0.9914   0.00    0.0
2188 433710.000   2251419.3359    862818.6020   5885476.9220   5   9   1.2222   0.8975   2.8867   0.1899   0.8726   0.9923   0.00    0.0
2188 433740.000   2251419.3521    862817.9965   5885475.5653   5   9   1.2218   0.8974   2.8906   0.1903   0.8741   0.9930   0.00    0.0
2188 433770.000   2251420.3805    862818.7274   5885475.0031   5   9   1.2214   0.8974   2.8943   0.1907   0.8756   0.9937   0.00    0.0
2188 433800.000   2251419.4161    862817.3184   5885473.8641   5   9   1.2210   0.8973   2.8980   0.1910   0.8771   0.9944   0.00    0.0
2188 433830.000   2251419.7206    862817.9799   5885475.5591   5   9   1.2207   0.8973   2.9017   0.1913   0.8785   0.9949   0.00    0.0
2188 433860.000   2251420.5766    862817.8025   5885476.4096   5   9   1.2203   0.8973   2.9052   0.1916   0.8799   0.9954   0.00    0.0
2188 433890.000   2251419.9841    862818.0143   5885475.1884   5   9   1.2200   0.8973   2.9087   0.1919   0.8812   0.9958   0.00    0.0
2188 433920.000   2251419.8549    862818.1730   5885474.1672   5   9   1.2196   0.8973   2.9121   0.1921   0.8825   0.9961   0.00    0.0
2188 433950.000   2251420.1284    862817.7286   5885475.0584   5   9   1.2193   0.8973   2.9155   0.1923   0.8838   0.9964   0.00    0.0
2188 433980.000   2251420.4872    862817.3266   5885475.6893   5   9   1.2190   0.8973   2.9187   0.1924   0.8850   0.9965   0.00    0.0
2188 434010.000   2251420.6802    862817.5788   5885477.5693   5   9   1.2187   0.8974   2.9219   0.1926   0.8862   0.9966   0.00    0.0
2188 434040.000   2251420.4449    862817.4642   5885473.5262   5   9   1.2184   0.8974   2.9250   0.1927   0.8874   0.9967   0.00    0.0
2188 434070.000   2251420.6879    862817.3408   5885477.5089   5   9   1.2181   0.8975   2.9280   0.1927   0.8885   0.9966   0.00    0.0
2188 434100.000   2251421.2357    862817.7610   5885476.8121   5   9   1.2179   0.8976   2.9309   0.1928   0.8895   0.9965   0.00    0.0
2188 434130.000   2251420.2754    862817.5520   5885477.2961   5   9   1.2176   0.8977   2.9337   0.1928   0.8906   0.9963   0.00    0.0
2188 434160.000   2251420.1944    862817.4724   5885476.6476   5   9   1.2174   0.8978   2.9364   0.1928   0.8916   0.9960   0.00    0.0
2188 434190.000   2251419.9562    862818.0039   5885475.4975   5   9   1.2171   0.8979   2.9390   0.1927   0.8925   0.9956   0.00    0.0
2188 434220.000   2251420.1968    862817.8867   5885476.2110   5   9   1.2169   0.8980   2.9416   0.1926   0.8934   0.9952   0.00    0.0
2188 434250.000   2251419.0877    862817.6327   5885476.7576   5   9   1.2167   0.8981   2.9440   0.1925   0.8943   0.9947   0.00    0.0
2188 434280.000   2251419.9894    862817.9432   5885475.6632   5   9   1.2165   0.8982   2.9463   0.1923   0.8951   0.9941   0.00    0.0
2188 434310.000   2251420.5371    862817.8144   5885475.7510   5   9   1.2163   0.8984   2.9485   0.1922   0.8958   0.9934   0.00    0.0
2188 434340.000   2251420.8063    862818.1948   5885476.1901   5   9   1.2162   0.8985   2.9506   0.1919   0.8965   0.9927   0.00    0.0
2188 434370.000   2251419.8757    862817.5338   5885475.6669   5   9   1.2160   0.8987   2.9526   0.1917   0.8972   0.9919   0.00    0.0
2188 434400.000   2251421.2440    862817.6507   5885476.1737   5   9   1.2159   0.8988   2.9545   0.1914   0.8978   0.9910   0.00    0.0
2188 434430.000   2251420.0410    862817.5601   5885476.3341   5   9   1.2158   0.8990   2.9563   0.1911   0.8984   0.9901   0.00    0.0
2188 434460.000   2251419.9317    862817.7988   5885478.3414   5   9   1.2157   0.8992   2.9579   0.1908   0.8989   0.9891   0.00    0.0
2188 434490.000   2251420.4214    862818.0489   5885475.2374   5   9   1.2156   0.8994   2.9595   0.1904   0.8993   0.9880   0.00    0.0
2188 434520.000   2251420.2482    862817.5967   5885478.1552   5   9   1.2155   0.8996   2.9610   0.1901   0.8998   0.9868   0.00    0.0
2188 434550.000   2251420.1828    862817.2810   5885478.1123   5   9   1.2154   0.8998   2.9623   0.1896   0.9001   0.9856   0.00    0.0
2188 434580.000   2251420.8346    862818.9185   5885477.2061   5   9   1.2154   0.9001   2.9635   0.1892   0.9004   0.9843   0.00    0.0
2188 434610.000   2251420.2337    862818.9550   5885477.3869   5   9   1.2153   0.9003   2.9646   0.1887   0.9007   0.9829   0.00    0.0
2188 434640.000   2251420.5393    862818.1460   5885477.9813   5   9   1.2153   0.9005   2.9657   0.1882   0.9009   0.9815   0.00    0.0
2188 434670.000   2251421.0976    862818.3888   5885478.0592   5   9   1.2153   0.9008   2.9666   0.1877   0.9011   0.9800   0.00    0.0
2188 434700.000   2251421.1648    862818.2375   5885477.0497   5   9   1.2154   0.9010   2.9673   0.1872   0.9012   0.9784   0.00    0.0
2188 434730.000   2251420.8416    862817.0352   5885477.2783   5   9   1.2154   0.9013   2.9680   0.1866   0.9012   0.9768   0.00    0.0
2188 434760.000   2251420.1605    862817.2690   5885476.8068   5   9   1.2155   0.9016   2.9686   0.1860   0.9012   0.9751   0.00    0.0
2188 434790.000   2251419.5329    862818.7590   5885477.7744   5   9   1.2155   0.9019   2.9691   0.1854   0.9012   0.9734   0.00    0.0
2188 434820.000   2251420.2041    862818.0905   5885476.4178   5   9   1.2156   0.9022   2.9694   0.1847   0.9011   0.9716   0.00    0.0
2188 434850.000   2251419.3558    862817.5919   5885474.2769   5   9   1.2157   0.9025   2.9697   0.1841   0.9010   0.9698   0.00    0.0
2188 434880.000   2251419.9460    862818.5907   5885476.4203   5   9   1.2159   0.9028   2.9698   0.1834   0.9008   0.9679   0.00    0.0
2188 434910.000   2251420.1327    862817.7520   5885476.5610   5   9   1.2160   0.9031   2.9699   0.1827   0.9005   0.9659   0.00    0.0
2188 434940.000   2251421.0546    862818.3476   5885475.0386   5   9   1.2162   0.9035   2.9698   0.1820   0.9003   0.9639   0.00    0.0
2188 434970.000   2251419.7518    862817.5766   5885474.8446   5   9   1.2164   0.9038   2.9696   0.1813   0.8999   0.9618   0.00    0.0
2188 435000.000   2251419.3498    862818.2994   5885476.5834   5   9   1.2167   0.9042   2.9694   0.1805   0.8995   0.9597   0.00    0.0
2188 435030.000   2251420.3574    862818.6008   5885475.0987   5   9   1.2169   0.9046   2.9690   0.1798   0.8991   0.9576   0.00    0.0
2188 435060.000   2251420.0991    862817.9108   5885476.0424   5   9   1.2172   0.9049   2.9686   0.1790   0.8986   0.9554   0.00    0.0
2188 435090.000   2251421.0840    862817.5727   5885478.3303   5   9   1.2175   0.9053   2.9681   0.1782   0.8981   0.9532   0.00    0.0
2188 435120.000   2251420.2443    862817.7820   5885477.1247   5   9   1.2178   0.9057   2.9674   0.1774   0.8975   0.9509   0.00    0.0
2188 435150.000   2251420.0521    862818.6702   5885476.5672   5   9   1.2182   0.9062   2.9667   0.1767   0.8969   0.9486   0.00    0.0
2188 435180.000   2251420.0584    862818.7705   5885476.8939   5   9   1.2185   0.9066   2.9659   0.1759   0.8963   0.9463   0.00    0.0
2188 435210.000   2251419.6298    862818.6775   5885477.7039   5   9   1.2189   0.9070   2.9651   0.1751   0.8956   0.9439   0.00    0.0
2188 435240.000   2251420.2001    862817.9069   5885476.4230   5   9   1.2194   0.9075   2.9641   0.1743   0.8948   0.9415   0.00    0.0
2188 435270.000   2251421.1279    862817.9062   5885475.6312   5   9   1.2198   0.9079   2.9631   0.1734   0.8940   0.9391   0.00    0.0
2188 435300.000   2251420.5927    862817.6070   5885475.0801   5   9   1.2203   0.9084   2.9620   0.1726   0.8932   0.9366   0.00    0.0
2188 435330.000   2251420.8758    862817.8984   5885476.8767   5   9   1.2208   0.9089   2.9608   0.1718   0.8924   0.9341   0.00    0.0
2188 435360.000   2251421.2110    862818.3237   5885475.8878   5   9   1.2213   0.9094   2.9596   0.1711   0.8915   0.9317   0.00    0.0
2188 435390.000   2251420.2414    862817.4276   5885475.7208   5   9   1.2219   0.9099   2.9583   0.1703   0.8905   0.9292   0.00    0.0
2188 435420.000   2251420.2885    862818.7032   5885476.8258   5   9   1.2225   0.9105   2.9570   0.1695   0.8896   0.9266   0.00    0.0
2188 435450.000   2251420.4706    862817.9171   5885476.1284   5   9   1.2232   0.9110   2.9556   0.1687   0.8886   0.9241   0.00    0.0
2188 435480.000   2251419.8989    862817.9987   5885477.1123   5   9   1.2238   0.9116   2.9541   0.1680   0.8875   0.9216   0.00    0.0
2188 435510.000   2251420.4085    862818.1540   5885477.5026   5   9   1.2245   0.9121   2.9526   0.1673   0.8864   0.9190   0.00    0.0
2188 435540.000   2251419.1891    862817.7502   5885477.3979   5   9   1.2252   0.9127   2.9511   0.1666   0.8854   0.9165   0.00    0.0
2188 435570.000   2251419.8536    862818.6525   5885478.4391   5   9   1.2260   0.9133   2.9495   0.1659   0.8842   0.9139   0.00    0.0
2188 435600.000   2251419.6024    862817.5836   5885476.4953   5   9   1.2268   0.9139   2.9479   0.1652   0.8831   0.9114   0.00    0.0
2188 435630.000   2251419.8119    862817.4796   5885475.7382   5   9   1.2276   0.9146   2.9462   0.1646   0.8819   0.9089   0.00    0.0
2188 435660.000   2251419.5027    862816.5939   5885474.1398   5   9   1.2285   0.9152   2.9445   0.1640   0.8807   0.9063   0.00    0.0
2188 435690.000   2251419.3062    862818.3441   5885475.4298   5   9   1.2294   0.9159   2.9428   0.1634   0.8795   0.9038   0.00    0.0
2188 435720.000   2251420.3964    862818.5009   5885477.1440   5   9   1.2303   0.9166   2.9411   0.1628   0.8782   0.9013   0.00    0.0
2188 435750.000   2251421.7268    862817.6716   5885477.0673   5   9   1.2313   0.9173   2.9394   0.1623   0.8769   0.8988   0.00    0.0
2188 435780.000   2251420.1534    862817.4891   5885476.1504   5   9   1.2323   0.9180   2.9377   0.1619   0.8756   0.8964   0.00    0.0
2188 435810.000   2251419.1929    862817.9529   5885477.6206   5   9   1.2333   0.9187   2.9359   0.1615   0.8743   0.8940   0.00    0.0
2188 435840.000   2251422.1786    862818.6488   5885477.3747   5   9   1.2344   0.9195   2.9342   0.1611   0.8730   0.8916   0.00    0.0
2188 435870.000   2251421.4737    862817.7394   5885476.9875   5   9   1.2355   0.9202   2.9324   0.1608   0.8717   0.8892   0.00    0.0
2188 435900.000   2251421.3072    862818.1343   5885477.6175   5   9   1.2367   0.9210   2.9307   0.1605   0.8703   0.8869   0.00    0.0
2188 435930.000   2251419.9905    862817.5143   5885475.7548   5   9   1.2379   0.9218   2.9290   0.1603   0.8690   0.8846   0.00    0.0
2188 435960.000   2251416.2872    862818.4056   5885473.1746   5   9   1.2391   0.9227   2.9273   0.1601   0.8676   0.8823   0.00    0.0
2188 435990.000   2251418.5415    862818.0461   5885477.0684   5   9   1.2404   0.9235   2.9257   0.1600   0.8662   0.8801   0.00    0.0
2188 436020.000   2251419.7324    862819.8456   5885480.7947   5   9   1.2417   0.9244   2.9240   0.1600   0.8649   0.8779   0.00    0.0
2188 436050.000   2251419.1328    862818.2160   5885477.9752   5   8   1.4671   0.9253   2.9860   0.1819   0.8669   1.1157   0.00    0.0
2188 436080.000   2251420.0704    862816.9639   5885474.8287   5   8   1.4664   0.9262   2.9854   0.1847   0.8660   1.1147   0.00    0.0
2188 436110.000   2251420.7124    862818.6567   5885479.7071   5   8   1.4657   0.9272   2.9849   0.1876   0.8651   1.1136   0.00    0.0
2188 436140.000   2251419.8142    862818.5979   5885477.8997   5   8   1.4651   0.9282   2.9843   0.1903   0.8643   1.1125   0.00    0.0
2188 436170.000   2251418.6593    862817.8431   5885476.5484   5   8   1.4644   0.9292   2.9838   0.1931   0.8634   1.1114   0.00    0.0
2188 436200.000   2251421.0511    862818.1149   5885475.0570   5   8   1.4637   0.9302   2.9833   0.1957   0.8625   1.1102   0.00    0.0
2188 436230.000   2251420.0319    862818.1106   5885474.2458   5   8   1.4629   0.9312   2.9828   0.1984   0.8617   1.1089   0.00    0.0
2188 436260.000   2251420.5949    862818.5124   5885476.4373   5   8   1.4622   0.9323   2.9824   0.2010   0.8608   1.1076   0.00    0.0
2188 436290.000   2251420.0969    862817.8827   5885475.1806   5   8   1.4615   0.9334   2.9820   0.2036   0.8600   1.1063   0.00    0.0
2188 436320.000   2251419.8139    862817.5308   5885476.8184   5   8   1.4607   0.9345   2.9816   0.2061   0.8592   1.1049   0.00    0.0
2188 436350.000   2251419.8023    862816.9624   5885476.1682   5   8   1.4600   0.9357   2.9813   0.2086   0.8583   1.1034   0.00    0.0
2188 436380.000   2251420.0670    862817.1588   5885475.2138   5   8   1.4592   0.9369   2.9810   0.2111   0.8575   1.1019   0.00    0.0
2188 436410.000   2251419.9598    862817.5024   5885475.0287   5   8   1.4584   0.9381   2.9808   0.2136   0.8567   1.1004   0.00    0.0
2188 436440.000   2251418.7975    862817.1232   5885473.9045   5   8   1.4576   0.9393   2.9807   0.2161   0.8560   1.0988   0.00    0.0
2188 436470.000   2251418.4696    862816.4892   5885473.1912   5   8   1.4569   0.9406   2.9806   0.2185   0.8552   1.0972   0.00    0.0
2188 436500.000   2251419.8248    862818.1355   5885476.8357   5   8   1.4561   0.9419   2.9806   0.2209   0.8544   1.0956   0.00    0.0
2188 436530.000   2251419.7240    862819.2327   5885481.5663   5   8   1.4552   0.9432   2.9807   0.2233   0.8537   1.0939   0.00    0.0
2188 436560.000   2251419.6241    862817.8265   5885476.8528   5   8   1.4544   0.9445   2.9809   0.2257   0.8530   1.0922   0.00    0.0
2188 436590.000   2251419.9551    862816.7786   5885473.5725   5   8   1.4536   0.9459   2.9812   0.2281   0.8524   1.0904   0.00    0.0
2188 436620.000   2251420.5198    862818.2074   5885477.9657   5   8   1.4528   0.9473   2.9815   0.2305   0.8517   1.0886   0.00    0.0
2188 436650.000   2251419.5430    862817.2020   5885479.2913   5   8   1.4519   0.9487   2.9820   0.2328   0.8511   1.0869   0.00    0.0
2188 436680.000   2251419.5387    862818.0613   5885478.0098   5   7   1.4684   1.1789   3.5549   0.4607   1.4398   1.2698   0.00    0.0
2188 436710.000   2251419.8758    862816.8281   5885474.7224   5   9   1.2311   0.9487   2.9287  -0.0373   0.8244   0.8593   0.00    0.0
2188 436740.000   2251419.4212    862817.9979   5885475.9266   5   9   1.2294   0.9502   2.9302  -0.0364   0.8236   0.8581   0.00    0.0
2188 436770.000   2251419.5685    862817.5401   5885474.1176   5   9   1.2277   0.9516   2.9318  -0.0356   0.8228   0.8569   0.00    0.0
2188 436800.000   2251421.0820    862817.4315   5885478.6512   5   9   1.2260   0.9531   2.9335  -0.0348   0.8220   0.8558   0.00    0.0
2188 436830.000   2251419.3350    862817.1128   5885473.7870   5   9   1.2243   0.9547   2.9354  -0.0341   0.8213   0.8546   0.00    0.0
2188 436860.000   2251420.9681    862817.3309   5885474.3405   5   9   1.2227   0.9562   2.9374  -0.0335   0.8206   0.8535   0.00    0.0
2188 436890.000   2251420.2990    862818.3169   5885477.3370   5   9   1.2211   0.9578   2.9395  -0.0330   0.8200   0.8524   0.00    0.0
2188 436920.000   2251419.2786    862818.9558   5885478.1537   5   9   1.2195   0.9594   2.9419  -0.0326   0.8194   0.8514   0.00    0.0
2188 436950.000   2251420.9446    862818.3585   5885477.2431   5   8   1.2198   1.1645   3.4668   0.2075   1.3689   0.9197   0.00    0.0
2188 436980.000   2251420.5739    862818.1123   5885473.5656   5   8   1.2183   1.1648   3.4711   0.2064   1.3683   0.9184   0.00    0.0
2188 437010.000   2251420.3105    862817.6114   5885476.0798   5   8   1.2167   1.1652   3.4753   0.2053   1.3676   0.9171   0.00    0.0
2188 437040.000   2251420.5111    862817.5307   5885476.2794   5   8   1.2152   1.1655   3.4797   0.2042   1.3669   0.9158   0.00    0.0
2188 437070.000   2251418.9987    862817.5957   5885470.3208   5   8   1.2138   1.1658   3.4840   0.2031   1.3660   0.9145   0.00    0.0
2188 437100.000   2251420.2394    862818.0166   5885475.5805   5   8   1.2123   1.1661   3.4885   0.2019   1.3651   0.9133   0.00    0.0
2188 437130.000   2251419.9474    862817.6060   5885473.3116   5   8   1.2109   1.1664   3.4929   0.2007   1.3640   0.9121   0.00    0.0
2188 437160.000   2251420.1746    862817.9632   5885474.0469   5   8   1.2095   1.1666   3.4975   0.1995   1.3629   0.9109   0.00    0.0
2188 437190.000   2251420.2501    862817.6342   5885479.7067   5   8   1.2081   1.1669   3.5020   0.1982   1.3617   0.9097   0.00    0.0
2188 437220.000   2251420.3031    862817.6313   5885475.6350   5   9   1.1998   1.0964   2.5806   0.3008   0.9492   1.0641   0.00    0.0
2188 437250.000   2251420.4201    862818.8925   5885476.2520   5   9   1.1983   1.0967   2.5780   0.3010   0.9453   1.0655   0.00    0.0
2188 437280.000   2251420.9933    862817.7093   5885478.7557   5   9   1.1968   1.0970   2.5756   0.3012   0.9414   1.0669   0.00    0.0
2188 437310.000   2251419.9713    862817.2661   5885476.2995   5   9   1.1953   1.0973   2.5734   0.3013   0.9376   1.0683   0.00    0.0
2188 437340.000   2251420.1210    862818.5769   5885478.7100   5   9   1.1939   1.0976   2.5715   0.3014   0.9337   1.0698   0.00    0.0
2188 437370.000   2251420.4683    862817.6033   5885476.9399   5   9   1.1925   1.0979   2.5698   0.3014   0.9299   1.0712   0.00    0.0
2188 437400.000   2251420.2992    862816.9733   5885474.2866   5   9   1.1911   1.0983   2.5684   0.3014   0.9261   1.0727   0.00    0.0
2188 437430.000   2251420.6003    862817.2276   5885477.7098   5   9   1.1897   1.0987   2.5671   0.3014   0.9223   1.0742   0.00    0.0
2188 437460.000   2251420.4529    862818.0468   5885477.0771   5   9   1.1883   1.0991   2.5661   0.3013   0.9185   1.0757   0.00    0.0
2188 437490.000   2251420.9569    862817.3905   5885479.1025   5   9   1.1870   1.0995   2.5653   0.3012   0.9147   1.0773   0.00    0.0
2188 437520.000   2251419.8754    862818.0536   5885472.0777   5   8   1.2029   1.1129   3.1082   0.2372   0.7298   1.2329   0.00    0.0
2188 437550.000   2251419.3092    862817.8881   5885472.3827   5   9   1.1844   1.1004   2.5644   0.3008   0.9072   1.0804   0.00    0.0
2188 437580.000   2251420.1013    862817.9047   5885475.0169   5   9   1.1831   1.1008   2.5643   0.3006   0.9034   1.0820   0.00    0.0
2188 437610.000   2251420.4990    862816.0015   5885476.6175   5   9   1.1818   1.1013   2.5644   0.3003   0.8996   1.0836   0.00    0.0
2188 437640.000   2251420.4542    862817.4289   5885476.3253   5   9   1.1806   1.1018   2.5648   0.3000   0.8958   1.0853   0.00    0.0
2188 437670.000   2251420.1545    862817.6303   5885479.9154   5   9   1.1794   1.1023   2.5653   0.2996   0.8920   1.0869   0.00    0.0
2188 437700.000   2251420.0219    862817.8744   5885481.0651   5   9   1.1782   1.1029   2.5661   0.2992   0.8882   1.0887   0.00    0.0
2188 437730.000   2251420.6106    862817.8040   5885480.4659   5   9   1.1770   1.1034   2.5671   0.2988   0.8843   1.0904   0.00    0.0
2188 437760.000   2251420.6819    862818.7786   5885480.9248   5   9   1.1758   1.1040   2.5683   0.2983   0.8805   1.0922   0.00    0.0
2188 437790.000   2251420.5914    862817.9796   5885479.4908   5   9   1.1747   1.1046   2.5698   0.2978   0.8766   1.0940   0.00    0.0
2188 437820.000   2251420.3263    862817.7766   5885477.6356   5   8   1.1947   1.1173   3.1100   0.2272   0.6885   1.2616   0.00    0.0
2188 437850.000   2251420.3967    862818.3731   5885475.2709   5   8   1.1939   1.1178   3.1108   0.2260   0.6843   1.2643   0.00    0.0
2188 437880.000   2251420.4418    862817.6447   5885476.2804   5   8   1.1932   1.1184   3.1118   0.2248   0.6802   1.2670   0.00    0.0
2188 437910.000   2251420.4784    862818.3486   5885476.7180   5   8   1.1925   1.1190   3.1128   0.2236   0.6761   1.2696   0.00    0.0
2188 437940.000   2251420.9710    862818.0417   5885475.8369   5   8   1.1918   1.1195   3.1139   0.2223   0.6719   1.2723   0.00    0.0
2188 437970.000   2251420.4100    862818.6717   5885474.7004   5   8   1.1910   1.1201   3.1152   0.2211   0.6678   1.2748   0.00    0.0
2188 438000.000   2251419.3493    862818.4713   5885471.9502   5   8   1.1903   1.1207   3.1165   0.2198   0.6636   1.2774   0.00    0.0
2188 438030.000   2251419.9827    862817.1914   5885473.1011   5   8   1.1897   1.1213   3.1178   0.2184   0.6594   1.2799   0.00    0.0
2188 438060.000   2251419.6480    862817.8072   5885474.5141   5   8   1.1890   1.1220   3.1193   0.2171   0.6552   1.2824   0.00    0.0
2188 438090.000   2251421.0310    862817.8503   5885477.0087   5   8   1.1883   1.1226   3.1208   0.2157   0.6510   1.2848   0.00    0.0
2188 438120.000   2251419.8048    862818.2332   5885477.2370   5   8   1.1876   1.1233   3.1223   0.2142   0.6468   1.2872   0.00    0.0
2188 438150.000   2251420.5883    862817.9302   5885478.8786   5   8   1.1870   1.1240   3.1240   0.2128   0.6425   1.2895   0.00    0.0
2188 438180.000   2251419.2845    862818.4870   5885478.3753   5   8   1.1863   1.1247   3.1256   0.2113   0.6383   1.2918   0.00    0.0
2188 438210.000   2251419.9424    862818.0309   5885475.5905   5   8   1.1857   1.1254   3.1273   0.2098   0.6340   1.2941   0.00    0.0
2188 438240.000   2251420.5348    862817.8012   5885475.4715   5   8   1.1850   1.1261   3.1291   0.2082   0.6297   1.2963   0.00    0.0
2188 438270.000   2251420.0071    862818.1808   5885477.3789   5   8   1.1844   1.1269   3.1309   0.2067   0.6253   1.2985   0.00    0.0
2188 438300.000   2251420.9169    862818.8311   5885476.8518   5   8   1.1837   1.1277   3.1327   0.2050   0.6210   1.3006   0.00    0.0
2188 438330.000   2251419.9410    862817.6693   5885474.2607   5   8   1.1831   1.1284   3.1345   0.2034   0.6166   1.3027   0.00    0.0
2188 438360.000   2251420.4390    862818.6913   5885477.4894   5   8   1.1825   1.1292   3.1364   0.2017   0.6121   1.3047   0.00    0.0
2188 438390.000   2251419.9063    862818.2573   5885479.0848   5   8   1.1818   1.1301   3.1383   0.2000   0.6077   1.3067   0.00    0.0
2188 438420.000   2251420.7948    862818.4415   5885474.2338   5   8   1.1812   1.1309   3.1401   0.1983   0.6032   1.3086   0.00    0.0
2188 438450.000   2251420.0858    862817.8105   5885478.4581   5   8   1.1806   1.1317   3.1420   0.1965   0.5987   1.3105   0.00    0.0
2188 438480.000   2251420.0036    862817.3671   5885473.8839   5   8   1.1800   1.1326   3.1439   0.1947   0.5942   1.3123   0.00    0.0
2188 438510.000   2251420.6281    862817.7989   5885474.5373   5   8   1.1793   1.1335   3.1458   0.1929   0.5896   1.3141   0.00    0.0
2188 438540.000   2251421.1559    862817.7309   5885477.2705   5   8   1.1787   1.1344   3.1477   0.1910   0.5850   1.3158   0.00    0.0
2188 438570.000   2251420.4842    862817.3963   5885477.9222   5   9   1.1481   1.0147   2.9991  -0.3141  -0.3915   1.2173   0.00    0.0
2188 438600.000   2251419.6080    862817.6965   5885477.6861   5   9   1.1476   1.0141   3.0025  -0.3163  -0.3991   1.2197   0.00    0.0
2188 438630.000   2251420.1840    862818.0670   5885475.6229   5   9   1.1470   1.0136   3.0061  -0.3184  -0.4064   1.2221   0.00    0.0
2188 438660.000   2251419.8715    862818.0483   5885475.6750   5   9   1.1465   1.0130   3.0097  -0.3204  -0.4134   1.2244   0.00    0.0
2188 438690.000   2251420.4098    862817.1178   5885474.7584   5   9   1.1460   1.0125   3.0133  -0.3224  -0.4200   1.2268   0.00    0.0
2188 438720.000   2251419.8029    862818.2822   5885475.2288   5   9   1.1455   1.0121   3.0169  -0.3242  -0.4263   1.2291   0.00    0.0
2188 438750.000   2251420.4431    862818.2215   5885477.1495   5   9   1.1450   1.0116   3.0206  -0.3261  -0.4323   1.2314   0.00    0.0
2188 438780.000   2251420.3020    862818.1913   5885477.2536   5   9   1.1445   1.0112   3.0243  -0.3278  -0.4380   1.2337   0.00    0.0
2188 438810.000   2251420.2831    862817.3299   5885476.2606   5   9   1.1441   1.0107   3.0280  -0.3295  -0.4434   1.2359   0.00    0.0
2188 438840.000   2251420.2622    862817.0500   5885475.7048   5   9   1.1436   1.0103   3.0317  -0.3311  -0.4486   1.2382   0.00    0.0
2188 438870.000   2251420.2902    862817.4086   5885473.4316   5   9   1.1432   1.0099   3.0355  -0.3326  -0.4535   1.2404   0.00    0.0
2188 438900.000   2251420.3033    862817.7685   5885475.6600   5   9   1.1427   1.0096   3.0392  -0.3341  -0.4581   1.2425   0.00    0.0
2188 438930.000   2251420.7192    862817.3898   5885476.2224   5   9   1.1423   1.0092   3.0429  -0.3355  -0.4625   1.2446   0.00    0.0
2188 438960.000   2251420.4914    862817.2524   5885476.8013   5   9   1.1419   1.0089   3.0466  -0.3368  -0.4666   1.2467   0.00    0.0
2188 438990.000   2251420.4277    862818.4143   5885477.7215   5   9   1.1415   1.0086   3.0503  -0.3381  -0.4706   1.2488   0.00    0.0
2188 439020.000   2251419.5372    862817.8944   5885474.5955   5   9   1.1410   1.0083   3.0539  -0.3393  -0.4743   1.2508   0.00    0.0
2188 439050.000   2251420.9130    862818.2976   5885477.2626   5   9   1.1406   1.0080   3.0576  -0.3405  -0.4777   1.2528   0.00    0.0
2188 439080.000   2251420.5354    862817.7467   5885475.4773   5   9   1.1402   1.0077   3.0611  -0.3415  -0.4810   1.2547   0.00    0.0
2188 439110.000   2251419.3896    862817.6621   5885477.1421   5   9   1.1399   1.0075   3.0647  -0.3425  -0.4840   1.2565   0.00    0.0
2188 439140.000   2251420.7931    862818.0808   5885478.5303   5   9   1.1395   1.0072   3.0682  -0.3435  -0.4868   1.2584   0.00    0.0
2188 439170.000   2251420.3903    862819.0808   5885477.8247   5   9   1.1391   1.0070   3.0716  -0.3444  -0.4895   1.2601   0.00    0.0
2188 439200.000   2251419.4258    862818.6736   5885477.7105   5   9   1.1387   1.0068   3.0750  -0.3452  -0.4919   1.2618   0.00    0.0
2188 439230.000   2251420.1612    862817.2364   5885478.3801   5   9   1.1383   1.0066   3.0783  -0.3460  -0.4941   1.2635   0.00    0.0
2188 439260.000   2251419.6691    862818.3090   5885475.6227   5   9   1.1379   1.0064   3.0815  -0.3467  -0.4961   1.2651   0.00    0.0
2188 439290.000   2251419.3314    862817.5348   5885475.4390   5   9   1.1376   1.0063   3.0847  -0.3473  -0.4979   1.2666   0.00    0.0
2188 439320.000   2251420.1682    862818.6887   5885475.8120   5   9   1.1372   1.0062   3.0878  -0.3479  -0.4994   1.2681   0.00    0.0
2188 439350.000   2251420.2591    862818.9625   5885477.0269   5   9   1.1368   1.0060   3.0908  -0.3484  -0.5008   1.2696   0.00    0.0
2188 439380.000   2251419.9974    862818.4595   5885476.0592   5   9   1.1365   1.0059   3.0937  -0.3488  -0.5020   1.2709   0.00    0.0
2188 439410.000   2251420.5277    862817.9336   5885474.1516   5   9   1.1361   1.0058   3.0965  -0.3492  -0.5030   1.2722   0.00    0.0
2188 439440.000   2251419.6018    862818.6017   5885476.0408   5   9   1.1357   1.0058   3.0993  -0.3495  -0.5039   1.2734   0.00    0.0
2188 439470.000   2251420.3500    862818.5293   5885476.3696   5   9   1.1353   1.0057   3.1019  -0.3498  -0.5045   1.2746   0.00    0.0
2188 439500.000   2251421.5635    862818.6001   5885479.5219   5   9   1.1350   1.0056   3.1044  -0.3500  -0.5049   1.2757   0.00    0.0
2188 439530.000   2251420.7244    862818.1695   5885477.5816   5   9   1.1346   1.0056   3.1069  -0.3501  -0.5051   1.2767   0.00    0.0
2188 439560.000   2251420.4053    862818.0615   5885474.9354   5   9   1.1342   1.0056   3.1092  -0.3502  -0.5051   1.2777   0.00    0.0
2188 439590.000   2251420.4743    862818.0302   5885476.6274   5   9   1.1339   1.0056   3.1114  -0.3502  -0.5050   1.2785   0.00    0.0
2188 439620.000   2251419.9846    862817.8131   5885477.0898   5   9   1.1335   1.0056   3.1135  -0.3502  -0.5046   1.2794   0.00    0.0
2188 439650.000   2251420.4003    862819.0156   5885475.9389   5   9   1.1331   1.0057   3.1154  -0.3500  -0.5040   1.2801   0.00    0.0
2188 439680.000   2251420.7175    862818.1178   5885477.2628   5   9   1.1327   1.0057   3.1173  -0.3499  -0.5033   1.2807   0.00    0.0
2188 439710.000   2251419.9946    862818.2069   5885476.4973   5   9   1.1323   1.0058   3.1190  -0.3496  -0.5023   1.2813   0.00    0.0
2188 439740.000   2251419.9221    862818.4759   5885476.3273   5   9   1.1320   1.0059   3.1206  -0.3494  -0.5012   1.2818   0.00    0.0
2188 439770.000   2251419.7766    862817.6868   5885474.2485   5   9   1.1316   1.0060   3.1220  -0.3490  -0.4998   1.2823   0.00    0.0
2188 439800.000   2251420.0473    862817.7407   5885475.9150   5   9   1.1312   1.0061   3.1233  -0.3486  -0.4983   1.2826   0.00    0.0
2188 439830.000   2251419.5555    862818.5139   5885474.7688   5   9   1.1308   1.0062   3.1245  -0.3481  -0.4966   1.2829   0.00    0.0
2188 439860.000   2251419.9258    862818.2449   5885476.4621   5   9   1.1304   1.0064   3.1256  -0.3476  -0.4946   1.2831   0.00    0.0
2188 439890.000   2251421.2966    862818.5448   5885477.3275   5   9   1.1300   1.0065   3.1265  -0.3470  -0.4925   1.2833   0.00    0.0
2188 439920.000   2251420.5791    862817.9835   5885476.8886   5   9   1.1296   1.0067   3.1273  -0.3463  -0.4901   1.2833   0.00    0.0
2188 439950.000   2251419.8802    862817.3934   5885476.0249   5   9   1.1292   1.0069   3.1279  -0.3456  -0.4875   1.2833   0.00    0.0
2188 439980.000   2251420.5291    862818.6699   5885476.8709   5   9   1.1288   1.0071   3.1284  -0.3448  -0.4848   1.2832   0.00    0.0
2188 440010.000   2251419.8348    862818.7590   5885476.3355   5   9   1.1284   1.0074   3.1287  -0.3440  -0.4818   1.2830   0.00    0.0
2188 440040.000   2251419.3973    862818.1352   5885474.3375   5   9   1.1280   1.0076   3.1289  -0.3431  -0.4786   1.2828   0.00    0.0
2188 440070.000   2251420.7822    862817.9080   5885474.8065   5   9   1.1276   1.0079   3.1290  -0.3421  -0.4752   1.2824   0.00    0.0
2188 440100.000   2251421.5695    862818.3918   5885474.9624   5   9   1.1272   1.0082   3.1289  -0.3411  -0.4715   1.2820   0.00    0.0
2188 440130.000   2251419.9926    862817.4213   5885475.8290   5   9   1.1268   1.0085   3.1287  -0.3400  -0.4677   1.2816   0.00    0.0
2188 440160.000   2251420.1679    862818.5789   5885476.1468   5   9   1.1264   1.0088   3.1284  -0.3388  -0.4636   1.2810   0.00    0.0
2188 440190.000   2251420.0838    862817.8530   5885476.1516   5   9   1.1260   1.0092   3.1279  -0.3376  -0.4593   1.2804   0.00    0.0
2188 440220.000   2251420.2883    862818.6841   5885477.4817   5   9   1.1256   1.0096   3.1273  -0.3364  -0.4547   1.2797   0.00    0.0
2188 440250.000   2251420.0902    862818.6645   5885475.8231   5   9   1.1251   1.0100   3.1265  -0.3350  -0.4499   1.2789   0.00    0.0
2188 440280.000   2251420.2850    862818.5785   5885478.2466   5   9   1.1247   1.0104   3.1256  -0.3336  -0.4449   1.2781   0.00    0.0
2188 440310.000   2251420.9552    862818.3903   5885477.5843   5   9   1.1243   1.0108   3.1245  -0.3322  -0.4396   1.2772   0.00    0.0
2188 440340.000   2251420.5466    862818.7294   5885474.5425   5   9   1.1239   1.0113   3.1234  -0.3307  -0.4340   1.2763   0.00    0.0
2188 440370.000   2251420.0269    862818.2564   5885476.4050   5   9   1.1235   1.0117   3.1220  -0.3291  -0.4282   1.2752   0.00    0.0
2188 440400.000   2251420.8688    862818.4432   5885476.5949   5   9   1.1231   1.0122   3.1206  -0.3274  -0.4221   1.2741   0.00    0.0
2188 440430.000   2251420.1731    862817.1292   5885477.1271   5   9   1.1227   1.0128   3.1190  -0.3257  -0.4157   1.2730   0.00    0.0
2188 440460.000   2251419.7772    862818.0832   5885475.8737   5   9   1.1223   1.0133   3.1173  -0.3240  -0.4090   1.2718   0.00    0.0
2188 440490.000   2251420.9307    862817.9978   5885479.0574   5   9   1.1220   1.0139   3.1155  -0.3221  -0.4020   1.2705   0.00    0.0
2188 440520.000   2251420.1315    862818.3037   5885474.2889   5   9   1.1216   1.0145   3.1136  -0.3203  -0.3947   1.2692   0.00    0.0
2188 440550.000   2251419.8402    862818.6447   5885475.4378   5   9   1.1212   1.0151   3.1116  -0.3183  -0.3871   1.2678   0.00    0.0
2188 440580.000   2251419.8304    862818.0032   5885477.2468   5   9   1.1208   1.0157   3.1094  -0.3163  -0.3791   1.2664   0.00    0.0
2188 440610.000   2251420.0541    862817.9523   5885475.3875   5   9   1.1205   1.0164   3.1071  -0.3142  -0.3707   1.2649   0.00    0.0
2188 440640.000   2251420.4799    862817.0898   5885476.6642   5   9   1.1201   1.0171   3.1047  -0.3120  -0.3619   1.2634   0.00    0.0
2188 440670.000   2251420.0714    862817.5696   5885477.1597   5   9   1.1197   1.0178   3.1023  -0.3098  -0.3527   1.2618   0.00    0.0
2188 440700.000   2251420.3763    862818.3905   5885477.2836   5   9   1.1194   1.0185   3.0997  -0.3075  -0.3431   1.2602   0.00    0.0
2188 440730.000   2251419.8080    862817.4235   5885476.1096   5   9   1.1191   1.0193   3.0970  -0.3052  -0.3330   1.2586   0.00    0.0
2188 440760.000   2251420.9253    862817.5538   5885477.2280   5   8   1.1568   1.1365   3.2599   0.2362   0.6404   1.3717   0.00    0.0
2188 440790.000   2251419.5436    862818.5505   5885475.1792   5   8   1.1565   1.1366   3.2591   0.2383   0.6473   1.3707   0.00    0.0
2188 440820.000   2251420.8173    862817.8961   5885479.3566   5   8   1.1561   1.1368   3.2583   0.2405   0.6541   1.3697   0.00    0.0
2188 440850.000   2251420.8561    862818.1773   5885477.5919   5   8   1.1558   1.1370   3.2572   0.2426   0.6609   1.3686   0.00    0.0
2188 440880.000   2251420.2632    862818.8360   5885476.4625   5   8   1.1554   1.1373   3.2561   0.2448   0.6675   1.3674   0.00    0.0
2188 440910.000   2251419.8834    862817.8041   5885476.5403   5   8   1.1551   1.1375   3.2548   0.2469   0.6741   1.3661   0.00    0.0
2188 440940.000   2251420.3157    862817.3783   5885476.6830   5   8   1.1547   1.1378   3.2533   0.2491   0.6805   1.3648   0.00    0.0
2188 440970.000   2251420.7172    862817.7349   5885476.7342   5   8   1.1544   1.1381   3.2518   0.2512   0.6869   1.3634   0.00    0.0
2188 441000.000   2251421.0517    862817.4676   5885478.3384   5   8   1.1541   1.1384   3.2500   0.2533   0.6931   1.3619   0.00    0.0
2188 441030.000   2251420.3621    862817.5501   5885475.9928   5   8   1.1537   1.1387   3.2482   0.2554   0.6993   1.3604   0.00    0.0
2188 441060.000   2251419.5684    862817.9868   5885476.0005   5   8   1.1534   1.1390   3.2462   0.2575   0.7053   1.3589   0.00    0.0
2188 441090.000   2251420.5606    862817.9143   5885476.1961   5   8   1.1531   1.1394   3.2441   0.2596   0.7113   1.3572   0.00    0.0
2188 441120.000   2251420.2956    862817.8571   5885476.8563   5   8   1.1528   1.1398   3.2418   0.2616   0.7171   1.3556   0.00    0.0
2188 441150.000   2251419.6730    862817.9127   5885475.9410   5   8   1.1525   1.1402   3.2395   0.2637   0.7229   1.3538   0.00    0.0
2188 441180.000   2251420.5122    862818.7475   5885477.0146   5   8   1.1522   1.1406   3.2370   0.2657   0.7285   1.3520   0.00    0.0
2188 441210.000   2251420.9871    862819.1380   5885476.9463   5   8   1.1520   1.1410   3.2344   0.2677   0.7340   1.3502   0.00    0.0
2188 441240.000   2251419.3748    862818.8788   5885474.6089   5   8   1.1517   1.1415   3.2316   0.2696   0.7394   1.3483   0.00    0.0
2188 441270.000   2251420.2489    862818.7239   5885476.2531   5   9   1.0206   1.1412   3.0538   0.3096   0.7733   1.1198   0.00    0.0
2188 441300.000   2251420.4656    862818.1941   5885478.5550   5   9   1.0199   1.1417   3.0526   0.3108   0.7778   1.1183   0.00    0.0
2188 441330.000   2251420.4817    862818.2232   5885476.9617   5   9   1.0192   1.1422   3.0514   0.3120   0.7822   1.1169   0.00    0.0
2188 441360.000   2251419.8345    862817.9145   5885476.3249   5   9   1.0185   1.1428   3.0500   0.3132   0.7864   1.1155   0.00    0.0
2188 441390.000   2251420.8669    862818.5593   5885479.0658   5   9   1.0179   1.1433   3.0486   0.3144   0.7906   1.1140   0.00    0.0
2188 441420.000   2251420.5975    862819.1171   5885475.5796   5   9   1.0172   1.1439   3.0471   0.3156   0.7946   1.1126   0.00    0.0
2188 441450.000   2251420.2243    862818.6915   5885477.3017   5   9   1.0166   1.1445   3.0455   0.3167   0.7986   1.1112   0.00    0.0
2188 441480.000   2251420.0105    862818.3242   5885477.2274   5   9   1.0161   1.1450   3.0439   0.3179   0.8025   1.1098   0.00    0.0
2188 441510.000   2251419.9122    862818.1941   5885476.8044   5   9   1.0155   1.1456   3.0422   0.3190   0.8062   1.1084   0.00    0.0
2188 441540.000   2251420.1657    862817.9795   5885476.6730   5   9   1.0150   1.1463   3.0404   0.3201   0.8099   1.1070   0.00    0.0
2188 441570.000   2251419.9221    862817.2907   5885474.7063   5   9   1.0145   1.1469   3.0386   0.3212   0.8135   1.1056   0.00    0.0
2188 441600.000   2251420.8661    862818.4326   5885475.4238   5   9   1.0141   1.1475   3.0367   0.3222   0.8170   1.1042   0.00    0.0
2188 441630.000   2251420.3664    862818.3405   5885475.9769   5   9   1.0136   1.1482   3.0347   0.3233   0.8203   1.1029   0.00    0.0
2188 441660.000   2251420.7238    862817.5415   5885475.1429   5   9   1.0132   1.1489   3.0326   0.3243   0.8236   1.1015   0.00    0.0
2188 441690.000   2251421.0763    862818.6346   5885477.3138   5   9   1.0128   1.1495   3.0305   0.3253   0.8268   1.1002   0.00    0.0
2188 441720.000   2251420.4566    862818.4451   5885476.6302   5   9   1.0125   1.1502   3.0283   0.3263   0.8299   1.0988   0.00    0.0
2188 441750.000   2251419.8786    862818.2357   5885475.6101   5   9   1.0121   1.1509   3.0261   0.3273   0.8329   1.0975   0.00    0.0
2188 441780.000   2251420.3473    862818.2933   5885476.5824   5   9