% program   : RTKPOST ver.2.4.3 b34
% inp file  : E:\GAMPII-GOOD\dataset_Win\obs\2021\351\MGEX\daily\kiru3510.21o
% inp file  : E:\Navigation_Learn\GNSS\RTKLIB-b34k\data\data_IGM-A1_Vehicle_open_20211217-nsh\brdm3510.21p
% obs start : 2021/12/17 00:00:00.0 GPST (week2188 432000.0s)
% obs end   : 2021/12/17 23:59:30.0 GPST (week2188 518370.0s)
% pos mode  : Single
% elev mask : 10.0 deg
% ionos opt : Broadcast
% tropo opt : Saastamoinen
% ephemeris : Broadcast
% navi sys  : GPS
%
% (x/y/z-ecef=WGS84,Q=1:fix,2:float,3:sbas,4:dgps,5:single,6:ppp,ns=# of satellites)
%  GPST                      x-ecef(m)      y-ecef(m)      z-ecef(m)   Q  ns   sdx(m)   sdy(m)   sdz(m)  sdxy(m)  sdyz(m)  sdzx(m) age(s)  ratio
2021/12/17 00:00:00.000   2251421.0530    862817.0742   5885480.2125   5   9   2.7883   1.6932   9.4223  -0.7929  -1.2831   4.5586   0.00    0.0
2021/12/17 00:00:30.000   2251420.3137    862816.6892   5885477.2206   5   9   2.7750   1.6934   9.3483  -0.7968  -1.2961   4.5228   0.00    0.0
2021/12/17 00:01:00.000   2251420.5794    862817.1276   5885476.7905   5   9   2.7613   1.6937   9.2721  -0.8003  -1.3079   4.4857   0.00    0.0
2021/12/17 00:01:30.000   2251420.2406    862817.2411   5885478.0610   5   9   2.7472   1.6941   9.1940  -0.8034  -1.3187   4.4477   0.00    0.0
2021/12/17 00:02:00.000   2251421.0812    862817.1838   5885478.2616   5   9   2.7328   1.6944   9.1141  -0.8061  -1.3283   4.4087   0.00    0.0
2021/12/17 00:02:30.000   2251420.9883    862817.1398   5885478.3020   5   9   2.7182   1.6947   9.0328  -0.8085  -1.3370   4.3688   0.00    0.0
2021/12/17 00:03:00.000   2251421.3250    862817.1208   5885480.7789   5   9   2.7033   1.6950   8.9501  -0.8104  -1.3447   4.3283   0.00    0.0
2021/12/17 00:03:30.000   2251421.0331    862817.2662   5885480.0885   5   9   2.6882   1.6953   8.8664  -0.8120  -1.3515   4.2872   0.00    0.0
2021/12/17 00:04:00.000   2251421.0278    862817.0791   5885478.3917   5   9   2.6729   1.6956   8.7818  -0.8133  -1.3575   4.2456   0.00    0.0
2021/12/17 00:04:30.000   2251420.7678    862816.9620   5885478.4285   5   9   2.6576   1.6959   8.6966  -0.8143  -1.3627   4.2036   0.00    0.0
2021/12/17 00:05:00.000   2251421.1452    862817.4242   5885479.1708   5   9   2.6422   1.6962   8.6108  -0.8150  -1.3672   4.1612   0.00    0.0
2021/12/17 00:05:30.000   2251421.0243    862816.8866   5885478.5564   5   9   2.6268   1.6966   8.5247  -0.8154  -1.3709   4.1186   0.00    0.0
2021/12/17 00:06:00.000   2251420.9394    862817.1674   5885480.0555   5   9   2.6114   1.6969   8.4384  -0.8155  -1.3741   4.0759   0.00    0.0
2021/12/17 00:06:30.000   2251421.1647    862817.0456   5885479.6861   5   9   2.5961   1.6972   8.3521  -0.8154  -1.3766   4.0331   0.00    0.0
2021/12/17 00:07:00.000   2251421.2205    862817.3278   5885479.3139   5   9   2.5808   1.6975   8.2659  -0.8151  -1.3786   3.9902   0.00    0.0
2021/12/17 00:07:30.000   2251420.8189    862816.8733   5885479.7310   5   9   2.5656   1.6978   8.1799  -0.8146  -1.3800   3.9474   0.00    0.0
2021/12/17 00:08:00.000   2251420.6713    862817.2622   5885479.6372   5   9   2.5505   1.6982   8.0942  -0.8138  -1.3810   3.9047   0.00    0.0
2021/12/17 00:08:30.000   2251420.5726    862817.2596   5885478.6606   5   9   2.5355   1.6985   8.0090  -0.8129  -1.3815   3.8622   0.00    0.0
2021/12/17 00:09:00.000   2251421.0534    862817.0495   5885478.8510   5   9   2.5207   1.6988   7.9243  -0.8118  -1.3817   3.8199   0.00    0.0
2021/12/17 00:09:30.000   2251420.3972    862816.6629   5885478.5445   5   9   2.5061   1.6991   7.8403  -0.8105  -1.3814   3.7778   0.00    0.0
2021/12/17 00:10:00.000   2251420.9079    862817.0615   5885480.3434   5   9   2.4917   1.6995   7.7569  -0.8091  -1.3808   3.7360   0.00    0.0
2021/12/17 00:10:30.000   2251420.5046    862817.1471   5885477.6509   5   9   2.4775   1.6998   7.6744  -0.8076  -1.3799   3.6946   0.00    0.0
2021/12/17 00:11:00.000   2251420.9865    862816.9784   5885478.3699   5   9   2.4634   1.7002   7.5926  -0.8059  -1.3787   3.6535   0.00    0.0
2021/12/17 00:11:30.000   2251421.1974    862817.1191   5885479.2470   5   9   2.4496   1.7005   7.5117  -0.8041  -1.3772   3.6127   0.00    0.0
2021/12/17 00:12:00.000   2251420.5169    862816.5101   5885478.3955   5   9   2.4361   1.7008   7.4318  -0.8022  -1.3755   3.5724   0.00    0.0
2021/12/17 00:12:30.000   2251420.8191    862816.8817   5885477.9083   5   9   2.4227   1.7012   7.3529  -0.8002  -1.3735   3.5325   0.00    0.0
2021/12/17 00:13:00.000   2251420.6457    862817.2262   5885479.2919   5   9   2.4097   1.7016   7.2749  -0.7981  -1.3714   3.4931   0.00    0.0
2021/12/17 00:13:30.000   2251420.9230    862816.9047   5885479.0903   5   9   2.3968   1.7019   7.1980  -0.7960  -1.3691   3.4542   0.00    0.0
2021/12/17 00:14:00.000   2251420.3341    862817.1931   5885478.0560   5   9   2.3843   1.7023   7.1222  -0.7937  -1.3666   3.4157   0.00    0.0
2021/12/17 00:14:30.000   2251421.0527    862816.9439   5885478.8336   5   9   2.3720   1.7027   7.0475  -0.7914  -1.3640   3.3777   0.00    0.0
2021/12/17 00:15:00.000   2251420.7005    862816.9407   5885478.9191   5   9   2.3599   1.7031   6.9739  -0.7891  -1.3613   3.3402   0.00    0.0
2021/12/17 00:15:30.000   2251421.0325    862817.0839   5885479.1447   5   9   2.3481   1.7035   6.9014  -0.7866  -1.3585   3.3033   0.00    0.0
2021/12/17 00:16:00.000   2251420.8542    862816.6030   5885477.2005   5   9   2.3366   1.7039   6.8301  -0.7842  -1.3555   3.2668   0.00    0.0
2021/12/17 00:16:30.000   2251420.5718    862816.7646   5885477.7193   5   9   2.3254   1.7043   6.7599  -0.7817  -1.3525   3.2309   0.00    0.0
2021/12/17 00:17:00.000   2251420.8833    862816.8071   5885478.2352   5   9   2.3144   1.7047   6.6908  -0.7791  -1.3495   3.1955   0.00    0.0
2021/12/17 00:17:30.000   2251420.8061    862817.2783   5885478.5167   5   9   2.3036   1.7051   6.6229  -0.7766  -1.3463   3.1607   0.00    0.0
2021/12/17 00:18:00.000   2251420.5799    862816.6908   5885476.8655   5  10   2.2821   1.6323   5.9356  -0.8427  -1.7836   3.0246   0.00    0.0
2021/12/17 00:18:30.000   2251420.7525    862816.8267   5885476.0264   5  10   2.2740   1.6312   5.9007  -0.8341  -1.7739   3.0030   0.00    0.0
2021/12/17 00:19:00.000   2251420.5967    862816.5440   5885477.7096   5  10   2.2659   1.6302   5.8659  -0.8255  -1.7640   2.9814   0.00    0.0
2021/12/17 00:19:30.000   2251420.3064    862817.0822   5885476.9279   5  10   2.2579   1.6291   5.8309  -0.8167  -1.7540   2.9596   0.00    0.0
2021/12/17 00:20:00.000   2251420.6393    862816.7670   5885478.0355   5  10   2.2498   1.6281   5.7960  -0.8078  -1.7440   2.9378   0.00    0.0
2021/12/17 00:20:30.000   2251420.8368    862817.1714   5885478.1011   5  10   2.2418   1.6271   5.7611  -0.7988  -1.7338   2.9160   0.00    0.0
2021/12/17 00:21:00.000   2251420.6954    862816.7204   5885477.9422   5  10   2.2338   1.6261   5.7262  -0.7897  -1.7236   2.8941   0.00    0.0
2021/12/17 00:21:30.000   2251420.4967    862816.9114   5885478.2963   5  10   2.2258   1.6251   5.6913  -0.7805  -1.7134   2.8722   0.00    0.0
2021/12/17 00:22:00.000   2251420.6252    862817.0917   5885479.1707   5  10   2.2179   1.6241   5.6565  -0.7712  -1.7031   2.8502   0.00    0.0
2021/12/17 00:22:30.000   2251420.4482    862817.0353   5885479.1649   5  10   2.2100   1.6232   5.6219  -0.7619  -1.6928   2.8283   0.00    0.0
2021/12/17 00:23:00.000   2251420.4427    862817.1514   5885478.7564   5  10   2.2022   1.6223   5.5873  -0.7525  -1.6825   2.8063   0.00    0.0
2021/12/17 00:23:30.000   2251420.7169    862816.8956   5885478.4813   5  10   2.1945   1.6214   5.5528  -0.7429  -1.6722   2.7844   0.00    0.0
2021/12/17 00:24:00.000   2251420.6642    862816.7772   5885477.7281   5  10   2.1868   1.6206   5.5185  -0.7334  -1.6619   2.7625   0.00    0.0
2021/12/17 00:24:30.000   2251420.5737    862816.4231   5885475.2370   5  10   2.1792   1.6197   5.4844  -0.7237  -1.6516   2.7407   0.00    0.0
2021/12/17 00:25:00.000   2251420.5254    862817.0266   5885478.3266   5  10   2.1717   1.6189   5.4504  -0.7140  -1.6413   2.7189   0.00    0.0
2021/12/17 00:25:30.000   2251420.7523    862817.0922   5885477.0085   5  10   2.1642   1.6182   5.4166  -0.7042  -1.6310   2.6971   0.00    0.0
2021/12/17 00:26:00.000   2251420.5311    862816.5746   5885477.7691   5  10   2.1569   1.6174   5.3831  -0.6944  -1.6207   2.6754   0.00    0.0
2021/12/17 00:26:30.000   2251420.7769    862817.0752   5885476.8200   5  10   2.1496   1.6167   5.3497  -0.6844  -1.6105   2.6538   0.00    0.0
2021/12/17 00:27:00.000   2251420.5486    862816.9196   5885476.7083   5  10   2.1424   1.6161   5.3166  -0.6744  -1.6003   2.6323   0.00    0.0
2021/12/17 00:27:30.000   2251420.6178    862816.7410   5885478.9684   5  10   2.1353   1.6154   5.2837  -0.6644  -1.5902   2.6108   0.00    0.0
2021/12/17 00:28:00.000   2251420.8822    862816.5907   5885477.0299   5  10   2.1283   1.6149   5.2510  -0.6543  -1.5801   2.5894   0.00    0.0
2021/12/17 00:28:30.000   2251420.2424    862816.6395   5885477.7925   5  10   2.1213   1.6143   5.2186  -0.6441  -1.5701   2.5681   0.00    0.0
2021/12/17 00:29:00.000   2251420.7277    862816.7701   5885476.9560   5  10   2.1145   1.6138   5.1865  -0.6339  -1.5602   2.5469   0.00    0.0
2021/12/17 00:29:30.000   2251420.5149    862816.8964   5885475.3866   5  10   2.1078   1.6133   5.1547  -0.6236  -1.5503   2.5258   0.00    0.0
2021/12/17 00:30:00.000   2251420.9661    862816.6354   5885476.2608   5  10   2.1012   1.6128   5.1231  -0.6132  -1.5405   2.5049   0.00    0.0
2021/12/17 00:30:30.000   2251420.5899    862816.6196   5885477.0596   5  10   2.0946   1.6124   5.0918  -0.6027  -1.5307   2.4840   0.00    0.0
2021/12/17 00:31:00.000   2251420.5631    862816.6063   5885476.8127   5  10   2.0882   1.6121   5.0609  -0.5922  -1.5211   2.4632   0.00    0.0
2021/12/17 00:31:30.000   2251420.5097    862816.5019   5885477.4314   5  10   2.0819   1.6117   5.0302  -0.5816  -1.5115   2.4426   0.00    0.0
2021/12/17 00:32:00.000   2251420.3477    862817.2541   5885476.8638   5  10   2.0757   1.6115   4.9998  -0.5709  -1.5021   2.4221   0.00    0.0
2021/12/17 00:32:30.000   2251420.0234    862816.9489   5885477.1857   5  10   2.0696   1.6112   4.9698  -0.5602  -1.4927   2.4017   0.00    0.0
2021/12/17 00:33:00.000   2251420.0053    862816.4530   5885478.3114   5  10   2.0636   1.6110   4.9401  -0.5493  -1.4834   2.3814   0.00    0.0
2021/12/17 00:33:30.000   2251420.2974    862816.3305   5885478.0530   5  10   2.0577   1.6108   4.9107  -0.5384  -1.4742   2.3612   0.00    0.0
2021/12/17 00:34:00.000   2251420.5755    862816.7740   5885477.5809   5   9   2.0828   1.7813   4.9401  -0.0774  -1.2531   2.3984   0.00    0.0
2021/12/17 00:34:30.000   2251420.1202    862816.2421   5885478.1433   5   9   2.0772   1.7805   4.9130   0.0696  -1.2406   2.3796   0.00    0.0
2021/12/17 00:35:00.000   2251420.4527    862816.5500   5885476.8903   5   9   2.0717   1.7797   4.8862   0.1244  -1.2283   2.3608   0.00    0.0
2021/12/17 00:35:30.000   2251420.7048    862817.0308   5885476.0390   5   9   2.0662   1.7789   4.8598   0.1610  -1.2161   2.3422   0.00    0.0
2021/12/17 00:36:00.000   2251420.3379    862816.7422   5885478.4859   5   9   2.0609   1.7782   4.8337   0.1901  -1.2040   2.3237   0.00    0.0
2021/12/17 00:36:30.000   2251420.4143    862816.5166   5885478.0887   5   9   2.0556   1.7776   4.8079   0.2149  -1.1922   2.3053   0.00    0.0
2021/12/17 00:37:00.000   2251420.3363    862817.2319   5885476.7778   5   9   2.0504   1.7770   4.7824   0.2368  -1.1805   2.2870   0.00    0.0
2021/12/17 00:37:30.000   2251420.7817    862817.3372   5885477.1643   5   9   2.0454   1.7765   4.7573   0.2564  -1.1689   2.2688   0.00    0.0
2021/12/17 00:38:00.000   2251420.4984    862816.8609   5885476.4948   5   9   2.0404   1.7760   4.7325   0.2743  -1.1576   2.2508   0.00    0.0
2021/12/17 00:38:30.000   2251420.9686    862816.9093   5885476.7195   5   9   2.0355   1.7755   4.7080   0.2907  -1.1463   2.2328   0.00    0.0
2021/12/17 00:39:00.000   2251420.5830    862817.2932   5885476.6083   5   9   2.0307   1.7751   4.6839   0.3060  -1.1353   2.2149   0.00    0.0
2021/12/17 00:39:30.000   2251420.4209    862816.9257   5885477.2103   5   9   2.0260   1.7747   4.6601   0.3203  -1.1244   2.1971   0.00    0.0
2021/12/17 00:40:00.000   2251420.3800    862816.6505   5885477.3828   5   9   2.0213   1.7744   4.6366   0.3338  -1.1137   2.1795   0.00    0.0
2021/12/17 00:40:30.000   2251420.6474    862817.0328   5885477.5153   5   9   2.0168   1.7741   4.6135   0.3464  -1.1032   2.1619   0.00    0.0
2021/12/17 00:41:00.000   2251420.6504    862817.2460   5885476.7880   5   9   2.0124   1.7739   4.5907   0.3584  -1.0929   2.1445   0.00    0.0
2021/12/17 00:41:30.000   2251420.4966    862816.8318   5885478.0873   5   9   2.0080   1.7737   4.5683   0.3698  -1.0827   2.1271   0.00    0.0
2021/12/17 00:42:00.000   2251420.4244    862816.8142   5885477.7079   5   9   2.0038   1.7736   4.5462   0.3807  -1.0727   2.1099   0.00    0.0
2021/12/17 00:42:30.000   2251420.4327    862817.0782   5885477.1157   5   9   1.9996   1.7735   4.5244   0.3910  -1.0629   2.0927   0.00    0.0
2021/12/17 00:43:00.000   2251420.0651    862816.8345   5885478.8141   5   9   1.9955   1.7734   4.5029   0.4009  -1.0533   2.0756   0.00    0.0
2021/12/17 00:43:30.000   2251420.6600    862817.2252   5885476.5898   5   9   1.9915   1.7734   4.4818   0.4104  -1.0438   2.0586   0.00    0.0
2021/12/17 00:44:00.000   2251420.3030    862817.2341   5885477.2294   5   9   1.9876   1.7734   4.4611   0.4195  -1.0346   2.0418   0.00    0.0
2021/12/17 00:44:30.000   2251420.1728    862817.0012   5885478.1058   5   9   1.9838   1.7735   4.4407   0.4282  -1.0255   2.0250   0.00    0.0
2021/12/17 00:45:00.000   2251420.3363    862816.9799   5885475.8595   5   9   1.9801   1.7736   4.4206   0.4366  -1.0166   2.0082   0.00    0.0
2021/12/17 00:45:30.000   2251420.5897    862817.4185   5885475.3352   5   9   1.9765   1.7738   4.4008   0.4447  -1.0079   1.9916   0.00    0.0
2021/12/17 00:46:00.000   2251420.3620    862816.9396   5885476.4373   5   9   1.9729   1.7740   4.3814   0.4525  -0.9994   1.9751   0.00    0.0
2021/12/17 00:46:30.000   2251420.0463    862816.9947   5885476.8516   5   9   1.9695   1.7743   4.3624   0.4600  -0.9910   1.9586   0.00    0.0
2021/12/17 00:47:00.000   2251420.3219    862817.2012   5885478.5244   5   9   1.9661   1.7746   4.3437   0.4673  -0.9829   1.9422   0.00    0.0
2021/12/17 00:47:30.000   2251420.0731    862816.7455   5885477.1030   5   9   1.9629   1.7749   4.3253   0.4743  -0.9750   1.9258   0.00    0.0
2021/12/17 00:48:00.000   2251420.0179    862817.4281   5885475.3141   5   9   1.9597   1.7753   4.3073   0.4811  -0.9672   1.9096   0.00    0.0
2021/12/17 00:48:30.000   2251420.3802    862817.0551   5885476.3039   5   9   1.9566   1.7757   4.2896   0.4877  -0.9597   1.8934   0.00    0.0
2021/12/17 00:49:00.000   2251420.3124    862816.6886   5885477.1157   5   9   1.9536   1.7762   4.2722   0.4941  -0.9523   1.8772   0.00    0.0
2021/12/17 00:49:30.000   2251420.0273    862816.7452   5885477.7212   5   9   1.9506   1.7767   4.2552   0.5004  -0.9452   1.8612   0.00    0.0
2021/12/17 00:50:00.000   2251420.2370    862817.5720   5885477.7009   5   9   1.9478   1.7772   4.2386   0.5064  -0.9382   1.8451   0.00    0.0
2021/12/17 00:50:30.000   2251420.4019    862816.9008   5885479.7527   5   9   1.9450   1.7778   4.2223   0.5123  -0.9315   1.8291   0.00    0.0
2021/12/17 00:51:00.000   2251420.5952    862817.3466   5885475.5745   5   8   2.0291   1.7896   6.2130   0.6208  -1.3296   0.7772   0.00    0.0
2021/12/17 00:51:30.000   2251420.4317    862817.2431   5885475.0590   5   9   1.8957   1.6955   6.2044  -0.1507  -1.3675   0.6077   0.00    0.0
2021/12/17 00:52:00.000   2251420.0470    862816.6985   5885476.2869   5   9   1.8961   1.6951   6.1998  -0.1304  -1.3578   0.5462   0.00    0.0
2021/12/17 00:52:30.000   2251420.2897    862816.9016   5885475.8074   5   9   1.8966   1.6947   6.1950  -0.1067  -1.3481   0.4773   0.00    0.0
2021/12/17 00:53:00.000   2251420.1039    862817.5556   5885474.6391   5   9   1.8972   1.6943   6.1901  -0.0767  -1.3384   0.3971   0.00    0.0
2021/12/17 00:53:30.000   2251419.5474    862817.4142   5885473.8231   5   9   1.8979   1.6940   6.1850  -0.0220  -1.3288   0.2967   0.00    0.0
2021/12/17 00:54:00.000   2251420.3460    862817.3853   5885474.9310   5   9   1.8987   1.6938   6.1797   0.0695  -1.3193   0.1372   0.00    0.0
2021/12/17 00:54:30.000   2251420.0326    862817.3150   5885475.8596   5   9   1.8996   1.6935   6.1742   0.1002  -1.3097  -0.2234   0.00    0.0
2021/12/17 00:55:00.000   2251419.7531    862817.1017   5885476.6752   5   9   1.9005   1.6934   6.1686   0.1232  -1.3002  -0.3438   0.00    0.0
2021/12/17 00:55:30.000   2251420.4642    862817.1665   5885476.1421   5   9   1.9015   1.6933   6.1628   0.1421  -1.2908  -0.4313   0.00    0.0
2021/12/17 00:56:00.000   2251419.8233    862816.8375   5885475.5349   5   9   1.9026   1.6932   6.1568   0.1586  -1.2815  -0.5033   0.00    0.0
2021/12/17 00:56:30.000   2251420.2398    862817.4179   5885475.3546   5   9   1.9038   1.6932   6.1508   0.1732  -1.2722  -0.5658   0.00    0.0
2021/12/17 00:57:00.000   2251420.1038    862817.2092   5885476.6022   5   9   1.9051   1.6932   6.1445   0.1865  -1.2630  -0.6216   0.00    0.0
2021/12/17 00:57:30.000   2251420.0020    862816.8455   5885477.1334   5   9   1.9064   1.6933   6.1382   0.1987  -1.2539  -0.6725   0.00    0.0
2021/12/17 00:58:00.000   2251420.1797    862817.2162   5885475.9930   5   9   1.9078   1.6935   6.1317   0.2100  -1.2448  -0.7194   0.00    0.0
2021/12/17 00:58:30.000   2251420.2882    862817.2349   5885477.0629   5   9   1.9093   1.6936   6.1250   0.2205  -1.2359  -0.7630   0.00    0.0
2021/12/17 00:59:00.000   2251419.6185    862817.5210   5885475.0257   5   9   1.9108   1.6939   6.1183   0.2304  -1.2271  -0.8040   0.00    0.0
2021/12/17 00:59:30.000   2251419.9761    862816.9197   5885474.2562   5   9   1.9124   1.6942   6.1114   0.2398  -1.2184  -0.8426   0.00    0.0
2021/12/17 01:00:00.000   2251420.4340    862817.5635   5885474.4127   5   9   1.8395   1.6751   5.8939   0.4440  -1.0282  -1.2705   0.00    0.0
2021/12/17 01:00:30.000   2251419.7081    862817.4680   5885475.7396   5   9   1.8410   1.6761   5.8926   0.4465  -1.0242  -1.2907   0.00    0.0
2021/12/17 01:01:00.000   2251420.0554    862817.1178   5885476.3252   5   9   1.8426   1.6772   5.8912   0.4490  -1.0204  -1.3105   0.00    0.0
2021/12/17 01:01:30.000   2251420.2046    862817.5498   5885474.5146   5   9   1.8443   1.6783   5.8897   0.4515  -1.0167  -1.3297   0.00    0.0
2021/12/17 01:02:00.000   2251419.9428    862817.2939   5885475.9820   5   9   1.8460   1.6794   5.8881   0.4539  -1.0132  -1.3484   0.00    0.0
2021/12/17 01:02:30.000   2251419.6003    862817.6588   5885476.9632   5   9   1.8477   1.6806   5.8863   0.4563  -1.0097  -1.3667   0.00    0.0
2021/12/17 01:03:00.000   2251419.8762    862818.3271   5885473.8403   5   9   1.8494   1.6818   5.8845   0.4586  -1.0065  -1.3846   0.00    0.0
2021/12/17 01:03:30.000   2251419.8523    862817.6335   5885475.7543   5   9   1.8512   1.6831   5.8826   0.4609  -1.0033  -1.4020   0.00    0.0
2021/12/17 01:04:00.000   2251420.0470    862817.5432   5885474.2106   5   9   1.8530   1.6844   5.8805   0.4632  -1.0004  -1.4189   0.00    0.0
2021/12/17 01:04:30.000   2251419.5668    862817.4706   5885476.4886   5   9   1.8549   1.6857   5.8784   0.4655  -0.9976  -1.4355   0.00    0.0
2021/12/17 01:05:00.000   2251419.9570    862817.3996   5885476.0715   5   9   1.8567   1.6871   5.8762   0.4678  -0.9950  -1.4517   0.00    0.0
2021/12/17 01:05:30.000   2251419.8225    862815.9932   5885483.5951   5   8   1.8804   3.0276  13.7841   0.9686  -5.6853  -2.3900   0.00    0.0
2021/12/17 01:06:00.000   2251419.8632    862816.1010   5885481.4783   5   8   1.8860   3.0492  13.9381   1.0029  -5.7501  -2.4695   0.00    0.0
2021/12/17 01:06:30.000   2251419.5251    862816.0571   5885480.5492   5   8   1.8918   3.0705  14.0905   1.0370  -5.8141  -2.5483   0.00    0.0
2021/12/17 01:07:00.000   2251419.7452    862815.7876   5885484.0830   5   7   2.0952   3.0929  14.3401   1.0318  -5.8902  -2.3248   0.00    0.0
2021/12/17 01:07:30.000   2251420.1465    862816.2429   5885483.9824   5   7   2.0984   3.1139  14.4978   1.0615  -5.9543  -2.3976   0.00    0.0
2021/12/17 01:08:00.000   2251420.0014    862816.3223   5885483.4140   5   7   2.1019   3.1346  14.6531   1.0908  -6.0172  -2.4696   0.00    0.0
2021/12/17 01:08:30.000   2251420.0122    862816.0474   5885482.2955   5   7   2.1056   3.1548  14.8057   1.1198  -6.0787  -2.5408   0.00    0.0
2021/12/17 01:09:00.000   2251420.2832    862816.9066   5885483.4422   5   6   2.1507   3.1897  15.8491   1.2040  -6.0034  -2.1487   0.00    0.0
2021/12/17 01:09:30.000   2251419.5480    862815.6823   5885483.7854   5   6   2.1517   3.2043  16.1000   1.2210  -6.0760  -2.2199   0.00    0.0
2021/12/17 01:10:00.000   2251420.2303    862816.5480   5885481.9328   5   6   2.1529   3.2188  16.3555   1.2383  -6.1492  -2.2919   0.00    0.0
2021/12/17 01:10:30.000   2251419.4236    862815.4331   5885485.4878   5   6   2.1542   3.2332  16.6155   1.2557  -6.2228  -2.3645   0.00    0.0
2021/12/17 01:11:00.000   2251419.5241    862816.0529   5885484.3651   5   6   2.1557   3.2475  16.8798   1.2734  -6.2968  -2.4380   0.00    0.0
2021/12/17 01:11:30.000   2251419.9309    862816.2973   5885483.9311   5   6   2.1574   3.2616  17.1481   1.2912  -6.3711  -2.5121   0.00    0.0
2021/12/17 01:12:00.000   2251420.1820    862816.3476   5885479.2707   5   6   2.1592   3.2754  17.4202   1.3092  -6.4454  -2.5870   0.00    0.0
2021/12/17 01:12:30.000   2251419.9865    862816.7693   5885480.0771   5   6   2.1612   3.2889  17.6957   1.3273  -6.5197  -2.6625   0.00    0.0
2021/12/17 01:13:00.000   2251419.4417    862816.4533   5885484.5626   5   6   2.1634   3.3021  17.9741   1.3456  -6.5936  -2.7387   0.00    0.0
2021/12/17 01:13:30.000   2251419.8504    862816.7416   5885482.1044   5   6   2.1658   3.3149  18.2550   1.3639  -6.6671  -2.8154   0.00    0.0
2021/12/17 01:14:00.000   2251420.0046    862816.3278   5885481.9951   5   6   2.1684   3.3271  18.5379   1.3822  -6.7399  -2.8925   0.00    0.0
2021/12/17 01:14:30.000   2251419.6892    862816.3167   5885485.3286   5   6   2.1711   3.3389  18.8221   1.4005  -6.8116  -2.9701   0.00    0.0
2021/12/17 01:15:00.000   2251419.5214    862815.7179   5885487.3952   5   6   2.1741   3.3499  19.1070   1.4188  -6.8821  -3.0479   0.00    0.0
2021/12/17 01:15:30.000   2251419.8392    862816.7876   5885482.4273   5   6   2.1772   3.3602  19.3917   1.4369  -6.9510  -3.1258   0.00    0.0
2021/12/17 01:16:00.000   2251419.7087    862816.6660   5885481.3449   5   6   2.1805   3.3697  19.6754   1.4549  -7.0180  -3.2037   0.00    0.0
2021/12/17 01:16:30.000   2251420.0888    862816.5553   5885484.3170   5   6   2.1839   3.3783  19.9572   1.4726  -7.0827  -3.2814   0.00    0.0
2021/12/17 01:17:00.000   2251419.5085    862816.2355   5885483.5644   5   6   2.1876   3.3858  20.2359   1.4900  -7.1447  -3.3586   0.00    0.0
2021/12/17 01:17:30.000   2251419.9043    862816.6517   5885484.2416   5   6   2.1913   3.3922  20.5105   1.5071  -7.2036  -3.4353   0.00    0.0
2021/12/17 01:18:00.000   2251420.2824    862817.1570   5885479.9551   5   6   2.1953   3.3974  20.7798   1.5237  -7.2591  -3.5111   0.00    0.0
2021/12/17 01:18:30.000   2251419.8584    862816.7884   5885479.7784   5   6   2.1993   3.4012  21.0425   1.5397  -7.3106  -3.5858   0.00    0.0
2021/12/17 01:19:00.000   2251419.6045    862816.4270   5885480.4080   5   6   2.2034   3.4036  21.2973   1.5551  -7.3577  -3.6592   0.00    0.0
2021/12/17 01:19:30.000   2251420.2458    862816.4717   5885483.6009   5   6   2.2077   3.4044  21.5426   1.5697  -7.4000  -3.7309   0.00    0.0
2021/12/17 01:20:00.000   2251419.9757    862816.6010   5885483.2351   5   6   2.2119   3.4035  21.7772   1.5836  -7.4369  -3.8006   0.00    0.0
2021/12/17 01:20:30.000   2251419.8369    862816.2643   5885485.3116   5   6   2.2162   3.4009  21.9994   1.5965  -7.4681  -3.8681   0.00    0.0
2021/12/17 01:21:00.000   2251420.4870    862817.8278   5885475.7564   5   7   2.0655   2.0744   4.6078   0.6282   1.5103   1.4970   0.00    0.0
2021/12/17 01:21:30.000   2251420.3112    862817.8205   5885474.8586   5   7   2.0640   2.0758   4.6230   0.6292   1.5261   1.4981   0.00    0.0
2021/12/17 01:22:00.000   2251419.8551    862817.7430   5885474.8885   5   7   2.0625   2.0774   4.6385   0.6302   1.5418   1.4992   0.00    0.0
2021/12/17 01:22:30.000   2251420.0148    862817.6038   5885474.7326   5   7   2.0610   2.0789   4.6544   0.6311   1.5574   1.5003   0.00    0.0
2021/12/17 01:23:00.000   2251420.4069    862817.2783   5885475.1712   5   7   2.0595   2.0805   4.6705   0.6321   1.5730   1.5013   0.00    0.0
2021/12/17 01:23:30.000   2251420.3532    862817.5246   5885475.6729   5   7   2.0580   2.0821   4.6870   0.6331   1.5885   1.5023   0.00    0.0
2021/12/17 01:24:00.000   2251420.1216    862817.4815   5885475.8024   5   7   2.0565   2.0837   4.7038   0.6341   1.6039   1.5033   0.00    0.0
2021/12/17 01:24:30.000   2251419.8184    862817.4356   5885475.9190   5   7   2.0551   2.0854   4.7208   0.6351   1.6193   1.5042   0.00    0.0
2021/12/17 01:25:00.000   2251420.5468    862817.4166   5885475.4667   5   7   2.0536   2.0872   4.7382   0.6360   1.6347   1.5050   0.00    0.0
2021/12/17 01:25:30.000   2251420.4067    862817.7821   5885475.9366   5   7   2.0522   2.0889   4.7559   0.6370   1.6500   1.5058   0.00    0.0
2021/12/17 01:26:00.000   2251420.1037    862818.1231   5885475.8122   5   7   2.0508   2.0907   4.7738   0.6380   1.6652   1.5066   0.00    0.0
2021/12/17 01:26:30.000   2251420.3697    862817.1783   5885475.4100   5   7   2.0493   2.0925   4.7920   0.6389   1.6805   1.5073   0.00    0.0
2021/12/17 01:27:00.000   2251420.6496    862817.2647   5885475.9811   5   7   2.0479   2.0944   4.8105   0.6399   1.6956   1.5080   0.00    0.0
2021/12/17 01:27:30.000   2251420.4592    862817.5144   5885475.5097   5   7   2.0465   2.0963   4.8293   0.6409   1.7108   1.5086   0.00    0.0
2021/12/17 01:28:00.000   2251420.3210    862817.3890   5885475.2206   5   7   2.0452   2.0982   4.8484   0.6418   1.7259   1.5092   0.00    0.0
2021/12/17 01:28:30.000   2251420.1584    862817.4740   5885475.4227   5   7   2.0438   2.1002   4.8677   0.6428   1.7410   1.5097   0.00    0.0
2021/12/17 01:29:00.000   2251420.1107    862817.3886   5885475.8886   5   7   2.0425   2.1021   4.8872   0.6438   1.7560   1.5102   0.00    0.0
2021/12/17 01:29:30.000   2251420.0190    862817.3209   5885475.1526   5   7   2.0411   2.1042   4.9070   0.6447   1.7710   1.5106   0.00    0.0
2021/12/17 01:30:00.000   2251420.1646    862817.4179   5885474.0505   5   7   2.0398   2.1062   4.9271   0.6457   1.7860   1.5110   0.00    0.0
2021/12/17 01:30:30.000   2251420.0279    862817.3883   5885475.9290   5   7   2.0385   2.1083   4.9474   0.6466   1.8010   1.5112   0.00    0.0
2021/12/17 01:31:00.000   2251420.3704    862817.4913   5885475.1569   5   7   2.0372   2.1104   4.9680   0.6475   1.8159   1.5115   0.00    0.0
2021/12/17 01:31:30.000   2251419.8580    862817.5955   5885475.1544   5   7   2.0359   2.1125   4.9888   0.6485   1.8308   1.5117   0.00    0.0
2021/12/17 01:32:00.000   2251419.7867    862817.2681   5885474.5178   5   7   2.0347   2.1147   5.0098   0.6494   1.8457   1.5118   0.00    0.0
2021/12/17 01:32:30.000   2251420.3794    862817.3323   5885475.9636   5   7   2.0334   2.1169   5.0311   0.6503   1.8605   1.5118   0.00    0.0
2021/12/17 01:33:00.000   2251419.6921    862817.2418   5885476.2360   5   7   2.0322   2.1191   5.0526   0.6512   1.8754   1.5118   0.00    0.0
2021/12/17 01:33:30.000   2251419.6778    862817.1559   5885476.4873   5   7   2.0310   2.1213   5.0743   0.6522   1.8902   1.5118   0.00    0.0
2021/12/17 01:34:00.000   2251419.9180    862817.6251   5885476.0340   5   7   2.0298   2.1236   5.0962   0.6531   1.9049   1.5116   0.00    0.0
2021/12/17 01:34:30.000   2251419.7854    862817.5396   5885476.2488   5   7   2.0287   2.1259   5.1183   0.6540   1.9197   1.5114   0.00    0.0
2021/12/17 01:35:00.000   2251420.0208    862817.6172   5885473.5293   5   7   2.0275   2.1282   5.1406   0.6548   1.9344   1.5112   0.00    0.0
2021/12/17 01:35:30.000   2251419.9786    862817.5369   5885474.6140   5   7   2.0264   2.1305   5.1631   0.6557   1.9490   1.5109   0.00    0.0
2021/12/17 01:36:00.000   2251420.7212    862817.4721   5885475.2967   5   7   2.0253   2.1328   5.1859   0.6566   1.9637   1.5105   0.00    0.0
2021/12/17 01:36:30.000   2251420.0600    862817.5675   5885475.8241   5   8   1.8228   2.1173   5.0614   0.8215   2.0622   1.0941   0.00    0.0
2021/12/17 01:37:00.000   2251419.8521    862817.1480   5885475.2577   5   8   1.8216   2.1199   5.0877   0.8216   2.0751   1.0976   0.00    0.0
2021/12/17 01:37:30.000   2251420.2721    862817.0269   5885474.6587   5   9   1.8193   1.7166   4.4010   0.8668   1.0525   1.1708   0.00    0.0
2021/12/17 01:38:00.000   2251420.0119    862816.9238   5885474.3314   5   9   1.8181   1.7169   4.4247   0.8673   1.0657   1.1748   0.00    0.0
2021/12/17 01:38:30.000   2251419.7313    862816.9960   5885475.1030   5   9   1.8169   1.7171   4.4487   0.8679   1.0789   1.1789   0.00    0.0
2021/12/17 01:39:00.000   2251420.3670    862817.1774   5885475.1128   5   9   1.8157   1.7175   4.4730   0.8685   1.0921   1.1829   0.00    0.0
2021/12/17 01:39:30.000   2251419.4923    862816.9730   5885474.4131   5   9   1.8146   1.7179   4.4975   0.8691   1.1054   1.1869   0.00    0.0
2021/12/17 01:40:00.000   2251420.2107    862817.1070   5885474.3118   5   8   2.1560   1.7408   4.5667   1.0402   1.1953   1.4690   0.00    0.0
2021/12/17 01:40:30.000   2251420.1904    862817.1659   5885475.9355   5   8   2.1546   1.7419   4.5950   1.0428   1.2118   1.4817   0.00    0.0
2021/12/17 01:41:00.000   2251420.1312    862817.1991   5885475.6518   5   8   2.1532   1.7431   4.6237   1.0454   1.2283   1.4945   0.00    0.0
2021/12/17 01:41:30.000   2251420.4441    862816.9347   5885475.8578   5   8   2.1519   1.7443   4.6529   1.0481   1.2450   1.5074   0.00    0.0
2021/12/17 01:42:00.000   2251420.3377    862817.1300   5885475.5360   5   8   2.1506   1.7456   4.6824   1.0508   1.2618   1.5204   0.00    0.0
2021/12/17 01:42:30.000   2251420.5267    862816.9300   5885474.4576   5   8   2.1493   1.7469   4.7125   1.0535   1.2788   1.5334   0.00    0.0
2021/12/17 01:43:00.000   2251420.1870    862816.8279   5885475.0642   5   8   2.1481   1.7484   4.7429   1.0563   1.2959   1.5465   0.00    0.0
2021/12/17 01:43:30.000   2251420.2010    862817.5462   5885475.2980   5   8   2.1469   1.7498   4.7738   1.0592   1.3131   1.5597   0.00    0.0
2021/12/17 01:44:00.000   2251420.3634    862817.4845   5885475.4442   5   8   2.1458   1.7514   4.8051   1.0621   1.3304   1.5730   0.00    0.0
2021/12/17 01:44:30.000   2251420.3477    862817.5963   5885475.3025   5   8   2.1447   1.7530   4.8369   1.0650   1.3479   1.5863   0.00    0.0
2021/12/17 01:45:00.000   2251420.0487    862817.2098   5885475.0904   5   8   2.1436   1.7547   4.8690   1.0679   1.3656   1.5998   0.00    0.0
2021/12/17 01:45:30.000   2251420.0954    862817.4206   5885474.5463   5   8   2.1426   1.7564   4.9016   1.0709   1.3834   1.6133   0.00    0.0
2021/12/17 01:46:00.000   2251420.3085    862817.1641   5885474.3116   5   8   2.1416   1.7583   4.9347   1.0740   1.4013   1.6269   0.00    0.0
2021/12/17 01:46:30.000   2251420.3215    862817.1239   5885475.2240   5   8   2.1406   1.7602   4.9681   1.0771   1.4194   1.6405   0.00    0.0
2021/12/17 01:47:00.000   2251420.3158    862817.6331   5885474.3985   5   8   2.1396   1.7621   5.0020   1.0802   1.4376   1.6543   0.00    0.0
2021/12/17 01:47:30.000   2251420.4260    862817.2246   5885474.2802   5   8   2.1387   1.7642   5.0363   1.0834   1.4560   1.6681   0.00    0.0
2021/12/17 01:48:00.000   2251420.2735    862817.0106   5885474.1116   5   8   2.1378   1.7663   5.0710   1.0867   1.4745   1.6820   0.00    0.0
2021/12/17 01:48:30.000   2251420.5110    862817.0982   5885474.5397   5   8   2.1370   1.7685   5.1062   1.0900   1.4931   1.6960   0.00    0.0
2021/12/17 01:49:00.000   2251420.4625    862817.3230   5885474.6203   5   8   2.1362   1.7707   5.1417   1.0933   1.5120   1.7100   0.00    0.0
2021/12/17 01:49:30.000   2251420.3595    862817.1422   5885475.0410   5   8   2.1354   1.7731   5.1777   1.0967   1.5309   1.7241   0.00    0.0
2021/12/17 01:50:00.000   2251420.0815    862816.9854   5885475.8587   5   8   2.1347   1.7755   5.2140   1.1001   1.5501   1.7383   0.00    0.0
2021/12/17 01:50:30.000   2251419.6541    862816.8170   5885474.2380   5   8   2.1340   1.7780   5.2508   1.1036   1.5693   1.7525   0.00    0.0
2021/12/17 01:51:00.000   2251420.6287    862816.8195   5885473.9509   5   8   2.1333   1.7805   5.2879   1.1071   1.5888   1.7668   0.00    0.0
2021/12/17 01:51:30.000   2251420.1787    862817.3450   5885475.1058   5   8   2.1326   1.7832   5.3254   1.1107   1.6083   1.7811   0.00    0.0
2021/12/17 01:52:00.000   2251420.3516    862817.1189   5885474.6585   5   8   2.1320   1.7859   5.3633   1.1143   1.6280   1.7955   0.00    0.0
2021/12/17 01:52:30.000   2251420.2205    862817.2606   5885474.9065   5   8   2.1314   1.7887   5.4015   1.1180   1.6479   1.8100   0.00    0.0
2021/12/17 01:53:00.000   2251419.9952    862816.9896   5885473.9101   5   8   2.1309   1.7916   5.4401   1.1217   1.6679   1.8245   0.00    0.0
2021/12/17 01:53:30.000   2251419.9217    862816.6516   5885473.2614   5   8   2.1304   1.7946   5.4790   1.1255   1.6880   1.8390   0.00    0.0
2021/12/17 01:54:00.000   2251420.6892    862817.3963   5885474.7393   5   8   2.1299   1.7976   5.5182   1.1293   1.7083   1.8536   0.00    0.0
2021/12/17 01:54:30.000   2251419.7959    862817.1476   5885474.1298   5   8   2.1294   1.8007   5.5577   1.1331   1.7286   1.8682   0.00    0.0
2021/12/17 01:55:00.000   2251420.2253    862817.3599   5885474.1106   5   8   2.1290   1.8039   5.5976   1.1370   1.7491   1.8828   0.00    0.0
2021/12/17 01:55:30.000   2251419.8575    862817.1456   5885473.7563   5   8   2.1285   1.8072   5.6377   1.1410   1.7698   1.8975   0.00    0.0
2021/12/17 01:56:00.000   2251420.1707    862817.1954   5885473.9999   5   8   2.1282   1.8106   5.6780   1.1450   1.7905   1.9121   0.00    0.0
2021/12/17 01:56:30.000   2251420.5188    862817.0014   5885473.8139   5   8   2.1278   1.8141   5.7186   1.1490   1.8114   1.9268   0.00    0.0
2021/12/17 01:57:00.000   2251420.1028    862816.7301   5885473.5322   5   8   2.1275   1.8176   5.7595   1.1531   1.8323   1.9414   0.00    0.0
2021/12/17 01:57:30.000   2251420.1072    862817.0762   5885475.1844   5   8   2.1271   1.8212   5.8005   1.1572   1.8534   1.9560   0.00    0.0
2021/12/17 01:58:00.000   2251420.2452    862817.2428   5885474.9955   5   8   2.1268   1.8249   5.8416   1.1613   1.8745   1.9707   0.00    0.0
2021/12/17 01:58:30.000   2251420.2980    862817.3883   5885474.5802   5   8   2.1266   1.8287   5.8830   1.1655   1.8957   1.9852   0.00    0.0
2021/12/17 01:59:00.000   2251420.0219    862816.7658   5885472.6844   5   8   2.1263   1.8325   5.9244   1.1697   1.9169   1.9998   0.00    0.0
2021/12/17 01:59:30.000   2251419.6803    862817.0235   5885473.4246   5   8   2.1261   1.8364   5.9659   1.1740   1.9383   2.0143   0.00    0.0
2021/12/17 02:00:00.000   2251420.1590    862817.2041   5885475.5435   5   8   2.1913   1.8446   6.2115   1.1498   1.9088   2.2259   0.00    0.0
2021/12/17 02:00:30.000   2251420.3286    862817.1138   5885475.4079   5   8   2.1923   1.8482   6.2615   1.1556   1.9326   2.2453   0.00    0.0
2021/12/17 02:01:00.000   2251420.2170    862816.9601   5885474.1547   5   8   2.1933   1.8519   6.3117   1.1615   1.9565   2.2648   0.00    0.0
2021/12/17 02:01:30.000   2251419.9599    862816.9743   5885474.5333   5   8   2.1944   1.8557   6.3622   1.1674   1.9805   2.2842   0.00    0.0
2021/12/17 02:02:00.000   2251420.4749    862816.9861   5885474.1574   5   8   2.1956   1.8596   6.4129   1.1734   2.0046   2.3037   0.00    0.0
2021/12/17 02:02:30.000   2251420.3807    862816.8828   5885474.4806   5   8   2.1967   1.8635   6.4637   1.1795   2.0289   2.3231   0.00    0.0
2021/12/17 02:03:00.000   2251420.1232    862816.8680   5885474.5143   5   8   2.1979   1.8676   6.5147   1.1856   2.0532   2.3425   0.00    0.0
2021/12/17 02:03:30.000   2251419.8239    862816.8316   5885474.1365   5   8   2.1991   1.8717   6.5656   1.1917   2.0777   2.3619   0.00    0.0
2021/12/17 02:04:00.000   2251420.3567    862816.7872   5885474.5723   5   8   2.2004   1.8760   6.6166   1.1979   2.1021   2.3812   0.00    0.0
2021/12/17 02:04:30.000   2251419.9755    862817.1551   5885473.6281   5   8   2.2016   1.8803   6.6676   1.2041   2.1267   2.4004   0.00    0.0
2021/12/17 02:05:00.000   2251420.3319    862817.0447   5885474.1587   5   8   2.2029   1.8847   6.7185   1.2104   2.1512   2.4195   0.00    0.0
2021/12/17 02:05:30.000   2251420.3522    862817.0970   5885475.4754   5   8   2.2042   1.8892   6.7692   1.2167   2.1758   2.4385   0.00    0.0
2021/12/17 02:06:00.000   2251420.3642    862817.3697   5885474.8821   5   8   2.2055   1.8938   6.8198   1.2230   2.2003   2.4573   0.00    0.0
2021/12/17 02:06:30.000   2251420.6082    862817.1433   5885474.3343   5   8   2.2068   1.8984   6.8700   1.2293   2.2248   2.4760   0.00    0.0
2021/12/17 02:07:00.000   2251420.6475    862816.8726   5885473.6789   5   8   2.2082   1.9031   6.9200   1.2356   2.2492   2.4945   0.00    0.0
2021/12/17 02:07:30.000   2251419.9148    862817.0489   5885474.5684   5   8   2.2095   1.9079   6.9695   1.2419   2.2736   2.5128   0.00    0.0
2021/12/17 02:08:00.000   2251420.4449    862817.0792   5885475.1507   5   8   2.2108   1.9128   7.0186   1.2482   2.2978   2.5308   0.00    0.0
2021/12/17 02:08:30.000   2251420.3821    862817.0642   5885473.9374   5   8   2.2121   1.9177   7.0672   1.2545   2.3219   2.5486   0.00    0.0
2021/12/17 02:09:00.000   2251420.1422    862816.9961   5885473.2404   5   8   2.2134   1.9227   7.1151   1.2608   2.3458   2.5661   0.00    0.0
2021/12/17 02:09:30.000   2251420.3742    862816.9032   5885473.6331   5   8   2.2147   1.9277   7.1624   1.2671   2.3695   2.5832   0.00    0.0
2021/12/17 02:10:00.000   2251420.3326    862816.6451   5885474.1518   5   8   2.2159   1.9327   7.2089   1.2733   2.3930   2.6000   0.00    0.0
2021/12/17 02:10:30.000   2251420.5390    862817.1039   5885473.7960   5   8   2.2171   1.9378   7.2545   1.2794   2.4162   2.6164   0.00    0.0
2021/12/17 02:11:00.000   2251419.5040    862817.0135   5885473.3442   5   8   2.2183   1.9430   7.2992   1.2855   2.4391   2.6324   0.00    0.0
2021/12/17 02:11:30.000   2251419.9287    862816.7831   5885473.4842   5   8   2.2194   1.9481   7.3429   1.2915   2.4617   2.6480   0.00    0.0
2021/12/17 02:12:00.000   2251419.9165    862816.8852   5885471.8377   5   8   2.2204   1.9533   7.3855   1.2975   2.4840   2.6631   0.00    0.0
2021/12/17 02:12:30.000   2251420.1884    862817.2466   5885474.5489   5   8   2.2215   1.9585   7.4269   1.3033   2.5058   2.6777   0.00    0.0
2021/12/17 02:13:00.000   2251419.8519    862816.8926   5885474.7828   5   8   2.2224   1.9636   7.4671   1.3091   2.5272   2.6917   0.00    0.0
2021/12/17 02:13:30.000   2251420.1148    862816.7280   5885473.0241   5   8   2.2233   1.9688   7.5058   1.3147   2.5481   2.7052   0.00    0.0
2021/12/17 02:14:00.000   2251420.0458    862817.0416   5885473.5316   5   8   2.2241   1.9739   7.5432   1.3202   2.5686   2.7181   0.00    0.0
2021/12/17 02:14:30.000   2251419.8389    862816.7215   5885473.0969   5   8   2.2248   1.9791   7.5790   1.3256   2.5885   2.7304   0.00    0.0
2021/12/17 02:15:00.000   2251420.2401    862817.0711   5885473.2043   5   8   2.2254   1.9841   7.6131   1.3308   2.6078   2.7420   0.00    0.0
2021/12/17 02:15:30.000   2251419.9510    862816.9699   5885473.5172   5   8   2.2260   1.9892   7.6456   1.3359   2.6265   2.7529   0.00    0.0
2021/12/17 02:16:00.000   2251420.1616    862816.7828   5885472.7407   5   8   2.2264   1.9942   7.6763   1.3408   2.6445   2.7631   0.00    0.0
2021/12/17 02:16:30.000   2251420.1874    862816.7764   5885473.0172   5   8   2.2268   1.9991   7.7052   1.3455   2.6619   2.7726   0.00    0.0
2021/12/17 02:17:00.000   2251419.7531    862816.5128   5885472.9207   5   8   2.2270   2.0040   7.7321   1.3500   2.6786   2.7813   0.00    0.0
2021/12/17 02:17:30.000   2251419.9073    862816.5930   5885472.6485   5   8   2.2271   2.0087   7.7570   1.3544   2.6945   2.7892   0.00    0.0
2021/12/17 02:18:00.000   2251419.9524    862816.9499   5885472.8794   5   8   2.2271   2.0134   7.7798   1.3585   2.7096   2.7963   0.00    0.0
2021/12/17 02:18:30.000   2251419.5547    862816.1978   5885471.9391   5   8   2.2270   2.0180   7.8005   1.3624   2.7240   2.8026   0.00    0.0
2021/12/17 02:19:00.000   2251419.8301    862816.4107   5885472.2862   5   8   2.2267   2.0225   7.8191   1.3661   2.7375   2.8080   0.00    0.0
2021/12/17 02:19:30.000   2251419.9424    862816.8366   5885473.1142   5   8   2.2263   2.0268   7.8353   1.3695   2.7501   2.8126   0.00    0.0
2021/12/17 02:20:00.000   2251420.2471    862816.7916   5885472.9155   5   8   2.2258   2.0311   7.8493   1.3727   2.7618   2.8162   0.00    0.0
2021/12/17 02:20:30.000   2251420.4575    862817.2207   5885474.1285   5   8   2.2252   2.0352   7.8610   1.3757   2.7727   2.8190   0.00    0.0
2021/12/17 02:21:00.000   2251419.8796    862816.6589   5885473.0370   5   8   2.2244   2.0391   7.8703   1.3784   2.7826   2.8208   0.00    0.0
2021/12/17 02:21:30.000   2251419.5435    862816.5857   5885472.0344   5   8   2.2235   2.0429   7.8772   1.3809   2.7916   2.8218   0.00    0.0
2021/12/17 02:22:00.000   2251419.5321    862816.6260   5885473.0308   5   8   2.2224   2.0466   7.8817   1.3831   2.7996   2.8218   0.00    0.0
2021/12/17 02:22:30.000   2251420.0880    862816.5235   5885473.0733   5   8   2.2212   2.0501   7.8838   1.3850   2.8067   2.8209   0.00    0.0
2021/12/17 02:23:00.000   2251419.8740    862816.3285   5885472.6281   5   8   2.2199   2.0535   7.8834   1.3867   2.8128   2.8191   0.00    0.0
2021/12/17 02:23:30.000   2251419.6247    862816.5592   5885472.3431   5   8   2.2184   2.0566   7.8807   1.3881   2.8179   2.8164   0.00    0.0
2021/12/17 02:24:00.000   2251419.2341    862816.5875   5885472.4494   5   8   2.2169   2.0596   7.8755   1.3892   2.8220   2.8128   0.00    0.0
2021/12/17 02:24:30.000   2251419.8868    862816.8919   5885473.4103   5   8   2.2151   2.0625   7.8680   1.3901   2.8251   2.8083   0.00    0.0
2021/12/17 02:25:00.000   2251419.9390    862816.4324   5885473.6606   5   8   2.2133   2.0651   7.8581   1.3907   2.8272   2.8029   0.00    0.0
2021/12/17 02:25:30.000   2251419.8252    862816.6000   5885471.3908   5   8   2.2113   2.0676   7.8459   1.3911   2.8284   2.7966   0.00    0.0
2021/12/17 02:26:00.000   2251419.8100    862816.4929   5885472.4949   5   8   2.2092   2.0699   7.8313   1.3912   2.8286   2.7895   0.00    0.0
2021/12/17 02:26:30.000   2251420.1061    862816.5654   5885472.7784   5   8   2.2071   2.0721   7.8145   1.3910   2.8278   2.7815   0.00    0.0
2021/12/17 02:27:00.000   2251419.9536    862816.6148   5885473.5679   5   8   2.2048   2.0740   7.7956   1.3906   2.8261   2.7728   0.00    0.0
2021/12/17 02:27:30.000   2251419.7856    862816.7880   5885473.4847   5   8   2.2024   2.0758   7.7744   1.3899   2.8235   2.7632   0.00    0.0
2021/12/17 02:28:00.000   2251419.3631    862817.0091   5885473.1166   5   8   2.1999   2.0774   7.7512   1.3890   2.8199   2.7529   0.00    0.0
2021/12/17 02:28:30.000   2251420.2143    862816.5712   5885472.7037   5   8   2.1973   2.0788   7.7260   1.3878   2.8155   2.7418   0.00    0.0
2021/12/17 02:29:00.000   2251419.8729    862816.5184   5885473.0407   5   8   2.1946   2.0801   7.6989   1.3865   2.8101   2.7300   0.00    0.0
2021/12/17 02:29:30.000   2251419.8404    862816.9954   5885472.9830   5   8   2.1919   2.0812   7.6698   1.3849   2.8039   2.7176   0.00    0.0
2021/12/17 02:30:00.000   2251420.0212    862816.9640   5885472.1432   5   9   1.9162   1.6837   6.8314   0.7852   1.9066   1.9226   0.00    0.0
2021/12/17 02:30:30.000   2251419.5985    862816.3890   5885472.1111   5   9   1.9159   1.6853   6.8195   0.7865   1.9118   1.9215   0.00    0.0
2021/12/17 02:31:00.000   2251419.2754    862816.3435   5885471.1211   5   9   1.9155   1.6870   6.8062   0.7877   1.9165   1.9201   0.00    0.0
2021/12/17 02:31:30.000   2251419.2764    862816.2953   5885470.4238   5   9   1.9152   1.6886   6.7916   0.7888   1.9207   1.9184   0.00    0.0
2021/12/17 02:32:00.000   2251419.4717    862816.3929   5885471.0288   5   9   1.9149   1.6902   6.7758   0.7900   1.9245   1.9163   0.00    0.0
2021/12/17 02:32:30.000   2251419.4926    862816.2890   5885470.8927   5   9   1.9146   1.6918   6.7586   0.7910   1.9278   1.9139   0.00    0.0
2021/12/17 02:33:00.000   2251419.6739    862816.5535   5885472.0727   5   9   1.9143   1.6934   6.7402   0.7920   1.9306   1.9113   0.00    0.0
2021/12/17 02:33:30.000   2251419.6622    862816.7166   5885471.8787   5   9   1.9141   1.6950   6.7207   0.7929   1.9330   1.9083   0.00    0.0
2021/12/17 02:34:00.000   2251419.8494    862816.8582   5885472.2545   5   9   1.9138   1.6966   6.7000   0.7938   1.9349   1.9051   0.00    0.0
2021/12/17 02:34:30.000   2251420.2094    862816.6912   5885471.3256   5   9   1.9136   1.6981   6.6782   0.7947   1.9363   1.9016   0.00    0.0
2021/12/17 02:35:00.000   2251419.7597    862816.8073   5885471.7761   5   9   1.9134   1.6996   6.6553   0.7954   1.9373   1.8978   0.00    0.0
2021/12/17 02:35:30.000   2251419.4794    862816.6996   5885472.0132   5   9   1.9132   1.7011   6.6314   0.7961   1.9379   1.8938   0.00    0.0
2021/12/17 02:36:00.000   2251419.3005    862816.7602   5885472.0620   5   9   1.9131   1.7026   6.6065   0.7968   1.9380   1.8895   0.00    0.0
2021/12/17 02:36:30.000   2251420.6340    862816.5973   5885473.0071   5   8   2.2562   1.7252   7.5781   0.5596   1.6557   2.8371   0.00    0.0
2021/12/17 02:37:00.000   2251419.9258    862816.6617   5885471.1450   5   8   2.2573   1.7260   7.5632   0.5641   1.6581   2.8389   0.00    0.0
2021/12/17 02:37:30.000   2251419.8251    862816.4727   5885472.3926   5   8   2.2583   1.7268   7.5464   0.5684   1.6601   2.8399   0.00    0.0
2021/12/17 02:38:00.000   2251419.7257    862816.4422   5885472.0757   5   8   2.2591   1.7275   7.5279   0.5726   1.6617   2.8402   0.00    0.0
2021/12/17 02:38:30.000   2251419.9206    862816.4511   5885471.3916   5   8   2.2598   1.7283   7.5077   0.5766   1.6630   2.8397   0.00    0.0
2021/12/17 02:39:00.000   2251419.5901    862816.4251   5885473.4542   5   8   2.2604   1.7291   7.4859   0.5805   1.6638   2.8384   0.00    0.0
2021/12/17 02:39:30.000   2251419.4183    862816.6744   5885472.1095   5   8   2.2609   1.7299   7.4624   0.5841   1.6642   2.8364   0.00    0.0
2021/12/17 02:40:00.000   2251419.8087    862816.8215   5885472.4135   5   8   2.2612   1.7306   7.4374   0.5876   1.6643   2.8336   0.00    0.0
2021/12/17 02:40:30.000   2251420.0268    862816.9712   5885472.7326   5   8   2.2614   1.7314   7.4108   0.5910   1.6639   2.8302   0.00    0.0
2021/12/17 02:41:00.000   2251420.2101    862816.8503   5885472.4984   5   8   2.2615   1.7322   7.3828   0.5942   1.6632   2.8260   0.00    0.0
2021/12/17 02:41:30.000   2251419.8596    862816.5154   5885472.5849   5   8   2.2614   1.7329   7.3534   0.5972   1.6621   2.8212   0.00    0.0
2021/12/17 02:42:00.000   2251419.9952    862816.6879   5885473.0783   5   8   2.2613   1.7337   7.3226   0.6000   1.6606   2.8157   0.00    0.0
2021/12/17 02:42:30.000   2251420.1515    862816.6689   5885472.4653   5   8   2.2610   1.7345   7.2905   0.6028   1.6588   2.8095   0.00    0.0
2021/12/17 02:43:00.000   2251420.1662    862816.5698   5885473.9180   5   8   2.2606   1.7352   7.2572   0.6053   1.6566   2.8027   0.00    0.0
2021/12/17 02:43:30.000   2251419.8091    862816.3112   5885472.5845   5   8   2.2601   1.7360   7.2228   0.6078   1.6541   2.7954   0.00    0.0
2021/12/17 02:44:00.000   2251419.8188    862816.4518   5885471.9856   5   8   2.2594   1.7367   7.1872   0.6100   1.6513   2.7874   0.00    0.0
2021/12/17 02:44:30.000   2251420.2435    862816.4416   5885471.4615   5   8   2.2587   1.7375   7.1506   0.6122   1.6481   2.7789   0.00    0.0
2021/12/17 02:45:00.000   2251419.6613    862816.3979   5885472.4524   5   8   2.2579   1.7382   7.1130   0.6142   1.6447   2.7699   0.00    0.0
2021/12/17 02:45:30.000   2251419.8177    862816.7692   5885472.5851   5   8   2.2570   1.7389   7.0745   0.6161   1.6409   2.7603   0.00    0.0
2021/12/17 02:46:00.000   2251420.2959    862816.8063   5885473.5912   5   8   2.2559   1.7397   7.0351   0.6178   1.6368   2.7503   0.00    0.0
2021/12/17 02:46:30.000   2251420.0726    862816.6912   5885472.7286   5   8   2.2548   1.7404   6.9949   0.6194   1.6325   2.7398   0.00    0.0
2021/12/17 02:47:00.000   2251420.0023    862816.5235   5885473.4603   5   8   2.2536   1.7411   6.9541   0.6210   1.6279   2.7288   0.00    0.0
2021/12/17 02:47:30.000   2251419.6316    862816.4298   5885471.6295   5   8   2.2524   1.7419   6.9125   0.6224   1.6230   2.7175   0.00    0.0
2021/12/17 02:48:00.000   2251419.8012    862816.4847   5885471.7653   5   8   2.2510   1.7426   6.8703   0.6237   1.6179   2.7057   0.00    0.0
2021/12/17 02:48:30.000   2251420.3038    862816.4422   5885472.3819   5   8   2.2496   1.7433   6.8276   0.6249   1.6125   2.6936   0.00    0.0
2021/12/17 02:49:00.000   2251419.8366    862816.7490   5885472.2100   5   8   2.2481   1.7440   6.7844   0.6260   1.6069   2.6812   0.00    0.0
2021/12/17 02:49:30.000   2251419.8080    862816.4425   5885472.3684   5   8   2.2466   1.7447   6.7408   0.6270   1.6012   2.6684   0.00    0.0
2021/12/17 02:50:00.000   2251419.8893    862816.3861   5885473.0584   5   8   2.2450   1.7454   6.6967   0.6279   1.5952   2.6553   0.00    0.0
2021/12/17 02:50:30.000   2251420.6428    862816.3069   5885473.5864   5   8   2.2433   1.7462   6.6523   0.6287   1.5890   2.6419   0.00    0.0
2021/12/17 02:51:00.000   2251419.7941    862816.6098   5885473.6829   5   8   2.2416   1.7469   6.6077   0.6295   1.5826   2.6283   0.00    0.0
2021/12/17 02:51:30.000   2251420.0123    862816.5196   5885473.2081   5   8   2.2399   1.7476   6.5628   0.6302   1.5761   2.6144   0.00    0.0
2021/12/17 02:52:00.000   2251419.8695    862816.5916   5885473.1124   5   8   2.2381   1.7483   6.5177   0.6308   1.5694   2.6003   0.00    0.0
2021/12/17 02:52:30.000   2251419.9404    862816.6896   5885473.7391   5   8   2.2363   1.7490   6.4725   0.6314   1.5625   2.5860   0.00    0.0
2021/12/17 02:53:00.000   2251420.0013    862816.5526   5885474.0521   5   8   2.2345   1.7497   6.4272   0.6319   1.5555   2.5715   0.00    0.0
2021/12/17 02:53:30.000   2251420.2105    862816.5528   5885474.0362   5   8   2.2326   1.7504   6.3818   0.6323   1.5484   2.5569   0.00    0.0
2021/12/17 02:54:00.000   2251420.1264    862816.3447   5885472.5335   5   8   2.2307   1.7511   6.3364   0.6327   1.5412   2.5421   0.00    0.0
2021/12/17 02:54:30.000   2251420.1463    862816.3337   5885473.2921   5   8   2.2288   1.7519   6.2910   0.6330   1.5338   2.5271   0.00    0.0
2021/12/17 02:55:00.000   2251419.7663    862816.4021   5885471.7933   5   8   2.2269   1.7526   6.2457   0.6333   1.5263   2.5121   0.00    0.0
2021/12/17 02:55:30.000   2251420.1412    862816.1603   5885471.7926   5   8   2.2249   1.7533   6.2004   0.6336   1.5188   2.4969   0.00    0.0
2021/12/17 02:56:00.000   2251420.3243    862816.2616   5885472.2430   5   8   2.2230   1.7540   6.1553   0.6338   1.5111   2.4817   0.00    0.0
2021/12/17 02:56:30.000   2251420.3742    862816.5802   5885473.1865   5   8   2.2210   1.7547   6.1103   0.6340   1.5034   2.4664   0.00    0.0
2021/12/17 02:57:00.000   2251419.6065    862816.5607   5885472.8868   5   8   2.2190   1.7555   6.0655   0.6341   1.4956   2.4510   0.00    0.0
2021/12/17 02:57:30.000   2251420.3069    862816.4278   5885473.2322   5   8   2.2171   1.7562   6.0209   0.6342   1.4877   2.4355   0.00    0.0
2021/12/17 02:58:00.000   2251420.0041    862816.5805   5885471.9287   5   8   2.2151   1.7569   5.9765   0.6343   1.4797   2.4201   0.00    0.0
2021/12/17 02:58:30.000   2251419.9997    862816.8337   5885474.6082   5   9   2.2118   1.6727   4.6539   0.6008   0.4235   2.3451   0.00    0.0
2021/12/17 02:59:00.000   2251419.7720    862816.4619   5885475.2649   5   9   2.2103   1.6736   4.6419   0.6064   0.4326   2.3396   0.00    0.0
2021/12/17 02:59:30.000   2251419.7995    862816.6923   5885475.7500   5   9   2.2086   1.6745   4.6298   0.6118   0.4415   2.3339   0.00    0.0
2021/12/17 03:00:00.000   2251420.1339    862816.5402   5885474.8051   5   9   2.0551   1.6715   4.2559   0.5374  -0.0518   1.9945   0.00    0.0
2021/12/17 03:00:30.000   2251420.0822    862816.6474   5885473.3012   5   9   2.0540   1.6722   4.2472   0.5410  -0.0176   1.9906   0.00    0.0
2021/12/17 03:01:00.000   2251420.0845    862816.7010   5885472.6462   5   9   2.0529   1.6729   4.2384   0.5446   0.0459   1.9865   0.00    0.0
2021/12/17 03:01:30.000   2251419.8104    862816.5646   5885472.7140   5   9   2.0518   1.6737   4.2295   0.5481   0.0676   1.9823   0.00    0.0
2021/12/17 03:02:00.000   2251420.0823    862816.9069   5885473.6705   5   9   2.0506   1.6744   4.2206   0.5517   0.0840   1.9780   0.00    0.0
2021/12/17 03:02:30.000   2251419.8438    862816.4252   5885473.3726   5   9   2.0494   1.6752   4.2116   0.5552   0.0978   1.9735   0.00    0.0
2021/12/17 03:03:00.000   2251419.6795    862816.9225   5885473.5894   5   9   2.0482   1.6759   4.2025   0.5587   0.1099   1.9688   0.00    0.0
2021/12/17 03:03:30.000   2251420.1449    862816.4754   5885474.2316   5   9   2.0469   1.6767   4.1934   0.5621   0.1210   1.9640   0.00    0.0
2021/12/17 03:04:00.000   2251420.0880    862816.7048   5885473.9301   5   9   2.0457   1.6775   4.1842   0.5655   0.1311   1.9591   0.00    0.0
2021/12/17 03:04:30.000   2251419.8654    862816.7029   5885474.0703   5   9   2.0444   1.6782   4.1749   0.5689   0.1405   1.9541   0.00    0.0
2021/12/17 03:05:00.000   2251420.0223    862816.9223   5885474.0647   5   9   2.0431   1.6790   4.1655   0.5723   0.1493   1.9489   0.00    0.0
2021/12/17 03:05:30.000   2251419.9625    862816.4891   5885473.8495   5   9   2.0417   1.6798   4.1561   0.5756   0.1576   1.9436   0.00    0.0
2021/12/17 03:06:00.000   2251419.7939    862816.8313   5885473.0058   5   9   2.0404   1.6807   4.1467   0.5789   0.1654   1.9382   0.00    0.0
2021/12/17 03:06:30.000   2251420.2527    862817.0447   5885473.7650   5   9   2.0390   1.6815   4.1372   0.5822   0.1729   1.9326   0.00    0.0
2021/12/17 03:07:00.000   2251419.5461    862816.7892   5885473.2224   5   9   2.0376   1.6823   4.1276   0.5855   0.1799   1.9270   0.00    0.0
2021/12/17 03:07:30.000   2251419.8103    862816.5696   5885474.0955   5   9   2.0362   1.6832   4.1180   0.5887   0.1867   1.9212   0.00    0.0
2021/12/17 03:08:00.000   2251419.7488    862816.8267   5885474.4126   5   9   2.0347   1.6840   4.1083   0.5918   0.1931   1.9153   0.00    0.0
2021/12/17 03:08:30.000   2251419.8653    862816.7781   5885473.6967   5   9   2.0333   1.6849   4.0986   0.5950   0.1993   1.9093   0.00    0.0
2021/12/17 03:09:00.000   2251419.5863    862816.8335   5885474.0224   5   9   2.0318   1.6857   4.0889   0.5981   0.2052   1.9031   0.00    0.0
2021/12/17 03:09:30.000   2251420.0910    862816.5225   5885475.0182   5   9   2.0303   1.6866   4.0791   0.6011   0.2109   1.8969   0.00    0.0
2021/12/17 03:10:00.000   2251419.6498    862816.6461   5885474.4226   5   9   2.0288   1.6875   4.0693   0.6041   0.2163   1.8905   0.00    0.0
2021/12/17 03:10:30.000   2251419.5228    862816.2781   5885474.2639   5   9   2.0273   1.6884   4.0594   0.6071   0.2215   1.8841   0.00    0.0
2021/12/17 03:11:00.000   2251419.6903    862816.5333   5885474.2556   5   9   2.0258   1.6893   4.0495   0.6101   0.2265   1.8775   0.00    0.0
2021/12/17 03:11:30.000   2251419.6539    862816.2626   5885474.7335   5   9   2.0243   1.6902   4.0396   0.6130   0.2312   1.8709   0.00    0.0
2021/12/17 03:12:00.000   2251419.5650    862816.8993   5885473.8832   5   9   2.0227   1.6911   4.0297   0.6159   0.2358   1.8641   0.00    0.0
2021/12/17 03:12:30.000   2251419.6433    862816.6800   5885474.0619   5   9   2.0212   1.6921   4.0198   0.6187   0.2402   1.8573   0.00    0.0
2021/12/17 03:13:00.000   2251419.6685    862817.0707   5885474.5293   5   9   2.0196   1.6930   4.0098   0.6215   0.2444   1.8504   0.00    0.0
2021/12/17 03:13:30.000   2251419.6235    862816.7583   5885474.6323   5   9   2.0181   1.6939   3.9998   0.6243   0.2484   1.8433   0.00    0.0
2021/12/17 03:14:00.000   2251419.8083    862816.8150   5885473.8997   5   9   2.0165   1.6949   3.9899   0.6270   0.2523   1.8362   0.00    0.0
2021/12/17 03:14:30.000   2251420.0119    862816.7841   5885474.8440   5   9   2.0149   1.6958   3.9799   0.6297   0.2559   1.8290   0.00    0.0
2021/12/17 03:15:00.000   2251419.8493    862816.5779   5885474.7905   5   9   2.0134   1.6968   3.9699   0.6324   0.2594   1.8217   0.00    0.0
2021/12/17 03:15:30.000   2251419.9003    862817.2996   5885474.0943   5   9   2.0118   1.6978   3.9599   0.6350   0.2628   1.8144   0.00    0.0
2021/12/17 03:16:00.000   2251419.9754    862817.0377   5885473.5080   5   9   2.0102   1.6988   3.9500   0.6376   0.2660   1.8069   0.00    0.0
2021/12/17 03:16:30.000   2251419.7886    862816.2524   5885473.2999   5   9   2.0087   1.6998   3.9400   0.6401   0.2690   1.7994   0.00    0.0
2021/12/17 03:17:00.000   2251419.5725    862816.4683   5885473.3409   5   9   2.0071   1.7008   3.9301   0.6426   0.2719   1.7918   0.00    0.0
2021/12/17 03:17:30.000   2251419.5142    862816.7570   5885473.6543   5   9   2.0055   1.7018   3.9202   0.6451   0.2746   1.7841   0.00    0.0
2021/12/17 03:18:00.000   2251419.5529    862816.4701   5885474.2462   5   9   2.0040   1.7028   3.9103   0.6475   0.2772   1.7764   0.00    0.0
2021/12/17 03:18:30.000   2251419.6544    862816.6747   5885474.0507   5   9   2.0024   1.7038   3.9005   0.6499   0.2797   1.7686   0.00    0.0
2021/12/17 03:19:00.000   2251420.0475    862817.1176   5885473.4830   5   9   2.0008   1.7048   3.8906   0.6523   0.2820   1.7607   0.00    0.0
2021/12/17 03:19:30.000   2251419.9013    862817.0665   5885473.2565   5   9   1.9993   1.7059   3.8808   0.6546   0.2841   1.7528   0.00    0.0
2021/12/17 03:20:00.000   2251419.5578    862816.6947   5885474.7111   5   9   1.9978   1.7069   3.8711   0.6569   0.2862   1.7448   0.00    0.0
2021/12/17 03:20:30.000   2251419.9724    862816.3532   5885474.2467   5   9   1.9962   1.7080   3.8614   0.6591   0.2881   1.7367   0.00    0.0
2021/12/17 03:21:00.000   2251419.3624    862816.1055   5885473.5733   5   9   1.9947   1.7091   3.8517   0.6613   0.2899   1.7286   0.00    0.0
2021/12/17 03:21:30.000   2251419.4763    862816.4567   5885473.4726   5   9   1.9932   1.7101   3.8421   0.6635   0.2915   1.7204   0.00    0.0
2021/12/17 03:22:00.000   2251419.9761    862816.6890   5885474.4698   5   9   1.9917   1.7112   3.8325   0.6656   0.2930   1.7121   0.00    0.0
2021/12/17 03:22:30.000   2251419.5766    862816.2104   5885473.5488   5   9   1.9902   1.7123   3.8230   0.6677   0.2944   1.7038   0.00    0.0
2021/12/17 03:23:00.000   2251420.0852    862816.2461   5885474.4142   5   9   1.9887   1.7134   3.8136   0.6697   0.2957   1.6955   0.00    0.0
2021/12/17 03:23:30.000   2251419.6113    862816.2636   5885473.8082   5   9   1.9873   1.7145   3.8042   0.6718   0.2968   1.6871   0.00    0.0
