% program   : RTKLIB ver.demo5 b34j
% inp file  : E:\Navigation_Learn\GNSS\RTKLIB-b34k\data\data_IGM-A1_Vehicle_open_20211217-nsh\IGM-A1_rover.21o
% inp file  : E:\Navigation_Learn\GNSS\RTKLIB-b34k\data\data_IGM-A1_Vehicle_open_20211217-nsh\brdm3510.21p
% inp file  : E:\Navigation_Learn\GNSS\RTKLIB-b34k\data\data_IGM-A1_Vehicle_open_20211217-nsh\gbm21885.sp3
% inp file  : E:\Navigation_Learn\GNSS\RTKLIB-b34k\data\data_IGM-A1_Vehicle_open_20211217-nsh\gbm21885.clk
% obs start : 2021/12/17 00:24:51.0 GPST (week2188 433491.0s)
% obs end   : 2021/12/17 02:39:38.0 GPST (week2188 441578.0s)
% pos mode  : PPP Kinematic
% solution  : Forward
% elev mask : 10.0 deg
% dynamics  : off
% tidecorr  : off
% tropo opt : Saastamoinen
% ephemeris : Broadcast
% navi sys  : GPS BDS
% antenna1  : TRMR10          NONE  ( 0.0000  0.0000  1.3659)
%
% (x/y/z-ecef=WGS84,Q=1:fix,2:float,3:sbas,4:dgps,5:single,6:ppp,ns=# of satellites)
%  GPST              x-ecef(m)      y-ecef(m)      z-ecef(m)   Q  ns   sdx(m)   sdy(m)   sdz(m)  sdxy(m)  sdyz(m)  sdzx(m) age(s)  ratio
2188 433491.000  -2408917.8997   4698522.7404   3566025.8035   6   7   2.5303   3.5676   3.0892  -2.4688   2.1775  -1.9644   0.00    0.0
2188 433492.000  -2408919.0637   4698523.5730   3566026.8373   6   7   2.5309   3.5674   3.0890  -2.4691   2.1770  -1.9643   0.00    0.0
2188 433493.000  -2408920.9802   4698524.4516   3566027.2870   6   7   2.5304   3.5670   3.0894  -2.4684   2.1771  -1.9643   0.00    0.0
2188 433494.000  -2408919.8736   4698524.5920   3566027.1718   6   8   2.5304   3.5666   3.0893  -2.4684   2.1766  -1.9644   0.00    0.0
2188 433495.000  -2408918.5831   4698523.9949   3566025.6963   6   6   2.5312   3.5667   3.0897  -2.4690   2.1768  -1.9648   0.00    0.0
2188 433496.000  -2408919.6067   4698524.8729   3566027.1399   6   8   2.5306   3.5660   3.0895  -2.4683   2.1762  -1.9646   0.00    0.0
2188 433497.000  -2408919.8579   4698524.2239   3566026.9795   6   8   2.5306   3.5657   3.0896  -2.4682   2.1761  -1.9646   0.00    0.0
2188 433498.000  -2408918.9521   4698523.0798   3566026.9011   6   8   2.5307   3.5654   3.0898  -2.4681   2.1759  -1.9647   0.00    0.0
2188 433499.000  -2408918.8855   4698523.9619   3566026.7650   6   8   2.5308   3.5651   3.0899  -2.4680   2.1757  -1.9648   0.00    0.0
2188 433500.000  -2408918.6955   4698523.3613   3566027.5086   6   8   2.5308   3.5648   3.0900  -2.4679   2.1755  -1.9648   0.00    0.0
2188 433501.000  -2408919.1879   4698523.4160   3566026.6269   6   8   2.5309   3.5645   3.0901  -2.4678   2.1754  -1.9649   0.00    0.0
2188 433502.000  -2408919.3601   4698523.8315   3566027.4913   6   8   2.5310   3.5642   3.0903  -2.4677   2.1752  -1.9650   0.00    0.0
2188 433503.000  -2408918.7280   4698523.6997   3566026.6703   6   8   2.5310   3.5639   3.0904  -2.4677   2.1750  -1.9650   0.00    0.0
2188 433504.000  -2408918.4200   4698524.1432   3566025.9233   6   8   2.5311   3.5636   3.0905  -2.4676   2.1748  -1.9651   0.00    0.0
2188 433505.000  -2408918.6068   4698523.1753   3566027.1275   6   8   2.5312   3.5633   3.0907  -2.4675   2.1747  -1.9652   0.00    0.0
2188 433506.000  -2408919.1086   4698522.9889   3566027.2959   6   8   2.5312   3.5630   3.0908  -2.4674   2.1745  -1.9652   0.00    0.0
2188 433507.000  -2408918.9576   4698523.4414   3566025.9950   6   7   2.5314   3.5629   3.0912  -2.4675   2.1747  -1.9655   0.00    0.0
2188 433508.000  -2408919.3068   4698523.3957   3566027.2312   6   8   2.5313   3.5624   3.0910  -2.4672   2.1742  -1.9654   0.00    0.0
2188 433509.000  -2408918.7302   4698521.9082   3566026.4947   6   9   2.2053   3.3088   2.9800  -2.1088   1.9086  -1.6859   0.00    0.0
2188 433510.000  -2408918.3121   4698522.3645   3566026.1608   6   9   2.2052   3.3084   2.9802  -2.1086   1.9083  -1.6858   0.00    0.0
2188 433511.000  -2408918.2911   4698521.7016   3566025.5831   6   8   2.2052   3.3082   2.9805  -2.1082   1.9083  -1.6857   0.00    0.0
2188 433512.000  -2408918.8153   4698523.1147   3566027.2249   6   8   2.2051   3.3078   2.9806  -2.1082   1.9081  -1.6859   0.00    0.0
2188 433513.000  -2408918.0745   4698522.7970   3566026.9361   6   9   2.2049   3.3072   2.9805  -2.1078   1.9075  -1.6857   0.00    0.0
2188 433514.000  -2408918.2843   4698522.7035   3566026.5553   6   9   2.2048   3.3069   2.9806  -2.1076   1.9072  -1.6857   0.00    0.0
2188 433515.000  -2408918.2905   4698521.7809   3566025.9878   6   8   2.2047   3.3066   2.9809  -2.1075   1.9073  -1.6858   0.00    0.0
2188 433516.000  -2408919.5750   4698524.6710   3566027.3165   6   9   2.2046   3.3061   2.9808  -2.1071   1.9067  -1.6856   0.00    0.0
2188 433517.000  -2408918.6690   4698522.5936   3566026.8947   6   8   2.2045   3.3059   2.9811  -2.1070   1.9068  -1.6857   0.00    0.0
2188 433518.000  -2408918.6553   4698522.9940   3566026.8092   6   8   2.2044   3.3055   2.9812  -2.1067   1.9065  -1.6857   0.00    0.0
2188 433519.000  -2408918.5150   4698522.6853   3566026.9313   6   9   2.2043   3.3050   2.9811  -2.1064   1.9059  -1.6855   0.00    0.0
2188 433520.000  -2408918.8146   4698523.2142   3566027.8261   6   9   2.2042   3.3046   2.9812  -2.1061   1.9056  -1.6855   0.00    0.0
2188 433521.000  -2408918.6963   4698523.9458   3566027.6202   6   9   2.2041   3.3042   2.9813  -2.1059   1.9054  -1.6854   0.00    0.0
2188 433522.000  -2408917.8949   4698522.4869   3566026.3839   6   9   2.2040   3.3039   2.9814  -2.1057   1.9051  -1.6854   0.00    0.0
2188 433523.000  -2408918.3920   4698523.8901   3566026.6633   6   8   2.2039   3.3036   2.9817  -2.1055   1.9052  -1.6855   0.00    0.0
2188 433524.000  -2408917.9372   4698522.4633   3566025.5707   6   9   2.2037   3.3031   2.9816  -2.1052   1.9046  -1.6853   0.00    0.0
2188 433525.000  -2408918.7951   4698523.8858   3566026.6236   6   9   2.2036   3.3027   2.9817  -2.1049   1.9043  -1.6853   0.00    0.0
2188 433526.000  -2408919.6556   4698523.4094   3566027.0387   6   9   2.2035   3.3023   2.9818  -2.1047   1.9041  -1.6852   0.00    0.0
2188 433527.000  -2408919.2206   4698523.5637   3566025.9465   6   9   2.2034   3.3020   2.9819  -2.1044   1.9038  -1.6852   0.00    0.0
2188 433528.000  -2408918.0504   4698522.0391   3566025.3065   6   9   2.2033   3.3016   2.9820  -2.1042   1.9035  -1.6852   0.00    0.0
2188 433529.000  -2408919.1017   4698524.5158   3566027.3443   6   9   2.2032   3.3012   2.9821  -2.1040   1.9033  -1.6851   0.00    0.0
2188 433530.000  -2408918.9540   4698523.2249   3566026.2672   6   9   2.2031   3.3008   2.9822  -2.1037   1.9030  -1.6851   0.00    0.0
2188 433531.000  -2408918.6598   4698523.6618   3566026.7327   6   9   2.2030   3.3005   2.9823  -2.1035   1.9027  -1.6850   0.00    0.0
2188 433532.000  -2408918.3566   4698523.2660   3566027.0362   6   9   2.2029   3.3001   2.9824  -2.1032   1.9025  -1.6850   0.00    0.0
2188 433533.000  -2408918.1050   4698522.4515   3566026.1570   6   9   2.2028   3.2997   2.9825  -2.1030   1.9022  -1.6850   0.00    0.0
2188 433534.000  -2408917.4291   4698522.3000   3566025.7914   6   9   2.2027   3.2993   2.9826  -2.1028   1.9020  -1.6849   0.00    0.0
2188 433535.000  -2408917.7318   4698522.2854   3566026.1371   6   9   2.2026   3.2990   2.9827  -2.1025   1.9017  -1.6849   0.00    0.0
2188 433536.000  -2408917.6671   4698523.4920   3566025.9348   6   8   2.2028   3.2987   2.9828  -2.1025   1.9014  -1.6848   0.00    0.0
2188 433537.000  -2408917.4194   4698521.7091   3566026.5928   6   9   2.2024   3.2982   2.9829  -2.1020   1.9012  -1.6848   0.00    0.0
2188 433538.000  -2408918.3634   4698523.1626   3566025.8326   6   9   2.2023   3.2979   2.9830  -2.1018   1.9009  -1.6848   0.00    0.0
2188 433539.000  -2408917.7756   4698522.1580   3566026.5852   6   8   2.2022   3.2976   2.9834  -2.1017   1.9009  -1.6849   0.00    0.0
2188 433540.000  -2408918.6817   4698522.8448   3566026.5031   6   9   2.2021   3.2971   2.9832  -2.1013   1.9004  -1.6847   0.00    0.0
2188 433541.000  -2408918.0674   4698522.2547   3566026.2270   6   8   2.2023   3.2968   2.9833  -2.1013   1.9000  -1.6846   0.00    0.0
2188 433542.000  -2408917.7565   4698522.8640   3566026.2836   6   9   2.2019   3.2964   2.9834  -2.1008   1.8998  -1.6846   0.00    0.0
2188 433543.000  -2408919.1742   4698523.8099   3566027.5847   6   8   2.2019   3.2960   2.9839  -2.1007   1.8998  -1.6849   0.00    0.0
2188 433544.000  -2408918.0534   4698522.1227   3566026.4302   6   8   2.2020   3.2957   2.9836  -2.1006   1.8993  -1.6845   0.00    0.0
2188 433545.000  -2408918.0274   4698522.6402   3566025.9820   6   9   2.2016   3.2952   2.9837  -2.1001   1.8991  -1.6845   0.00    0.0
2188 433546.000  -2408918.1974   4698523.0342   3566027.0167   6   9   2.2015   3.2949   2.9838  -2.0999   1.8988  -1.6845   0.00    0.0
2188 433547.000  -2408917.9089   4698522.1257   3566026.7260   6   9   2.2014   3.2945   2.9839  -2.0996   1.8985  -1.6845   0.00    0.0
2188 433548.000  -2408918.2687   4698521.4883   3566027.2341   6   8   2.2016   3.2942   2.9840  -2.0996   1.8982  -1.6843   0.00    0.0
2188 433549.000  -2408917.5826   4698521.7182   3566027.2798   6   9   2.2012   3.2938   2.9841  -2.0992   1.8980  -1.6844   0.00    0.0
2188 433550.000  -2408917.3538   4698520.5347   3566026.6045   6   8   2.2014   3.2935   2.9842  -2.0991   1.8977  -1.6842   0.00    0.0
2188 433551.000  -2408918.9882   4698522.3953   3566027.0790   6   9   2.2010   3.2930   2.9843  -2.0987   1.8975  -1.6843   0.00    0.0
2188 433552.000  -2408918.7185   4698523.2861   3566026.4837   6   9   2.2008   3.2926   2.9844  -2.0984   1.8972  -1.6843   0.00    0.0
2188 433553.000  -2408918.5703   4698524.2806   3566026.4950   6   9   2.2007   3.2923   2.9845  -2.0982   1.8970  -1.6842   0.00    0.0
2188 433554.000  -2408917.8947   4698522.6804   3566026.0950   6   8   2.2007   3.2920   2.9849  -2.0981   1.8970  -1.6844   0.00    0.0
2188 433555.000  -2408918.2175   4698523.4815   3566025.6104   6   9   2.2005   3.2915   2.9847  -2.0977   1.8964  -1.6842   0.00    0.0
2188 433556.000  -2408918.4421   4698523.0277   3566025.3201   6   9   2.2004   3.2912   2.9848  -2.0975   1.8962  -1.6841   0.00    0.0
2188 433557.000  -2408918.6631   4698524.9743   3566026.5609   6   9   2.2003   3.2908   2.9849  -2.0972   1.8959  -1.6841   0.00    0.0
2188 433558.000  -2408918.7180   4698524.2696   3566026.0380   6   9   2.2002   3.2904   2.9850  -2.0970   1.8956  -1.6841   0.00    0.0
2188 433559.000  -2408919.3393   4698524.0869   3566026.4225   6   9   2.2001   3.2901   2.9851  -2.0968   1.8954  -1.6840   0.00    0.0
2188 433560.000  -2408918.4581   4698523.0796   3566026.3203   6   9   2.2000   3.2897   2.9852  -2.0965   1.8951  -1.6840   0.00    0.0
2188 433561.000  -2408918.3261   4698523.2477   3566026.8182   6   9   2.1999   3.2893   2.9853  -2.0963   1.8949  -1.6840   0.00    0.0
2188 433562.000  -2408917.8982   4698522.9076   3566026.1276   6   9   2.1998   3.2889   2.9854  -2.0961   1.8946  -1.6839   0.00    0.0
2188 433563.000  -2408918.8731   4698524.7946   3566026.3773   6   9   2.1997   3.2886   2.9855  -2.0958   1.8943  -1.6839   0.00    0.0
2188 433564.000  -2408917.1424   4698523.1322   3566026.1813   6   9   2.1996   3.2882   2.9856  -2.0956   1.8941  -1.6839   0.00    0.0
2188 433565.000  -2408918.4329   4698523.4779   3566026.2423   6   9   2.1995   3.2878   2.9857  -2.0953   1.8938  -1.6838   0.00    0.0
2188 433566.000  -2408918.2733   4698523.8447   3566025.6364   6   9   2.1994   3.2875   2.9858  -2.0951   1.8935  -1.6838   0.00    0.0
2188 433567.000  -2408918.2548   4698524.0601   3566027.5533   6   8   2.1997   3.2872   2.9860  -2.0951   1.8932  -1.6836   0.00    0.0
2188 433568.000  -2408918.3709   4698523.5007   3566026.2597   6   8   2.1996   3.2868   2.9861  -2.0949   1.8930  -1.6836   0.00    0.0
2188 433569.000  -2408918.2443   4698523.8632   3566026.8050   6   9   2.1991   3.2864   2.9862  -2.0944   1.8928  -1.6837   0.00    0.0
2188 433570.000  -2408918.9380   4698524.6629   3566026.9469   6   8   2.1993   3.2861   2.9863  -2.0944   1.8924  -1.6835   0.00    0.0
2188 433571.000  -2408918.6775   4698524.9606   3566026.7192   6   9   2.1989   3.2856   2.9864  -2.0939   1.8922  -1.6836   0.00    0.0
2188 433572.000  -2408918.0926   4698522.8798   3566025.5992   6   9   2.1988   3.2853   2.9865  -2.0937   1.8920  -1.6836   0.00    0.0
2188 433573.000  -2408919.2852   4698524.8671   3566026.2063   6   9   2.1987   3.2849   2.9866  -2.0934   1.8917  -1.6835   0.00    0.0
2188 433574.000  -2408918.4822   4698523.7468   3566026.5209   6   9   2.1986   3.2845   2.9867  -2.0932   1.8915  -1.6835   0.00    0.0
2188 433575.000  -2408918.5810   4698523.0953   3566026.1671   6   9   2.1985   3.2842   2.9868  -2.0930   1.8912  -1.6835   0.00    0.0
2188 433576.000  -2408918.5042   4698523.5385   3566025.5973   6   9   2.1984   3.2838   2.9869  -2.0927   1.8909  -1.6834   0.00    0.0
2188 433577.000  -2408917.8368   4698523.0305   3566025.7509   6   9   2.1983   3.2834   2.9870  -2.0925   1.8907  -1.6834   0.00    0.0
2188 433578.000  -2408919.0121   4698524.1647   3566026.4462   6   9   2.1982   3.2831   2.9871  -2.0923   1.8904  -1.6834   0.00    0.0
2188 433579.000  -2408918.7408   4698524.7912   3566027.4557   6   9   2.1981   3.2827   2.9872  -2.0920   1.8902  -1.6833   0.00    0.0
2188 433580.000  -2408917.9550   4698523.7096   3566026.3197   6   9   2.1980   3.2823   2.9873  -2.0918   1.8899  -1.6833   0.00    0.0
2188 433581.000  -2408918.2040   4698523.1553   3566026.2182   6   9   2.1979   3.2820   2.9874  -2.0916   1.8896  -1.6833   0.00    0.0
2188 433582.000  -2408916.9670   4698523.0747   3566026.2513   6   9   2.1978   3.2816   2.9875  -2.0913   1.8894  -1.6832   0.00    0.0
2188 433583.000  -2408917.5091   4698523.4147   3566026.6663   6   9   2.1977   3.2812   2.9876  -2.0911   1.8891  -1.6832   0.00    0.0
2188 433584.000  -2408918.2148   4698523.6881   3566027.2805   6   9   2.1976   3.2809   2.9877  -2.0908   1.8888  -1.6832   0.00    0.0
2188 433585.000  -2408918.4438   4698524.4801   3566026.4961   6   9   2.1975   3.2805   2.9878  -2.0906   1.8886  -1.6831   0.00    0.0
2188 433586.000  -2408917.8078   4698522.7505   3566026.9452   6   8   2.1977   3.2802   2.9879  -2.0906   1.8883  -1.6830   0.00    0.0
2188 433587.000  -2408917.7312   4698523.2699   3566025.1992   6   9   2.1973   3.2798   2.9880  -2.0901   1.8881  -1.6831   0.00    0.0
2188 433588.000  -2408918.3088   4698523.4270   3566025.9961   6   9   2.1972   3.2794   2.9881  -2.0899   1.8878  -1.6830   0.00    0.0
2188 433589.000  -2408917.5201   4698522.6554   3566025.6972   6   9   2.1971   3.2790   2.9882  -2.0897   1.8875  -1.6830   0.00    0.0
2188 433590.000  -2408918.1305   4698523.3497   3566025.8106   6   9   2.1970   3.2787   2.9883  -2.0894   1.8873  -1.6830   0.00    0.0
2188 433591.000  -2408918.2554   4698522.4888   3566025.5799   6   9   2.1969   3.2783   2.9884  -2.0892   1.8870  -1.6829   0.00    0.0
2188 433592.000  -2408918.4793   4698523.4656   3566026.0614   6   9   2.1968   3.2779   2.9885  -2.0890   1.8868  -1.6829   0.00    0.0
2188 433593.000  -2408917.3229   4698522.6278   3566026.1147   6   9   2.1967   3.2776   2.9886  -2.0887   1.8865  -1.6829   0.00    0.0
2188 433594.000  -2408918.1257   4698523.8928   3566025.6369   6   9   2.1966   3.2772   2.9887  -2.0885   1.8862  -1.6828   0.00    0.0
2188 433595.000  -2408918.3385   4698523.9222   3566026.8335   6   8   2.1965   3.2770   2.9890  -2.0884   1.8863  -1.6829   0.00    0.0
2188 433596.000  -2408918.2773   4698524.8588   3566026.4538   6   9   2.1964   3.2765   2.9889  -2.0880   1.8857  -1.6827   0.00    0.0
2188 433597.000  -2408918.3591   4698523.4954   3566025.8748   6   9   2.1963   3.2761   2.9890  -2.0878   1.8855  -1.6827   0.00    0.0
2188 433598.000  -2408918.3272   4698523.3647   3566026.1148   6   9   2.1962   3.2758   2.9891  -2.0876   1.8852  -1.6827   0.00    0.0
2188 433599.000  -2408918.6693   4698524.1809   3566025.3199   6   9   2.1961   3.2754   2.9892  -2.0873   1.8849  -1.6826   0.00    0.0
2188 433600.000  -2408917.2559   4698521.9544   3566023.9351   6   9   2.1960   3.2750   2.9893  -2.0871   1.8847  -1.6826   0.00    0.0
2188 433601.000  -2408918.1791   4698523.5665   3566024.9535   6   9   2.1959   3.2747   2.9894  -2.0869   1.8844  -1.6826   0.00    0.0
2188 433602.000  -2408917.5108   4698522.1407   3566024.6817   6   9   2.1958   3.2743   2.9895  -2.0866   1.8842  -1.6825   0.00    0.0
2188 433603.000  -2408918.3860   4698522.9604   3566025.2770   6   9   2.1957   3.2740   2.9896  -2.0864   1.8839  -1.6825   0.00    0.0
2188 433604.000  -2408917.5401   4698522.5320   3566024.2809   6   9   2.1956   3.2736   2.9897  -2.0862   1.8836  -1.6825   0.00    0.0
2188 433605.000  -2408917.2261   4698521.8035   3566025.5404   6   8   2.1956   3.2734   2.9900  -2.0860   1.8837  -1.6826   0.00    0.0
2188 433606.000  -2408917.9299   4698523.2883   3566026.5552   6   9   2.1954   3.2729   2.9899  -2.0857   1.8831  -1.6824   0.00    0.0
2188 433607.000  -2408917.9654   4698522.2720   3566025.9446   6   9   2.1953   3.2725   2.9900  -2.0855   1.8829  -1.6824   0.00    0.0
2188 433608.000  -2408917.3827   4698522.6224   3566025.9109   6   8   2.1953   3.2723   2.9903  -2.0853   1.8829  -1.6825   0.00    0.0
2188 433609.000  -2408917.2713   4698521.5782   3566024.9595   6   8   2.1952   3.2719   2.9904  -2.0851   1.8827  -1.6825   0.00    0.0
2188 433610.000  -2408917.4553   4698522.9225   3566025.2906   6   9   2.1950   3.2714   2.9903  -2.0848   1.8821  -1.6823   0.00    0.0
2188 433611.000  -2408918.2993   4698523.4968   3566025.9305   6   9   2.1949   3.2711   2.9904  -2.0845   1.8818  -1.6823   0.00    0.0
2188 433612.000  -2408917.9855   4698522.7006   3566026.4869   6   9   2.1948   3.2707   2.9905  -2.0843   1.8816  -1.6822   0.00    0.0
2188 433613.000  -2408917.5975   4698523.3321   3566025.9033   6   9   2.1947   3.2703   2.9906  -2.0841   1.8813  -1.6822   0.00    0.0
2188 433614.000  -2408917.2165   4698523.5446   3566025.5933   6   9   2.1946   3.2700   2.9907  -2.0838   1.8811  -1.6822   0.00    0.0
2188 433615.000  -2408916.3579   4698521.4148   3566025.1272   6   8   2.1968   3.2713   2.9915  -2.0861   1.8826  -1.6840   0.00    0.0
2188 433616.000  -2408917.1821   4698521.9515   3566025.1896   6   8   2.1967   3.2709   2.9916  -2.0859   1.8823  -1.6840   0.00    0.0
2188 433617.000  -2408917.0941   4698522.3493   3566025.4194   6   9   2.1943   3.2689   2.9910  -2.0832   1.8803  -1.6821   0.00    0.0
2188 433618.000  -2408918.2077   4698523.4156   3566026.1276   6   9   2.1942   3.2685   2.9911  -2.0829   1.8800  -1.6820   0.00    0.0
2188 433619.000  -2408917.2266   4698522.2383   3566026.3091   6   9   2.1941   3.2682   2.9912  -2.0827   1.8798  -1.6820   0.00    0.0
2188 433620.000  -2408917.4053   4698521.5386   3566025.2819   6   9   2.1940   3.2678   2.9913  -2.0825   1.8795  -1.6820   0.00    0.0
2188 433621.000  -2408917.8744   4698522.7627   3566026.1612   6   9   2.1939   3.2675   2.9914  -2.0822   1.8792  -1.6819   0.00    0.0
2188 433622.000  -2408917.4365   4698522.1062   3566026.1033   6   9   2.1938   3.2671   2.9915  -2.0820   1.8790  -1.6819   0.00    0.0
2188 433623.000  -2408917.2937   4698522.6496   3566026.2320   6   9   2.1937   3.2667   2.9916  -2.0818   1.8787  -1.6819   0.00    0.0
2188 433624.000  -2408917.5841   4698522.0729   3566025.7283   6   9   2.1937   3.2664   2.9917  -2.0815   1.8785  -1.6818   0.00    0.0
2188 433625.000  -2408917.5911   4698522.9013   3566025.7186   6   9   2.1936   3.2660   2.9918  -2.0813   1.8782  -1.6818   0.00    0.0
2188 433626.000  -2408917.0118   4698522.7635   3566025.1088   6   9   2.1935   3.2657   2.9919  -2.0811   1.8780  -1.6818   0.00    0.0
2188 433627.000  -2408917.8578   4698522.7131   3566026.1228   6   9   2.1934   3.2653   2.9920  -2.0808   1.8777  -1.6817   0.00    0.0
2188 433628.000  -2408917.7640   4698522.3243   3566025.3781   6   9   2.1933   3.2650   2.9921  -2.0806   1.8774  -1.6817   0.00    0.0
2188 433629.000  -2408916.9073   4698521.4913   3566024.4814   6   9   2.1932   3.2646   2.9922  -2.0804   1.8772  -1.6817   0.00    0.0
2188 433630.000  -2408917.8129   4698523.4908   3566025.7236   6   9   2.1931   3.2642   2.9923  -2.0802   1.8769  -1.6816   0.00    0.0
2188 433631.000  -2408917.5657   4698522.7688   3566026.0359   6   9   2.1930   3.2639   2.9924  -2.0799   1.8767  -1.6816   0.00    0.0
2188 433632.000  -2408917.9578   4698523.2501   3566025.6322   6   9   2.1929   3.2635   2.9925  -2.0797   1.8764  -1.6816   0.00    0.0
2188 433633.000  -2408917.8616   4698523.5095   3566025.5050   6   9   2.1928   3.2632   2.9926  -2.0795   1.8762  -1.6815   0.00    0.0
2188 433634.000  -2408917.9074   4698522.4711   3566025.3749   6   9   2.1927   3.2628   2.9927  -2.0792   1.8759  -1.6815   0.00    0.0
2188 433635.000  -2408917.7345   4698523.6693   3566024.8360   6   8   2.1928   3.2630   2.9931  -2.0794   1.8749  -1.6811   0.00    0.0
2188 433636.000  -2408918.4752   4698523.7202   3566027.0355   6   9   2.1925   3.2621   2.9929  -2.0788   1.8754  -1.6815   0.00    0.0
2188 433637.000  -2408918.2096   4698522.6989   3566026.3710   6   9   2.1924   3.2617   2.9930  -2.0786   1.8751  -1.6814   0.00    0.0
2188 433638.000  -2408918.0189   4698522.1814   3566025.8050   6   9   2.1923   3.2614   2.9931  -2.0783   1.8749  -1.6814   0.00    0.0
2188 433639.000  -2408918.2631   4698523.4118   3566025.8944   6   9   2.1922   3.2610   2.9932  -2.0781   1.8746  -1.6814   0.00    0.0
2188 433640.000  -2408919.1862   4698524.5230   3566026.5991   6   9   2.6729   3.5726   3.2711  -2.5594   2.3322  -2.2010   0.00    0.0
2188 433641.000  -2408919.2389   4698524.0075   3566026.8734   6   9   2.6727   3.5721   3.2712  -2.5590   2.3319  -2.2009   0.00    0.0
2188 433642.000  -2408916.7610   4698522.3333   3566025.5606   6   9   2.1919   3.2600   2.9935  -2.0774   1.8738  -1.6813   0.00    0.0
2188 433643.000  -2408917.9158   4698522.4656   3566025.4718   6   9   2.1918   3.2596   2.9936  -2.0772   1.8736  -1.6812   0.00    0.0
2188 433644.000  -2408918.4964   4698522.7926   3566025.0054   6   9   2.1917   3.2592   2.9937  -2.0770   1.8733  -1.6812   0.00    0.0
2188 433645.000  -2408918.0493   4698521.7450   3566025.6913   6   9   2.1916   3.2589   2.9938  -2.0767   1.8731  -1.6812   0.00    0.0
2188 433646.000  -2408918.5796   4698522.8640   3566026.1612   6   9   2.1915   3.2585   2.9939  -2.0765   1.8728  -1.6811   0.00    0.0
2188 433647.000  -2408918.3876   4698521.8342   3566026.3228   6   9   2.1914   3.2582   2.9940  -2.0763   1.8726  -1.6811   0.00    0.0
2188 433648.000  -2408919.6662   4698524.3007   3566026.4354   6   9   2.1913   3.2578   2.9941  -2.0760   1.8723  -1.6811   0.00    0.0
2188 433649.000  -2408918.7119   4698521.6031   3566025.8859   6   9   2.1912   3.2575   2.9942  -2.0758   1.8720  -1.6810   0.00    0.0
2188 433650.000  -2408918.4384   4698522.0248   3566025.9924   6   9   2.1911   3.2571   2.9943  -2.0756   1.8718  -1.6810   0.00    0.0
2188 433651.000  -2408918.3084   4698522.1334   3566025.7543   6   9   2.1911   3.2568   2.9944  -2.0754   1.8715  -1.6810   0.00    0.0
2188 433652.000  -2408918.3071   4698522.9297   3566026.2218   6   9   2.1910   3.2564   2.9945  -2.0751   1.8713  -1.6810   0.00    0.0
2188 433653.000  -2408918.5301   4698522.8773   3566026.5394   6   9   2.1909   3.2561   2.9946  -2.0749   1.8710  -1.6809   0.00    0.0
2188 433654.000  -2408918.4667   4698523.6887   3566027.0177   6   9   2.1908   3.2557   2.9947  -2.0747   1.8708  -1.6809   0.00    0.0
2188 433655.000  -2408918.6841   4698523.8384   3566026.0805   6   9   2.1907   3.2554   2.9948  -2.0745   1.8705  -1.6809   0.00    0.0
2188 433656.000  -2408918.7667   4698523.7819   3566025.9061   6   9   2.1906   3.2550   2.9949  -2.0742   1.8703  -1.6808   0.00    0.0
2188 433657.000  -2408918.8012   4698524.0672   3566025.7531   6   9   2.1905   3.2547   2.9950  -2.0740   1.8700  -1.6808   0.00    0.0
2188 433658.000  -2408918.4871   4698523.4448   3566026.7134   6   9   2.1904   3.2543   2.9951  -2.0738   1.8697  -1.6808   0.00    0.0
2188 433659.000  -2408919.1105   4698524.4493   3566026.6422   6   9   2.1903   3.2539   2.9952  -2.0735   1.8695  -1.6807   0.00    0.0
2188 433660.000  -2408918.1626   4698524.0086   3566026.0698   6   9   2.1902   3.2536   2.9953  -2.0733   1.8692  -1.6807   0.00    0.0
2188 433661.000  -2408917.8727   4698522.9320   3566025.3658   6   9   2.1901   3.2532   2.9954  -2.0731   1.8690  -1.6807   0.00    0.0
2188 433662.000  -2408918.1772   4698522.7008   3566025.8020   6   9   2.1900   3.2529   2.9955  -2.0729   1.8687  -1.6807   0.00    0.0
2188 433663.000  -2408917.7429   4698522.7994   3566026.0881   6   8   2.1900   3.2527   2.9958  -2.0727   1.8688  -1.6808   0.00    0.0
2188 433664.000  -2408918.6453   4698524.3377   3566026.0890   6   9   2.1898   3.2522   2.9957  -2.0724   1.8682  -1.6806   0.00    0.0
2188 433665.000  -2408918.3996   4698523.4117   3566026.9378   6   9   2.1897   3.2518   2.9958  -2.0722   1.8680  -1.6806   0.00    0.0
2188 433666.000  -2408918.6137   4698523.7602   3566027.4478   6   9   2.1896   3.2515   2.9959  -2.0720   1.8677  -1.6805   0.00    0.0
2188 433667.000  -2408919.0069   4698523.0716   3566027.0043   6   9   2.1895   3.2511   2.9960  -2.0717   1.8674  -1.6805   0.00    0.0
2188 433668.000  -2408919.0495   4698523.6935   3566026.6915   6   9   2.1894   3.2508   2.9961  -2.0715   1.8672  -1.6805   0.00    0.0
2188 433669.000  -2408918.5748   4698523.0842   3566026.7437   6   9   2.1893   3.2504   2.9962  -2.0713   1.8669  -1.6804   0.00    0.0
2188 433670.000  -2408919.4898   4698523.9005   3566027.3169   6   9   2.1893   3.2501   2.9963  -2.0711   1.8667  -1.6804   0.00    0.0
2188 433671.000  -2408919.0497   4698523.4569   3566027.2511   6   8   2.1892   3.2499   2.9966  -2.0707   1.8667  -1.6802   0.00    0.0
2188 433672.000  -2408918.9225   4698523.6279   3566025.8937   6   9   2.1891   3.2494   2.9965  -2.0706   1.8662  -1.6804   0.00    0.0
2188 433673.000  -2408919.1532   4698523.8207   3566026.5494   6   9   2.1890   3.2490   2.9966  -2.0704   1.8659  -1.6803   0.00    0.0
2188 433674.000  -2408919.2333   4698525.1292   3566027.0389   6   8   2.1889   3.2488   2.9969  -2.0703   1.8660  -1.6805   0.00    0.0
2188 433675.000  -2408918.4747   4698524.3150   3566026.4062   6   9   2.1888   3.2483   2.9968  -2.0699   1.8654  -1.6803   0.00    0.0
2188 433676.000  -2408919.3532   4698524.1634   3566027.7294   6   9   2.1887   3.2480   2.9969  -2.0697   1.8651  -1.6802   0.00    0.0
2188 433677.000  -2408919.5352   4698525.9062   3566027.4124   6   9   2.1886   3.2476   2.9970  -2.0695   1.8649  -1.6802   0.00    0.0
2188 433678.000  -2408919.2970   4698524.0071   3566026.6708   6   8   2.1886   3.2474   2.9973  -2.0694   1.8649  -1.6803   0.00    0.0
2188 433679.000  -2408918.6673   4698523.9425   3566026.4876   6   8   2.1885   3.2471   2.9974  -2.0691   1.8647  -1.6803   0.00    0.0
2188 433680.000  -2408919.0239   4698523.9700   3566027.7766   6   9   2.1883   3.2466   2.9973  -2.0688   1.8641  -1.6801   0.00    0.0
2188 433681.000  -2408918.3434   4698523.4264   3566027.2415   6   9   2.1882   3.2462   2.9974  -2.0686   1.8639  -1.6801   0.00    0.0
2188 433682.000  -2408918.6847   4698523.8299   3566026.9574   6   9   2.1881   3.2459   2.9975  -2.0684   1.8636  -1.6801   0.00    0.0
2188 433683.000  -2408918.8806   4698522.9353   3566026.3520   6   8   2.1881   3.2456   2.9979  -2.0682   1.8635  -1.6803   0.00    0.0
2188 433684.000  -2408917.9847   4698523.1448   3566025.9748   6   9   2.1879   3.2452   2.9977  -2.0679   1.8631  -1.6800   0.00    0.0
2188 433685.000  -2408918.5251   4698523.3879   3566026.6754   6   9   2.1879   3.2448   2.9978  -2.0677   1.8629  -1.6800   0.00    0.0
2188 433686.000  -2408917.9223   4698522.3880   3566027.0334   6   9   2.1878   3.2445   2.9979  -2.0675   1.8626  -1.6800   0.00    0.0
2188 433687.000  -2408918.9497   4698522.9468   3566027.8310   6   8   2.1877   3.2443   2.9982  -2.0674   1.8627  -1.6801   0.00    0.0
2188 433688.000  -2408918.6443   4698523.4000   3566027.5740   6   9   2.1876   3.2438   2.9981  -2.0670   1.8621  -1.6799   0.00    0.0
2188 433689.000  -2408918.4626   4698523.6502   3566027.5782   6   9   2.1875   3.2435   2.9982  -2.0668   1.8618  -1.6799   0.00    0.0
2188 433690.000  -2408918.3152   4698525.2068   3566026.2159   6   8   2.1874   3.2432   2.9985  -2.0667   1.8619  -1.6800   0.00    0.0
2188 433691.000  -2408918.5310   4698524.8159   3566027.0170   6   9   2.1873   3.2428   2.9983  -2.0664   1.8613  -1.6798   0.00    0.0
2188 433692.000  -2408918.6861   4698524.5917   3566026.6589   6   9   2.1872   3.2424   2.9984  -2.0661   1.8611  -1.6798   0.00    0.0
2188 433693.000  -2408918.7094   4698525.8041   3566027.3643   6   9   2.1871   3.2421   2.9985  -2.0659   1.8608  -1.6798   0.00    0.0
2188 433694.000  -2408918.6724   4698524.6629   3566026.7501   6   9   2.1870   3.2417   2.9986  -2.0657   1.8606  -1.6797   0.00    0.0
2188 433695.000  -2408919.5274   4698525.0819   3566027.4532   6   8   2.1870   3.2415   2.9990  -2.0656   1.8606  -1.6799   0.00    0.0
2188 433696.000  -2408919.3970   4698523.8107   3566026.2964   6   8   2.1869   3.2412   2.9991  -2.0654   1.8604  -1.6798   0.00    0.0
2188 433697.000  -2408918.9066   4698524.5369   3566026.3503   6   9   2.1868   3.2407   2.9989  -2.0650   1.8598  -1.6796   0.00    0.0
2188 433698.000  -2408918.8331   4698524.4544   3566026.2078   6   9   2.1867   3.2403   2.9990  -2.0648   1.8596  -1.6796   0.00    0.0
2188 433699.000  -2408919.1181   4698524.0316   3566026.2069   6   9   2.1866   3.2400   2.9991  -2.0646   1.8593  -1.6796   0.00    0.0
2188 433700.000  -2408918.7025   4698523.4944   3566027.1806   6   9   2.1865   3.2396   2.9992  -2.0644   1.8591  -1.6796   0.00    0.0
2188 433701.000  -2408918.4000   4698523.4831   3566026.1061   6   9   2.1864   3.2393   2.9993  -2.0642   1.8588  -1.6795   0.00    0.0
2188 433702.000  -2408918.2448   4698523.4268   3566026.3022   6   9   2.1863   3.2390   2.9994  -2.0639   1.8585  -1.6795   0.00    0.0
2188 433703.000  -2408918.3036   4698522.9316   3566025.9993   6   8   2.1862   3.2387   2.9998  -2.0638   1.8586  -1.6796   0.00    0.0
2188 433704.000  -2408918.7244   4698524.2021   3566026.9864   6   9   2.1861   3.2383   2.9996  -2.0635   1.8580  -1.6795   0.00    0.0
2188 433705.000  -2408918.8874   4698523.9208   3566026.2885   6   9   2.1860   3.2379   2.9997  -2.0633   1.8578  -1.6794   0.00    0.0
2188 433706.000  -2408918.3129   4698522.2973   3566026.0153   6   9   2.1859   3.2376   2.9998  -2.0631   1.8575  -1.6794   0.00    0.0
2188 433707.000  -2408918.4372   4698523.5934   3566027.6803   6   8   2.1859   3.2373   3.0003  -2.0629   1.8574  -1.6796   0.00    0.0
2188 433708.000  -2408918.7949   4698521.8871   3566027.6973   6   7   2.1859   3.2370   3.0007  -2.0628   1.8575  -1.6798   0.00    0.0
2188 433709.000  -2408918.7902   4698523.3523   3566026.9259   6   9   2.1857   3.2365   3.0001  -2.0624   1.8568  -1.6793   0.00    0.0
2188 433710.000  -2408919.4689   4698524.1674   3566027.2008   6   8   2.1856   3.2364   3.0005  -2.0621   1.8569  -1.6791   0.00    0.0
2188 433711.000  -2408919.8616   4698523.4454   3566027.2746   6   8   2.1855   3.2360   3.0006  -2.0618   1.8566  -1.6791   0.00    0.0
2188 433712.000  -2408918.8354   4698523.5528   3566027.1738   6   9   2.1854   3.2355   3.0004  -2.0617   1.8560  -1.6792   0.00    0.0
2188 433713.000  -2408918.5381   4698523.3449   3566027.6566   6   9   2.1853   3.2352   3.0005  -2.0615   1.8558  -1.6792   0.00    0.0
2188 433714.000  -2408918.3735   4698523.2967   3566027.4480   6   7   2.1853   3.2350   3.0012  -2.0612   1.8560  -1.6793   0.00    0.0
2188 433715.000  -2408919.4819   4698525.0265   3566027.8795   6   8   2.1852   3.2347   3.0009  -2.0610   1.8556  -1.6790   0.00    0.0
2188 433716.000  -2408918.6680   4698523.4770   3566026.7822   6   6   2.1852   3.2345   3.0017  -2.0609   1.8558  -1.6794   0.00    0.0
2188 433717.000  -2408919.1565   4698524.0379   3566026.8036   6   8   2.1850   3.2340   3.0011  -2.0605   1.8551  -1.6789   0.00    0.0
2188 433718.000  -2408918.7798   4698523.1947   3566026.4532   6   8   2.1849   3.2336   3.0012  -2.0603   1.8548  -1.6789   0.00    0.0
2188 433719.000  -2408919.5284   4698523.7310   3566026.7121   6   8   2.1848   3.2331   3.0015  -2.0603   1.8544  -1.6793   0.00    0.0
2188 433720.000  -2408919.3988   4698524.2276   3566027.4600   6   8   2.1847   3.2329   3.0014  -2.0599   1.8543  -1.6789   0.00    0.0
2188 433721.000  -2408920.2489   4698524.2906   3566028.2851   6   8   2.1847   3.2325   3.0017  -2.0598   1.8539  -1.6793   0.00    0.0
2188 433722.000  -2408919.5587   4698524.1678   3566028.8229   6   8   2.1846   3.2321   3.0018  -2.0596   1.8537  -1.6792   0.00    0.0
2188 433723.000  -2408918.8729   4698524.2307   3566027.6284   6   8   2.1845   3.2318   3.0019  -2.0594   1.8534  -1.6792   0.00    0.0
2188 433724.000  -2408919.4922   4698524.1454   3566027.0058   6   8   2.1843   3.2316   3.0018  -2.0590   1.8533  -1.6788   0.00    0.0
2188 433725.000  -2408919.0910   4698524.0007   3566027.4725   6   9   2.1842   3.2311   3.0017  -2.0589   1.8527  -1.6789   0.00    0.0
2188 433726.000  -2408919.6207   4698523.8037   3566028.0548   6   7   2.1843   3.2309   3.0024  -2.0586   1.8530  -1.6790   0.00    0.0
2188 433727.000  -2408919.8597   4698524.0999   3566028.4950   6   8   2.1841   3.2304   3.0023  -2.0585   1.8524  -1.6791   0.00    0.0
2188 433728.000  -2408919.4529   4698524.4159   3566028.3414   6   7   2.1841   3.2302   3.0026  -2.0582   1.8525  -1.6789   0.00    0.0
2188 433729.000  -2408919.1642   4698523.9753   3566027.7882   6   8   2.1839   3.2297   3.0025  -2.0581   1.8519  -1.6791   0.00    0.0
2188 433730.000  -2408918.6141   4698523.7148   3566027.7569   6   9   2.1838   3.2294   3.0022  -2.0578   1.8515  -1.6788   0.00    0.0
2188 433731.000  -2408918.8966   4698523.0845   3566027.9276   6   9   2.1837   3.2290   3.0023  -2.0576   1.8512  -1.6787   0.00    0.0
2188 433732.000  -2408918.7048   4698523.8151   3566028.0109   6   9   2.1836   3.2287   3.0024  -2.0574   1.8510  -1.6787   0.00    0.0
2188 433733.000  -2408918.7169   4698523.6161   3566027.7877   6   9   2.1835   3.2284   3.0025  -2.0571   1.8507  -1.6787   0.00    0.0
2188 433734.000  -2408919.6870   4698524.9708   3566028.4683   6   8   2.1835   3.2280   3.0029  -2.0570   1.8506  -1.6789   0.00    0.0
2188 433735.000  -2408919.5219   4698524.7336   3566029.1721   6   8   2.1834   3.2277   3.0030  -2.0568   1.8504  -1.6789   0.00    0.0
2188 433736.000  -2408919.4414   4698524.4394   3566028.3493   6   8   2.1833   3.2274   3.0031  -2.0566   1.8501  -1.6789   0.00    0.0
2188 433737.000  -2408918.8463   4698524.3115   3566027.2101   6   9   2.1831   3.2270   3.0029  -2.0563   1.8497  -1.6786   0.00    0.0
2188 433738.000  -2408917.9992   4698523.8839   3566027.2452   6   9   2.1831   3.2267   3.0029  -2.0561   1.8495  -1.6785   0.00    0.0
2188 433739.000  -2408918.3997   4698523.6740   3566028.4890   6   8   2.1831   3.2263   3.0034  -2.0559   1.8494  -1.6788   0.00    0.0
2188 433740.000  -2408918.2342   4698522.5681   3566027.3263   6   8   2.1830   3.2260   3.0035  -2.0557   1.8491  -1.6788   0.00    0.0
2188 433741.000  -2408918.5534   4698523.7334   3566027.1824   6   9   2.1828   3.2256   3.0032  -2.0554   1.8487  -1.6785   0.00    0.0
2188 433742.000  -2408918.0852   4698523.2415   3566026.4688   6   9   2.1827   3.2253   3.0033  -2.0552   1.8485  -1.6784   0.00    0.0
2188 433743.000  -2408918.0352   4698523.7648   3566027.9386   6   8   2.1829   3.2250   3.0035  -2.0552   1.8481  -1.6783   0.00    0.0
2188 433744.000  -2408918.5885   4698524.0817   3566027.1199   6   9   2.1825   3.2246   3.0035  -2.0548   1.8480  -1.6784   0.00    0.0
2188 433745.000  -2408919.2869   4698525.1338   3566029.0684   6   9   2.1824   3.2243   3.0036  -2.0545   1.8477  -1.6784   0.00    0.0
2188 433746.000  -2408919.6008   4698525.2825   3566028.3897   6   9   2.1823   3.2240   3.0037  -2.0543   1.8475  -1.6783   0.00    0.0
2188 433747.000  -2408918.4149   4698523.0186   3566027.0360   6   9   2.1823   3.2236   3.0038  -2.0541   1.8472  -1.6783   0.00    0.0
2188 433748.000  -2408919.1530   4698523.0228   3566027.0044   6   9   2.1822   3.2233   3.0039  -2.0539   1.8470  -1.6783   0.00    0.0
2188 433749.000  -2408919.1207   4698523.2628   3566027.5330   6   8   2.1821   3.2231   3.0043  -2.0538   1.8470  -1.6784   0.00    0.0
2188 433750.000  -2408918.8496   4698522.4406   3566026.5073   6   9   2.1820   3.2226   3.0041  -2.0535   1.8465  -1.6782   0.00    0.0
2188 433751.000  -2408919.7060   4698524.1655   3566027.9543   6   9   2.1819   3.2223   3.0042  -2.0533   1.8462  -1.6782   0.00    0.0
2188 433752.000  -2408919.2880   4698523.0698   3566027.2483   6   8   2.1819   3.2221   3.0046  -2.0531   1.8463  -1.6784   0.00    0.0
2188 433753.000  -2408919.1983   4698524.1631   3566026.8582   6   9   2.1817   3.2216   3.0044  -2.0528   1.8457  -1.6782   0.00    0.0
2188 433754.000  -2408918.3828   4698524.2727   3566027.6665   6   9   2.1816   3.2213   3.0045  -2.0526   1.8455  -1.6781   0.00    0.0
2188 433755.000  -2408918.9966   4698524.8178   3566027.7705   6   9   2.1816   3.2209   3.0046  -2.0524   1.8452  -1.6781   0.00    0.0
2188 433756.000  -2408918.0861   4698522.1468   3566026.8117   6   9   2.1815   3.2206   3.0047  -2.0522   1.8450  -1.6781   0.00    0.0
2188 433757.000  -2408918.2165   4698522.2843   3566027.5860   6   9   2.1814   3.2203   3.0048  -2.0520   1.8447  -1.6781   0.00    0.0
2188 433758.000  -2408919.0518   4698523.8737   3566027.9966   6   8   2.1813   3.2200   3.0052  -2.0518   1.8448  -1.6782   0.00    0.0
2188 433759.000  -2408919.1611   4698524.1839   3566027.6688   6   9   2.1812   3.2196   3.0050  -2.0515   1.8442  -1.6780   0.00    0.0
2188 433760.000  -2408919.3381   4698524.1639   3566027.6062   6   9   2.1811   3.2193   3.0051  -2.0513   1.8440  -1.6780   0.00    0.0
2188 433761.000  -2408918.9868   4698522.9595   3566027.6881   6   9   2.1810   3.2189   3.0052  -2.0511   1.8437  -1.6780   0.00    0.0
2188 433762.000  -2408919.3112   4698523.7819   3566027.1732   6   9   2.1810   3.2186   3.0053  -2.0509   1.8435  -1.6779   0.00    0.0
2188 433763.000  -2408918.8891   4698523.5541   3566026.6916   6   8   2.1812   3.2183   3.0054  -2.0509   1.8432  -1.6778   0.00    0.0
2188 433764.000  -2408918.3978   4698523.3971   3566027.0707   6   8   2.1808   3.2180   3.0057  -2.0506   1.8433  -1.6781   0.00    0.0
2188 433765.000  -2408919.0378   4698523.6422   3566027.1183   6   9   2.1807   3.2176   3.0056  -2.0503   1.8427  -1.6779   0.00    0.0
2188 433766.000  -2408918.2525   4698523.6130   3566026.0351   6   9   2.1806   3.2172   3.0057  -2.0500   1.8425  -1.6778   0.00    0.0
2188 433767.000  -2408919.4045   4698524.5029   3566025.9078   6   8   2.1807   3.2175   3.0060  -2.0503   1.8416  -1.6775   0.00    0.0
2188 433768.000  -2408918.3877   4698523.1291   3566025.2264   6   9   2.1804   3.2166   3.0058  -2.0496   1.8420  -1.6778   0.00    0.0
2188 433769.000  -2408918.2651   4698524.3025   3566025.6581   6   9   2.1803   3.2162   3.0059  -2.0494   1.8417  -1.6778   0.00    0.0
2188 433770.000  -2408918.8843   4698524.0364   3566027.0404   6   9   2.1803   3.2159   3.0060  -2.0492   1.8415  -1.6778   0.00    0.0
2188 433771.000  -2408918.7854   4698523.2142   3566026.3012   6   9   2.1802   3.2156   3.0061  -2.0490   1.8412  -1.6777   0.00    0.0
2188 433772.000  -2408918.7520   4698524.5531   3566027.5937   6   9   2.1801   3.2153   3.0062  -2.0488   1.8410  -1.6777   0.00    0.0
2188 433773.000  -2408918.4535   4698523.7023   3566025.9048   6   9   2.1800   3.2149   3.0063  -2.0486   1.8407  -1.6777   0.00    0.0
2188 433774.000  -2408918.7727   4698523.9796   3566026.1460   6   9   2.1799   3.2146   3.0064  -2.0483   1.8405  -1.6777   0.00    0.0
2188 433775.000  -2408919.0481   4698523.7199   3566026.3876   6   9   2.1798   3.2143   3.0065  -2.0481   1.8402  -1.6776   0.00    0.0
2188 433776.000  -2408918.4460   4698521.7779   3566026.0792   6   9   2.1797   3.2139   3.0066  -2.0479   1.8400  -1.6776   0.00    0.0
2188 433777.000  -2408918.6091   4698522.2332   3566026.6188   6   9   2.1797   3.2136   3.0067  -2.0477   1.8398  -1.6776   0.00    0.0
2188 433778.000  -2408918.3210   4698523.0778   3566026.5257   6   9   2.1796   3.2133   3.0068  -2.0475   1.8395  -1.6776   0.00    0.0
2188 433779.000  -2408917.9924   4698522.2626   3566026.2495   6   9   2.1795   3.2129   3.0069  -2.0473   1.8393  -1.6775   0.00    0.0
2188 433780.000  -2408918.1771   4698523.3474   3566026.5975   6   9   2.1794   3.2126   3.0070  -2.0471   1.8390  -1.6775   0.00    0.0
2188 433781.000  -2408917.9044   4698523.7036   3566026.9528   6   9   2.1793   3.2123   3.0071  -2.0469   1.8388  -1.6775   0.00    0.0
2188 433782.000  -2408917.9453   4698522.6759   3566027.3743   6   9   2.1792   3.2119   3.0072  -2.0467   1.8385  -1.6775   0.00    0.0
2188 433783.000  -2408918.6491   4698523.6446   3566028.1644   6   9   2.1792   3.2116   3.0073  -2.0464   1.8383  -1.6774   0.00    0.0
2188 433784.000  -2408918.5263   4698524.0876   3566027.9814   6   9   2.1791   3.2113   3.0074  -2.0462   1.8380  -1.6774   0.00    0.0
2188 433785.000  -2408918.4830   4698524.0273   3566026.9917   6   9   2.1790   3.2109   3.0075  -2.0460   1.8378  -1.6774   0.00    0.0
2188 433786.000  -2408918.6796   4698524.1855   3566026.9509   6   9   2.1789   3.2106   3.0076  -2.0458   1.8375  -1.6774   0.00    0.0
2188 433787.000  -2408918.5581   4698523.1241   3566026.8559   6   8   2.1789   3.2104   3.0079  -2.0457   1.8376  -1.6775   0.00    0.0
2188 433788.000  -2408919.5181   4698524.3625   3566027.7612   6   9   2.1787   3.2100   3.0078  -2.0454   1.8370  -1.6773   0.00    0.0
2188 433789.000  -2408917.7325   4698521.8158   3566025.9560   6   9   2.1786   3.2096   3.0079  -2.0452   1.8368  -1.6773   0.00    0.0
2188 433790.000  -2408917.7081   4698522.3149   3566027.0351   6   9   2.1786   3.2093   3.0080  -2.0450   1.8365  -1.6773   0.00    0.0
2188 433791.000  -2408919.5685   4698523.1363   3566027.6062   6   9   2.1785   3.2090   3.0081  -2.0448   1.8363  -1.6773   0.00    0.0
2188 433792.000  -2408917.9787   4698522.8993   3566026.3745   6   9   2.1784   3.2086   3.0081  -2.0446   1.8360  -1.6772   0.00    0.0
2188 433793.000  -2408918.5857   4698522.9494   3566026.8638   6   9   2.1783   3.2083   3.0082  -2.0443   1.8358  -1.6772   0.00    0.0
2188 433794.000  -2408919.0174   4698523.7716   3566028.0844   6   9   2.1782   3.2080   3.0083  -2.0441   1.8355  -1.6772   0.00    0.0
2188 433795.000  -2408917.6560   4698522.2745   3566026.6149   6   9   2.1781   3.2077   3.0084  -2.0439   1.8353  -1.6772   0.00    0.0
2188 433796.000  -2408917.9435   4698522.8186   3566026.7133   6   9   2.1781   3.2073   3.0085  -2.0437   1.8350  -1.6771   0.00    0.0
2188 433797.000  -2408918.3253   4698523.5251   3566026.0908   6   8   2.1780   3.2071   3.0089  -2.0436   1.8351  -1.6773   0.00    0.0
2188 433798.000  -2408919.4426   4698522.9164   3566026.9413   6   9   2.1779   3.2067   3.0087  -2.0433   1.8346  -1.6771   0.00    0.0
2188 433799.000  -2408918.3784   4698522.3795   3566027.0815   6   9   2.1778   3.2063   3.0088  -2.0431   1.8343  -1.6771   0.00    0.0
2188 433800.000  -2408918.6410   4698522.0181   3566026.5318   6   9   2.1777   3.2060   3.0089  -2.0429   1.8341  -1.6771   0.00    0.0
2188 433801.000  -2408918.0203   4698522.4855   3566025.9142   6   8   2.1777   3.2058   3.0093  -2.0428   1.8341  -1.6772   0.00    0.0
2188 433802.000  -2408918.6994   4698522.9336   3566027.2612   6   9   2.1776   3.2054   3.0091  -2.0425   1.8336  -1.6770   0.00    0.0
2188 433803.000  -2408918.5664   4698522.3811   3566027.3295   6   9   2.1775   3.2050   3.0092  -2.0423   1.8333  -1.6770   0.00    0.0
2188 433804.000  -2408918.5919   4698523.9664   3566027.7098   6   9   2.1774   3.2047   3.0093  -2.0420   1.8331  -1.6770   0.00    0.0
2188 433805.000  -2408918.2172   4698521.9883   3566026.5418   6   9   2.1773   3.2044   3.0094  -2.0418   1.8328  -1.6769   0.00    0.0
2188 433806.000  -2408918.1257   4698521.6955   3566026.2826   6   9   2.1772   3.2040   3.0095  -2.0416   1.8326  -1.6769   0.00    0.0
2188 433807.000  -2408919.1668   4698523.7637   3566027.3099   6   8   2.1772   3.2038   3.0098  -2.0415   1.8326  -1.6771   0.00    0.0
2188 433808.000  -2408918.4903   4698522.7245   3566026.1330   6   9   2.1771   3.2034   3.0097  -2.0412   1.8321  -1.6769   0.00    0.0
2188 433809.000  -2408918.1954   4698522.3172   3566025.6683   6   9   2.1770   3.2031   3.0098  -2.0410   1.8318  -1.6769   0.00    0.0
2188 433810.000  -2408917.9923   4698522.1161   3566026.2689   6   9   2.1769   3.2027   3.0099  -2.0408   1.8316  -1.6768   0.00    0.0
2188 433811.000  -2408918.4106   4698523.0432   3566026.9275   6   9   2.1768   3.2024   3.0100  -2.0406   1.8314  -1.6768   0.00    0.0
2188 433812.000  -2408918.5249   4698522.7586   3566026.2695   6   9   2.1767   3.2021   3.0100  -2.0404   1.8311  -1.6768   0.00    0.0
2188 433813.000  -2408918.8300   4698524.3413   3566026.6899   6   9   2.1766   3.2018   3.0101  -2.0402   1.8309  -1.6768   0.00    0.0
2188 433814.000  -2408917.5048   4698522.4307   3566026.0254   6   9   2.1766   3.2014   3.0102  -2.0400   1.8306  -1.6767   0.00    0.0
2188 433815.000  -2408918.1500   4698522.3136   3566026.5794   6   9   2.1765   3.2011   3.0103  -2.0398   1.8304  -1.6767   0.00    0.0
2188 433816.000  -2408917.7405   4698522.1289   3566024.5463   6   9   2.1764   3.2008   3.0104  -2.0396   1.8301  -1.6767   0.00    0.0
2188 433817.000  -2408918.5476   4698522.9696   3566026.7355   6   9   2.1763   3.2005   3.0105  -2.0393   1.8299  -1.6767   0.00    0.0
2188 433818.000  -2408917.9548   4698522.5849   3566026.6723   6   9   2.1762   3.2001   3.0106  -2.0391   1.8296  -1.6767   0.00    0.0
2188 433819.000  -2408918.4690   4698522.5555   3566027.6798   6   9   2.1761   3.1998   3.0107  -2.0389   1.8294  -1.6766   0.00    0.0
2188 433820.000  -2408918.7610   4698522.8550   3566026.7463   6   9   2.1761   3.1995   3.0108  -2.0387   1.8291  -1.6766   0.00    0.0
2188 433821.000  -2408918.4258   4698524.1749   3566026.2657   6   9   2.1760   3.1992   3.0109  -2.0385   1.8289  -1.6766   0.00    0.0
2188 433822.000  -2408918.8299   4698523.9603   3566025.9232   6   9   2.1759   3.1988   3.0110  -2.0383   1.8287  -1.6766   0.00    0.0
2188 433823.000  -2408918.1370   4698523.1030   3566025.8026   6   9   2.1758   3.1985   3.0111  -2.0381   1.8284  -1.6766   0.00    0.0
2188 433824.000  -2408917.3644   4698521.1242   3566025.2059   6   9   2.1757   3.1982   3.0112  -2.0379   1.8282  -1.6765   0.00    0.0
2188 433825.000  -2408918.0941   4698523.2794   3566026.7218   6   9   2.1757   3.1979   3.0113  -2.0377   1.8279  -1.6765   0.00    0.0
2188 433826.000  -2408918.1064   4698522.0986   3566026.4834   6   9   2.1756   3.1976   3.0114  -2.0375   1.8277  -1.6765   0.00    0.0
2188 433827.000  -2408918.8870   4698524.0366   3566027.1846   6   9   2.1755   3.1972   3.0115  -2.0373   1.8274  -1.6765   0.00    0.0
2188 433828.000  -2408917.9646   4698523.6022   3566027.0537   6   9   2.1754   3.1969   3.0116  -2.0371   1.8272  -1.6764   0.00    0.0
2188 433829.000  -2408918.5778   4698522.9044   3566026.4817   6   9   2.1753   3.1966   3.0117  -2.0369   1.8269  -1.6764   0.00    0.0
2188 433830.000  -2408918.5992   4698522.5769   3566026.7748   6   9   2.1752   3.1963   3.0117  -2.0367   1.8267  -1.6764   0.00    0.0
2188 433831.000  -2408917.2912   4698522.1623   3566026.9118   6   9   2.1752   3.1959   3.0118  -2.0365   1.8264  -1.6764   0.00    0.0
2188 433832.000  -2408917.6120   4698523.5572   3566026.9623   6   9   2.1751   3.1956   3.0119  -2.0363   1.8262  -1.6764   0.00    0.0
2188 433833.000  -2408918.2785   4698522.3525   3566026.6212   6   9   2.1750   3.1953   3.0120  -2.0361   1.8260  -1.6763   0.00    0.0
2188 433834.000  -2408918.4273   4698522.8291   3566026.7622   6   9   2.1749   3.1950   3.0121  -2.0359   1.8257  -1.6763   0.00    0.0
2188 433835.000  -2408918.5475   4698522.0917   3566026.8602   6   8   2.1749   3.1948   3.0125  -2.0357   1.8258  -1.6765   0.00    0.0
2188 433836.000  -2408917.3261   4698521.9624   3566026.4629   6   9   2.1748   3.1943   3.0123  -2.0354   1.8252  -1.6763   0.00    0.0
2188 433837.000  -2408917.3723   4698522.3111   3566025.1778   6   9   2.1747   3.1940   3.0124  -2.0352   1.8250  -1.6763   0.00    0.0
2188 433838.000  -2408917.4293   4698523.7116   3566026.4606   6   9   2.1746   3.1937   3.0125  -2.0350   1.8247  -1.6762   0.00    0.0
2188 433839.000  -2408917.6827   4698522.4969   3566025.8258   6   9   2.1745   3.1934   3.0126  -2.0348   1.8245  -1.6762   0.00    0.0
2188 433840.000  -2408918.0226   4698522.7782   3566025.4697   6   9   2.1744   3.1930   3.0127  -2.0346   1.8243  -1.6762   0.00    0.0
2188 433841.000  -2408917.6656   4698522.5199   3566025.0251   6   8   2.1744   3.1928   3.0130  -2.0345   1.8243  -1.6763   0.00    0.0
2188 433842.000  -2408917.7201   4698522.1340   3566025.3572   6   8   2.1743   3.1925   3.0131  -2.0343   1.8241  -1.6763   0.00    0.0
2188 433843.000  -2408918.0662   4698523.0827   3566026.0579   6   8   2.1742   3.1922   3.0132  -2.0341   1.8238  -1.6763   0.00    0.0
2188 433844.000  -2408918.8761   4698523.3934   3566026.1827   6   9   2.1741   3.1918   3.0131  -2.0338   1.8233  -1.6761   0.00    0.0
2188 433845.000  -2408917.9541   4698523.4244   3566026.3549   6   8   2.1741   3.1916   3.0134  -2.0337   1.8233  -1.6763   0.00    0.0
2188 433846.000  -2408917.9277   4698523.5191   3566027.0242   6   8   2.1740   3.1912   3.0135  -2.0335   1.8231  -1.6762   0.00    0.0
2188 433847.000  -2408917.0361   4698521.8481   3566024.7627   6   8   2.1739   3.1909   3.0136  -2.0333   1.8229  -1.6762   0.00    0.0
2188 433848.000  -2408918.7247   4698524.2526   3566025.8267   6   8   2.1738   3.1906   3.0137  -2.0331   1.8226  -1.6762   0.00    0.0
2188 433849.000  -2408918.7573   4698523.3541   3566025.8019   6   8   2.1738   3.1903   3.0138  -2.0329   1.8224  -1.6762   0.00    0.0
2188 433850.000  -2408917.3621   4698522.1868   3566025.0305   6   8   2.1737   3.1900   3.0139  -2.0327   1.8221  -1.6762   0.00    0.0
2188 433851.000  -2408917.7560   4698521.9928   3566025.1445   6   8   2.1736   3.1897   3.0140  -2.0325   1.8219  -1.6761   0.00    0.0
2188 433852.000  -2408917.8651   4698522.7423   3566025.6937   6   9   2.1735   3.1892   3.0138  -2.0322   1.8213  -1.6760   0.00    0.0
2188 433853.000  -2408918.6000   4698523.4529   3566025.9916   6   9   2.1734   3.1889   3.0139  -2.0320   1.8211  -1.6759   0.00    0.0
2188 433854.000  -2408917.9840   4698523.3841   3566026.0295   6   8   2.1754   3.1900   3.0146  -2.0340   1.8224  -1.6776   0.00    0.0
2188 433855.000  -2408917.7287   4698522.8137   3566025.2443   6   8   2.1733   3.1884   3.0144  -2.0317   1.8209  -1.6761   0.00    0.0
2188 433856.000  -2408918.1837   4698522.3844   3566025.8049   6   8   2.1732   3.1881   3.0144  -2.0315   1.8207  -1.6760   0.00    0.0
2188 433857.000  -2408917.9099   4698522.9034   3566024.5745   6   7   2.1752   3.1892   3.0151  -2.0335   1.8220  -1.6777   0.00    0.0
2188 433858.000  -2408917.5671   4698522.1621   3566025.1386   6   8   2.1751   3.1887   3.0149  -2.0332   1.8214  -1.6775   0.00    0.0
2188 433859.000  -2408918.2559   4698522.8337   3566025.4223   6   8   2.1730   3.1871   3.0147  -2.0309   1.8199  -1.6760   0.00    0.0
2188 433860.000  -2408918.8751   4698523.1256   3566026.2092   6   9   2.1728   3.1867   3.0145  -2.0306   1.8194  -1.6758   0.00    0.0
2188 433861.000  -2408918.4407   4698522.7832   3566025.1365   6   9   2.1728   3.1864   3.0146  -2.0304   1.8191  -1.6758   0.00    0.0
2188 433862.000  -2408917.4089   4698522.0901   3566024.8900   6   8   2.1727   3.1862   3.0150  -2.0303   1.8192  -1.6759   0.00    0.0
2188 433863.000  -2408917.7806   4698523.5929   3566026.1998   6   9   2.1726   3.1857   3.0148  -2.0300   1.8187  -1.6757   0.00    0.0
2188 433864.000  -2408917.7380   4698522.9985   3566026.5749   6   8   2.1746   3.1868   3.0155  -2.0320   1.8200  -1.6774   0.00    0.0
2188 433865.000  -2408918.5326   4698523.4207   3566026.7879   6   9   2.1725   3.1851   3.0150  -2.0296   1.8182  -1.6757   0.00    0.0
2188 433866.000  -2408917.4999   4698522.2523   3566026.6748   6   8   2.1724   3.1849   3.0154  -2.0295   1.8182  -1.6759   0.00    0.0
2188 433867.000  -2408917.5984   4698522.1044   3566025.7155   6   9   2.1723   3.1845   3.0152  -2.0292   1.8177  -1.6757   0.00    0.0
2188 433868.000  -2408918.0387   4698523.3626   3566025.9852   6   9   2.1722   3.1841   3.0153  -2.0290   1.8174  -1.6757   0.00    0.0
2188 433869.000  -2408917.7427   4698521.2218   3566025.7324   6   9   2.1721   3.1838   3.0154  -2.0288   1.8172  -1.6756   0.00    0.0
2188 433870.000  -2408918.0581   4698521.5893   3566024.6383   6   9   2.1721   3.1835   3.0155  -2.0286   1.8170  -1.6756   0.00    0.0
2188 433871.000  -2408918.7282   4698523.4248   3566026.0650   6   9   2.1720   3.1832   3.0156  -2.0284   1.8167  -1.6756   0.00    0.0
2188 433872.000  -2408918.0273   4698521.4440   3566025.6659   6   9   2.1719   3.1829   3.0157  -2.0282   1.8165  -1.6756   0.00    0.0
2188 433873.000  -2408918.1998   4698521.7652   3566026.0357   6   8   2.1739   3.1840   3.0163  -2.0302   1.8178  -1.6772   0.00    0.0
2188 433874.000  -2408917.5882   4698522.1954   3566026.9388   6   9   2.1717   3.1823   3.0158  -2.0278   1.8160  -1.6755   0.00    0.0
2188 433875.000  -2408918.0617   4698523.0881   3566026.5796   6   9   2.1717   3.1819   3.0159  -2.0276   1.8158  -1.6755   0.00    0.0
2188 433876.000  -2408917.1252   4698522.1970   3566026.1162   6   8   2.1716   3.1817   3.0163  -2.0275   1.8158  -1.6757   0.00    0.0
2188 433877.000  -2408918.4468   4698522.9637   3566027.0557   6   9   2.1715   3.1813   3.0161  -2.0272   1.8153  -1.6755   0.00    0.0
2188 433878.000  -2408918.2022   4698521.9088   3566026.1509   6   9   2.1714   3.1810   3.0162  -2.0270   1.8150  -1.6755   0.00    0.0
2188 433879.000  -2408917.4635   4698522.4291   3566026.7264   6   9   2.1714   3.1807   3.0163  -2.0268   1.8148  -1.6754   0.00    0.0
2188 433880.000  -2408917.8031   4698523.0097   3566025.1974   6   9   2.1713   3.1804   3.0164  -2.0266   1.8145  -1.6754   0.00    0.0
2188 433881.000  -2408917.1542   4698521.6917   3566025.4355   6   8   2.1712   3.1802   3.0168  -2.0265   1.8146  -1.6756   0.00    0.0
2188 433882.000  -2408917.8666   4698522.8460   3566025.6819   6   7   2.1733   3.1817   3.0174  -2.0288   1.8149  -1.6767   0.00    0.0
2188 433883.000  -2408916.6330   4698520.9828   3566025.3371   6   9   2.1711   3.1794   3.0167  -2.0260   1.8138  -1.6754   0.00    0.0
2188 433884.000  -2408917.0988   4698522.7326   3566026.5207   6   9   2.1710   3.1791   3.0168  -2.0258   1.8136  -1.6754   0.00    0.0
2188 433885.000  -2408917.5816   4698522.4282   3566026.0031   6   8   2.1729   3.1802   3.0174  -2.0278   1.8149  -1.6770   0.00    0.0
2188 433886.000  -2408918.0890   4698523.6702   3566026.0515   6   9   2.1708   3.1785   3.0169  -2.0254   1.8131  -1.6753   0.00    0.0
2188 433887.000  -2408917.1839   4698522.3766   3566026.6102   6   9   2.1707   3.1782   3.0170  -2.0252   1.8129  -1.6753   0.00    0.0
2188 433888.000  -2408917.2754   4698523.3280   3566025.7204   6   8   2.1707   3.1780   3.0174  -2.0251   1.8129  -1.6754   0.00    0.0
2188 433889.000  -2408917.5173   4698521.5203   3566025.4110   6   8   2.1706   3.1777   3.0175  -2.0249   1.8127  -1.6754   0.00    0.0
2188 433890.000  -2408916.9175   4698522.4598   3566025.0363   6   8   2.1706   3.1774   3.0176  -2.0247   1.8124  -1.6754   0.00    0.0
2188 433891.000  -2408917.6353   4698522.5928   3566026.6440   6   8   2.1705   3.1770   3.0177  -2.0245   1.8122  -1.6754   0.00    0.0
2188 433892.000  -2408917.8894   4698523.1443   3566025.4204   6   7   2.1724   3.1781   3.0183  -2.0265   1.8135  -1.6770   0.00    0.0
2188 433893.000  -2408917.8518   4698522.9457   3566025.5007   6   9   2.1703   3.1763   3.0176  -2.0240   1.8114  -1.6752   0.00    0.0
2188 433894.000  -2408916.7945   4698521.8640   3566026.1236   6   8   2.1722   3.1774   3.0182  -2.0260   1.8127  -1.6768   0.00    0.0
2188 433895.000  -2408917.5928   4698521.6657   3566026.9156   6   8   2.1722   3.1771   3.0183  -2.0258   1.8124  -1.6768   0.00    0.0
2188 433896.000  -2408916.9982   4698521.7065   3566025.3795   6   7   2.1721   3.1769   3.0187  -2.0257   1.8125  -1.6769   0.00    0.0
2188 433897.000  -2408918.1333   4698523.1336   3566027.4791   6   8   2.1720   3.1765   3.0185  -2.0254   1.8120  -1.6768   0.00    0.0
2188 433898.000  -2408917.9311   4698523.0257   3566026.5289   6   8   2.1719   3.1761   3.0186  -2.0252   1.8117  -1.6767   0.00    0.0
2188 433899.000  -2408917.3514   4698522.4454   3566025.8140   6   8   2.1719   3.1758   3.0187  -2.0250   1.8115  -1.6767   0.00    0.0
2188 433900.000  -2408918.0604   4698522.8349   3566026.1893   6   9   2.1698   3.1741   3.0182  -2.0226   1.8097  -1.6751   0.00    0.0
2188 433901.000  -2408917.5550   4698521.9253   3566026.0741   6   8   2.1697   3.1739   3.0186  -2.0225   1.8098  -1.6752   0.00    0.0
2188 433902.000  -2408917.7706   4698521.9307   3566026.0192   6   9   2.1696   3.1735   3.0184  -2.0222   1.8093  -1.6750   0.00    0.0
2188 433903.000  -2408917.8379   4698521.9506   3566025.5879   6   9   2.1695   3.1732   3.0185  -2.0220   1.8090  -1.6750   0.00    0.0
2188 433904.000  -2408917.9682   4698522.8239   3566026.2169   6   9   2.1695   3.1729   3.0186  -2.0218   1.8088  -1.6750   0.00    0.0
2188 433905.000  -2408918.0872   4698522.6936   3566024.7740   6   9   2.1694   3.1726   3.0187  -2.0217   1.8085  -1.6750   0.00    0.0
2188 433906.000  -2408917.4052   4698521.1011   3566026.7042   6   8   2.1693   3.1724   3.0190  -2.0215   1.8086  -1.6751   0.00    0.0
2188 433907.000  -2408916.9735   4698521.0624   3566024.9214   6   9   2.1692   3.1720   3.0189  -2.0213   1.8081  -1.6750   0.00    0.0
2188 433908.000  -2408917.3592   4698521.7351   3566025.3994   6   9   2.1692   3.1717   3.0190  -2.0211   1.8078  -1.6749   0.00    0.0
2188 433909.000  -2408917.6245   4698520.9348   3566026.1966   6   9   2.1691   3.1714   3.0190  -2.0209   1.8076  -1.6749   0.00    0.0
2188 433910.000  -2408918.4675   4698522.3328   3566025.9466   6   8   2.1710   3.1724   3.0197  -2.0228   1.8088  -1.6765   0.00    0.0
2188 433911.000  -2408918.1719   4698521.4828   3566025.9707   6   8   2.1709   3.1721   3.0198  -2.0226   1.8086  -1.6765   0.00    0.0
2188 433912.000  -2408917.7068   4698520.2882   3566025.2683   6   8   2.1709   3.1718   3.0199  -2.0224   1.8084  -1.6765   0.00    0.0
2188 433913.000  -2408917.2756   4698521.2254   3566025.7511   6   8   2.1708   3.1715   3.0200  -2.0223   1.8081  -1.6765   0.00    0.0
2188 433914.000  -2408918.1399   4698521.5580   3566026.2301   6   8   2.1707   3.1712   3.0201  -2.0221   1.8079  -1.6764   0.00    0.0
2188 433915.000  -2408918.7900   4698522.9810   3566026.9099   6   8   2.1706   3.1709   3.0201  -2.0219   1.8076  -1.6764   0.00    0.0
2188 433916.000  -2408918.1790   4698521.4787   3566026.8385   6   8   2.1706   3.1706   3.0202  -2.0217   1.8074  -1.6764   0.00    0.0
2188 433917.000  -2408918.4098   4698522.0357   3566026.8829   6   9   2.1685   3.1689   3.0198  -2.0193   1.8057  -1.6748   0.00    0.0
2188 433918.000  -2408917.9978   4698521.3685   3566026.2874   6   9   2.1684   3.1686   3.0199  -2.0191   1.8054  -1.6748   0.00    0.0
2188 433919.000  -2408918.2393   4698521.8444   3566026.0002   6   9   2.1683   3.1683   3.0200  -2.0189   1.8052  -1.6748   0.00    0.0
2188 433920.000  -2408918.1606   4698522.6492   3566025.8615   6   8   2.1683   3.1681   3.0203  -2.0188   1.8053  -1.6749   0.00    0.0
