% program   : RTKPOST ver.2.4.3 b34
% inp file  : E:\Navigation_Learn\GNSS\RTKLIB-b34k\data\data_IGM-A1_Vehicle_open_20211217-nsh\IGM-A1_rover.21o
% inp file  : E:\Navigation_Learn\GNSS\RTKLIB-b34k\data\data_IGM-A1_Vehicle_open_20211217-nsh\IGM-A1_base.21o
% inp file  : E:\Navigation_Learn\GNSS\RTKLIB-b34k\data\data_IGM-A1_Vehicle_open_20211217-nsh\brdm3510.21p
% obs start : 2021/12/17 00:24:51.0 GPST (week2188 433491.0s)
% obs end   : 2021/12/17 02:39:38.0 GPST (week2188 441578.0s)
% pos mode  : Kinematic
% freqs     : L1+2
% solution  : Forward
% elev mask : 10.0 deg
% dynamics  : off
% tidecorr  : off
% ionos opt : Broadcast
% tropo opt : Saastamoinen
% ephemeris : Broadcast
% navi sys  : GPS BDS
% amb res   : Instantaneous
% val thres : 3.0
% antenna1  : TRMR10          NONE  ( 0.0000  0.0000  1.3659)
% antenna2  : TRMR10          NONE  ( 0.0000  0.0000  0.0000)
% ref pos   : -2408833.2390   4698174.1030   3566553.0740
%
% (x/y/z-ecef=WGS84,Q=1:fix,2:float,3:sbas,4:dgps,5:single,6:ppp,ns=# of satellites)
%  GPST              x-ecef(m)      y-ecef(m)      z-ecef(m)   Q  ns   sdx(m)   sdy(m)   sdz(m)  sdxy(m)  sdyz(m)  sdzx(m) age(s)  ratio
2188 433491.000  -2408913.9866   4698518.1107   3566015.5661   1  19   0.0046   0.0064   0.0053  -0.0045   0.0042  -0.0036   0.00    4.1
2188 433492.000  -2408913.9872   4698518.1119   3566015.5707   1  19   0.0046   0.0064   0.0053  -0.0045   0.0042  -0.0036   0.00    3.8
2188 433493.000  -2408913.9816   4698518.1016   3566015.5651   1  19   0.0046   0.0064   0.0053  -0.0045   0.0042  -0.0036   0.00    3.8
2188 433494.000  -2408913.9825   4698518.1030   3566015.5675   1  19   0.0046   0.0064   0.0053  -0.0045   0.0042  -0.0036   0.00    4.1
2188 433495.000  -2408913.9819   4698518.1015   3566015.5662   1  19   0.0046   0.0064   0.0053  -0.0045   0.0042  -0.0036   0.00    4.2
2188 433496.000  -2408913.9872   4698518.1067   3566015.5727   1  19   0.0046   0.0064   0.0053  -0.0045   0.0042  -0.0036   0.00    3.8
2188 433497.000  -2408913.9830   4698518.1026   3566015.5681   1  19   0.0046   0.0064   0.0053  -0.0045   0.0042  -0.0036   0.00    3.8
2188 433498.000  -2408913.9867   4698518.1039   3566015.5675   1  19   0.0046   0.0064   0.0053  -0.0045   0.0042  -0.0036   0.00    4.1
2188 433499.000  -2408913.9818   4698518.1025   3566015.5644   1  19   0.0046   0.0064   0.0053  -0.0045   0.0042  -0.0036   0.00    4.1
2188 433500.000  -2408913.9845   4698518.1007   3566015.5627   1  19   0.0046   0.0064   0.0053  -0.0045   0.0041  -0.0036   0.00    3.9
2188 433501.000  -2408913.9811   4698518.1010   3566015.5606   1  19   0.0046   0.0064   0.0053  -0.0045   0.0041  -0.0036   0.00    3.9
2188 433502.000  -2408913.9855   4698518.0992   3566015.5588   1  19   0.0046   0.0064   0.0053  -0.0045   0.0041  -0.0036   0.00    4.5
2188 433503.000  -2408913.9841   4698518.1055   3566015.5640   1  19   0.0046   0.0064   0.0053  -0.0045   0.0041  -0.0036   0.00    4.3
2188 433504.000  -2408913.9817   4698518.0997   3566015.5630   1  19   0.0046   0.0064   0.0053  -0.0045   0.0041  -0.0036   0.00    4.1
2188 433505.000  -2408913.9793   4698518.1014   3566015.5648   1  19   0.0046   0.0064   0.0053  -0.0045   0.0041  -0.0036   0.00    3.9
2188 433506.000  -2408913.9812   4698518.1010   3566015.5623   1  19   0.0046   0.0064   0.0053  -0.0045   0.0041  -0.0036   0.00    4.6
2188 433507.000  -2408913.9834   4698518.1055   3566015.5638   1  18   0.0052   0.0069   0.0056  -0.0052   0.0047  -0.0042   0.00    6.1
2188 433508.000  -2408913.9833   4698518.1043   3566015.5654   1  18   0.0052   0.0069   0.0056  -0.0052   0.0047  -0.0042   0.00    6.6
2188 433509.000  -2408914.2933   4698518.1466   3566015.5922   2  19   0.4782   0.6456   0.5407  -0.4687   0.4329  -0.3839   0.00    2.1
2188 433510.000  -2408914.2295   4698518.2987   3566015.6218   2  20   0.4288   0.6096   0.5118  -0.4180   0.3878  -0.3324   0.00    1.9
2188 433511.000  -2408914.0335   4698518.2266   3566015.6746   2  20   0.4288   0.6096   0.5118  -0.4179   0.3878  -0.3324   0.00    1.8
2188 433512.000  -2408914.1274   4698518.0616   3566015.3408   2  20   0.4288   0.6095   0.5119  -0.4179   0.3878  -0.3324   0.00    1.9
2188 433513.000  -2408914.0573   4698518.2797   3566015.4527   2  20   0.4288   0.6095   0.5119  -0.4179   0.3877  -0.3324   0.00    1.8
2188 433514.000  -2408913.9049   4698518.1226   3566015.5130   2  20   0.4287   0.6094   0.5119  -0.4178   0.3877  -0.3324   0.00    2.1
2188 433515.000  -2408913.8907   4698517.6938   3566015.5280   2  20   0.4287   0.6093   0.5119  -0.4178   0.3877  -0.3324   0.00    1.7
2188 433516.000  -2408914.4610   4698518.3604   3566016.2557   2  20   0.4287   0.6093   0.5119  -0.4178   0.3876  -0.3324   0.00    1.8
2188 433517.000  -2408914.0643   4698518.0100   3566015.2374   2  20   0.4287   0.6092   0.5119  -0.4177   0.3876  -0.3324   0.00    1.9
2188 433518.000  -2408914.2512   4698518.4207   3566015.6534   2  20   0.4287   0.6092   0.5119  -0.4177   0.3876  -0.3323   0.00    1.9
2188 433519.000  -2408914.0093   4698517.9625   3566015.5517   2  20   0.4287   0.6091   0.5120  -0.4177   0.3876  -0.3323   0.00    2.2
2188 433520.000  -2408914.0317   4698517.9041   3566015.5228   2  20   0.4286   0.6091   0.5120  -0.4176   0.3875  -0.3323   0.00    2.1
2188 433521.000  -2408914.0570   4698518.1519   3566015.5897   2  20   0.4286   0.6090   0.5120  -0.4176   0.3875  -0.3323   0.00    2.2
2188 433522.000  -2408914.0179   4698517.8930   3566015.3098   2  20   0.4286   0.6090   0.5120  -0.4176   0.3875  -0.3323   0.00    2.3
2188 433523.000  -2408914.0776   4698518.2311   3566015.4882   2  20   0.4286   0.6089   0.5120  -0.4175   0.3874  -0.3323   0.00    2.0
2188 433524.000  -2408914.0547   4698518.1465   3566015.5389   2  20   0.4286   0.6089   0.5120  -0.4175   0.3874  -0.3323   0.00    2.0
2188 433525.000  -2408914.1916   4698518.4829   3566015.8354   2  20   0.4286   0.6088   0.5120  -0.4175   0.3874  -0.3323   0.00    1.8
2188 433526.000  -2408914.5237   4698518.4868   3566015.7247   2  20   0.4286   0.6087   0.5121  -0.4174   0.3874  -0.3323   0.00    2.2
2188 433527.000  -2408914.3187   4698518.4581   3566015.6988   2  20   0.4285   0.6087   0.5121  -0.4174   0.3873  -0.3323   0.00    1.8
2188 433528.000  -2408914.2060   4698518.2840   3566015.7807   2  20   0.4285   0.6086   0.5121  -0.4174   0.3873  -0.3322   0.00    1.9
2188 433529.000  -2408914.2342   4698518.0637   3566015.7644   2  19   0.4778   0.6444   0.5409  -0.4678   0.4323  -0.3837   0.00    2.0
2188 433530.000  -2408914.2503   4698518.0769   3566015.4598   2  20   0.4285   0.6085   0.5121  -0.4173   0.3872  -0.3322   0.00    2.0
2188 433531.000  -2408914.2583   4698518.2936   3566015.8917   2  20   0.4285   0.6085   0.5121  -0.4173   0.3872  -0.3322   0.00    2.1
2188 433532.000  -2408914.1114   4698517.9537   3566015.7743   2  20   0.4285   0.6084   0.5121  -0.4172   0.3872  -0.3322   0.00    1.9
2188 433533.000  -2408914.0923   4698518.1623   3566015.4159   2  20   0.4284   0.6084   0.5122  -0.4172   0.3872  -0.3322   0.00    2.0
2188 433534.000  -2408914.0723   4698518.0126   3566015.3320   2  20   0.4284   0.6083   0.5122  -0.4172   0.3871  -0.3322   0.00    2.1
2188 433535.000  -2408914.1205   4698518.3226   3566015.5122   2  20   0.4284   0.6083   0.5122  -0.4171   0.3871  -0.3322   0.00    2.0
2188 433536.000  -2408914.5017   4698518.7183   3566015.9344   2  20   0.4284   0.6082   0.5122  -0.4171   0.3871  -0.3322   0.00    2.2
2188 433537.000  -2408914.1142   4698518.1880   3566015.4791   2  20   0.4284   0.6082   0.5122  -0.4170   0.3870  -0.3322   0.00    2.1
2188 433538.000  -2408914.4204   4698518.5238   3566015.3767   2  20   0.4284   0.6081   0.5122  -0.4170   0.3870  -0.3321   0.00    2.0
2188 433539.000  -2408914.1703   4698518.0432   3566015.9281   2  20   0.4284   0.6080   0.5122  -0.4170   0.3870  -0.3321   0.00    2.2
2188 433540.000  -2408914.3956   4698518.2728   3566015.7262   2  20   0.4283   0.6080   0.5123  -0.4169   0.3870  -0.3321   0.00    2.1
2188 433541.000  -2408914.0324   4698518.0293   3566015.4884   2  20   0.4283   0.6079   0.5123  -0.4169   0.3869  -0.3321   0.00    2.0
2188 433542.000  -2408913.9966   4698518.1495   3566015.6724   2  20   0.4283   0.6079   0.5123  -0.4169   0.3869  -0.3321   0.00    2.0
2188 433543.000  -2408914.2103   4698518.2737   3566015.5596   2  20   0.4283   0.6078   0.5123  -0.4168   0.3869  -0.3321   0.00    2.1
2188 433544.000  -2408913.7890   4698517.8419   3566015.7012   2  20   0.4283   0.6078   0.5123  -0.4168   0.3868  -0.3321   0.00    2.1
2188 433545.000  -2408913.8954   4698517.9594   3566015.4977   2  20   0.4283   0.6077   0.5123  -0.4168   0.3868  -0.3321   0.00    2.1
2188 433546.000  -2408914.0802   4698518.3523   3566015.6829   2  20   0.4282   0.6077   0.5123  -0.4167   0.3868  -0.3321   0.00    2.1
2188 433547.000  -2408914.3965   4698518.5117   3566015.8150   2  20   0.4282   0.6076   0.5124  -0.4167   0.3868  -0.3321   0.00    1.8
2188 433548.000  -2408914.2415   4698518.3307   3566015.8161   2  20   0.4282   0.6076   0.5124  -0.4167   0.3867  -0.3320   0.00    2.0
2188 433549.000  -2408914.3593   4698518.6754   3566015.9286   2  20   0.4282   0.6075   0.5124  -0.4166   0.3867  -0.3320   0.00    2.0
2188 433550.000  -2408914.6255   4698518.6692   3566016.1319   2  20   0.4282   0.6075   0.5124  -0.4166   0.3867  -0.3320   0.00    2.3
2188 433551.000  -2408914.4566   4698518.5533   3566016.1159   2  20   0.4282   0.6074   0.5124  -0.4166   0.3866  -0.3320   0.00    2.1
2188 433552.000  -2408914.2569   4698518.6224   3566015.7872   2  20   0.4282   0.6073   0.5124  -0.4165   0.3866  -0.3320   0.00    2.1
2188 433553.000  -2408914.3736   4698518.7209   3566015.9602   2  20   0.4281   0.6073   0.5124  -0.4165   0.3866  -0.3320   0.00    1.8
2188 433554.000  -2408913.7920   4698518.0915   3566015.4941   2  20   0.4281   0.6072   0.5124  -0.4165   0.3865  -0.3320   0.00    2.1
2188 433555.000  -2408914.2379   4698518.4927   3566015.7056   2  20   0.4281   0.6072   0.5125  -0.4164   0.3865  -0.3320   0.00    2.0
2188 433556.000  -2408913.9893   4698518.0397   3566015.3858   2  20   0.4281   0.6071   0.5125  -0.4164   0.3865  -0.3320   0.00    2.1
2188 433557.000  -2408914.2096   4698518.2834   3566015.7273   2  20   0.4281   0.6071   0.5125  -0.4164   0.3865  -0.3320   0.00    2.1
2188 433558.000  -2408914.0955   4698518.1534   3566015.3503   2  20   0.4281   0.6070   0.5125  -0.4163   0.3864  -0.3319   0.00    2.0
2188 433559.000  -2408914.0763   4698518.2404   3566015.4367   2  20   0.4280   0.6070   0.5125  -0.4163   0.3864  -0.3319   0.00    2.0
2188 433560.000  -2408914.1198   4698518.1004   3566015.7388   2  20   0.4280   0.6069   0.5125  -0.4163   0.3864  -0.3319   0.00    2.0
2188 433561.000  -2408914.1319   4698518.0206   3566015.8039   2  20   0.4280   0.6069   0.5125  -0.4162   0.3863  -0.3319   0.00    2.2
2188 433562.000  -2408914.0002   4698517.8473   3566015.7357   2  20   0.4280   0.6068   0.5126  -0.4162   0.3863  -0.3319   0.00    2.2
2188 433563.000  -2408913.9062   4698518.0141   3566015.9176   2  20   0.4280   0.6068   0.5126  -0.4162   0.3863  -0.3319   0.00    2.2
2188 433564.000  -2408913.9730   4698518.4410   3566015.6231   2  20   0.4280   0.6067   0.5126  -0.4161   0.3863  -0.3319   0.00    2.0
2188 433565.000  -2408914.0080   4698518.3357   3566015.7099   2  20   0.4280   0.6067   0.5126  -0.4161   0.3862  -0.3319   0.00    2.1
2188 433566.000  -2408913.8863   4698517.4866   3566015.4215   2  20   0.4279   0.6066   0.5126  -0.4161   0.3862  -0.3319   0.00    2.0
2188 433567.000  -2408913.8845   4698517.8393   3566015.9291   2  20   0.4279   0.6065   0.5126  -0.4160   0.3862  -0.3319   0.00    1.8
2188 433568.000  -2408914.0605   4698518.0481   3566015.7131   2  20   0.4279   0.6065   0.5126  -0.4160   0.3861  -0.3318   0.00    2.0
2188 433569.000  -2408913.7877   4698517.5934   3566015.2805   2  19   0.4769   0.6419   0.5415  -0.4662   0.4310  -0.3832   0.00    1.8
2188 433570.000  -2408913.9336   4698517.8587   3566015.6976   2  20   0.4279   0.6064   0.5127  -0.4159   0.3861  -0.3318   0.00    2.1
2188 433571.000  -2408914.0704   4698518.1513   3566015.7684   2  20   0.4279   0.6063   0.5127  -0.4159   0.3861  -0.3318   0.00    2.0
2188 433572.000  -2408913.9787   4698517.9355   3566015.5735   2  20   0.4278   0.6063   0.5127  -0.4158   0.3860  -0.3318   0.00    2.0
2188 433573.000  -2408913.9978   4698518.0360   3566015.6714   2  20   0.4278   0.6062   0.5127  -0.4158   0.3860  -0.3318   0.00    2.2
2188 433574.000  -2408914.0068   4698517.9140   3566015.8262   2  20   0.4278   0.6062   0.5127  -0.4158   0.3860  -0.3318   0.00    2.1
2188 433575.000  -2408914.0177   4698517.6841   3566015.3734   2  20   0.4278   0.6061   0.5127  -0.4157   0.3859  -0.3318   0.00    1.9
2188 433576.000  -2408913.9866   4698518.0144   3566015.6487   2  20   0.4278   0.6061   0.5128  -0.4157   0.3859  -0.3318   0.00    2.1
2188 433577.000  -2408914.0047   4698517.7523   3566015.4065   2  20   0.4278   0.6060   0.5128  -0.4157   0.3859  -0.3318   0.00    2.2
2188 433578.000  -2408913.9782   4698517.9580   3566015.4781   2  20   0.4278   0.6060   0.5128  -0.4156   0.3859  -0.3317   0.00    2.1
2188 433579.000  -2408913.9847   4698517.7860   3566015.4835   2  20   0.4277   0.6059   0.5128  -0.4156   0.3858  -0.3317   0.00    2.2
2188 433580.000  -2408914.1147   4698517.8370   3566015.7452   2  20   0.4277   0.6059   0.5128  -0.4156   0.3858  -0.3317   0.00    2.1
2188 433581.000  -2408913.7537   4698517.3693   3566015.4992   2  20   0.4277   0.6058   0.5128  -0.4155   0.3858  -0.3317   0.00    2.0
2188 433582.000  -2408913.8490   4698518.0528   3566015.4942   2  20   0.4277   0.6057   0.5128  -0.4155   0.3857  -0.3317   0.00    2.0
2188 433583.000  -2408913.7504   4698517.5962   3566015.5519   2  20   0.4277   0.6057   0.5129  -0.4155   0.3857  -0.3317   0.00    2.2
2188 433584.000  -2408913.9593   4698517.8750   3566015.5745   2  20   0.4277   0.6056   0.5129  -0.4154   0.3857  -0.3317   0.00    2.0
2188 433585.000  -2408914.1036   4698518.0828   3566015.6994   2  20   0.4276   0.6056   0.5129  -0.4154   0.3857  -0.3317   0.00    2.1
2188 433586.000  -2408913.9295   4698517.5965   3566015.6999   2  19   0.4766   0.6409   0.5417  -0.4655   0.4304  -0.3829   0.00    2.3
2188 433587.000  -2408913.9163   4698517.8751   3566015.6401   2  20   0.4276   0.6055   0.5129  -0.4153   0.3856  -0.3316   0.00    2.2
2188 433588.000  -2408914.0033   4698518.0589   3566015.8582   2  20   0.4276   0.6054   0.5129  -0.4153   0.3856  -0.3316   0.00    1.9
2188 433589.000  -2408914.0099   4698518.1322   3566015.5964   2  20   0.4276   0.6054   0.5129  -0.4153   0.3855  -0.3316   0.00    2.1
2188 433590.000  -2408914.1080   4698518.2247   3566015.5480   2  20   0.4276   0.6053   0.5130  -0.4152   0.3855  -0.3316   0.00    2.1
2188 433591.000  -2408914.1719   4698517.6893   3566015.7088   2  19   0.4765   0.6405   0.5417  -0.4652   0.4302  -0.3829   0.00    2.3
2188 433592.000  -2408914.2910   4698518.2351   3566015.8797   2  19   0.4765   0.6405   0.5418  -0.4652   0.4302  -0.3829   0.00    2.0
2188 433593.000  -2408914.0134   4698517.7780   3566015.5540   2  19   0.4765   0.6404   0.5418  -0.4652   0.4302  -0.3829   0.00    2.0
2188 433594.000  -2408914.1328   4698517.8220   3566015.3517   2  20   0.4275   0.6051   0.5130  -0.4151   0.3854  -0.3316   0.00    1.9
2188 433595.000  -2408914.3111   4698518.2208   3566015.8927   2  20   0.4275   0.6051   0.5130  -0.4151   0.3854  -0.3316   0.00    2.1
2188 433596.000  -2408913.9952   4698518.1205   3566015.4230   2  20   0.4275   0.6050   0.5130  -0.4150   0.3853  -0.3316   0.00    2.1
2188 433597.000  -2408913.9347   4698517.9969   3566015.4393   2  20   0.4275   0.6049   0.5130  -0.4150   0.3853  -0.3315   0.00    2.1
2188 433598.000  -2408914.1090   4698518.1026   3566015.4530   2  20   0.4274   0.6049   0.5131  -0.4150   0.3853  -0.3315   0.00    2.2
2188 433599.000  -2408914.0373   4698517.7535   3566015.5038   2  20   0.4274   0.6048   0.5131  -0.4149   0.3852  -0.3315   0.00    2.2
2188 433600.000  -2408914.2204   4698517.7876   3566015.5022   2  20   0.4274   0.6048   0.5131  -0.4149   0.3852  -0.3315   0.00    2.1
2188 433601.000  -2408914.1355   4698518.2803   3566015.5265   2  20   0.4274   0.6047   0.5131  -0.4149   0.3852  -0.3315   0.00    2.1
2188 433602.000  -2408914.2947   4698518.0760   3566015.4850   2  20   0.4274   0.6047   0.5131  -0.4148   0.3852  -0.3315   0.00    1.9
2188 433603.000  -2408914.4068   4698518.2263   3566015.8009   2  20   0.4274   0.6046   0.5131  -0.4148   0.3851  -0.3315   0.00    2.0
2188 433604.000  -2408914.0506   4698517.7334   3566015.2254   2  20   0.4274   0.6046   0.5131  -0.4148   0.3851  -0.3315   0.00    2.2
2188 433605.000  -2408914.1599   4698518.0394   3566015.6757   2  20   0.4273   0.6045   0.5132  -0.4147   0.3851  -0.3315   0.00    2.2
2188 433606.000  -2408914.1219   4698517.7709   3566015.6827   2  20   0.4273   0.6045   0.5132  -0.4147   0.3850  -0.3315   0.00    2.1
2188 433607.000  -2408914.1098   4698517.7741   3566015.4000   2  20   0.4273   0.6044   0.5132  -0.4146   0.3850  -0.3314   0.00    2.4
2188 433608.000  -2408914.1892   4698518.0620   3566015.3283   2  20   0.4273   0.6044   0.5132  -0.4146   0.3850  -0.3314   0.00    2.0
2188 433609.000  -2408913.9985   4698517.8103   3566015.4891   2  20   0.4273   0.6043   0.5132  -0.4146   0.3850  -0.3314   0.00    2.0
2188 433610.000  -2408914.1761   4698517.9400   3566015.5619   2  20   0.4273   0.6043   0.5132  -0.4145   0.3849  -0.3314   0.00    2.0
2188 433611.000  -2408914.2899   4698518.1530   3566015.6788   2  20   0.4272   0.6042   0.5132  -0.4145   0.3849  -0.3314   0.00    2.0
2188 433612.000  -2408913.9022   4698517.9078   3566015.3342   2  20   0.4272   0.6042   0.5133  -0.4145   0.3849  -0.3314   0.00    1.9
2188 433613.000  -2408913.9691   4698517.8299   3566015.1261   2  20   0.4272   0.6041   0.5133  -0.4144   0.3848  -0.3314   0.00    2.1
2188 433614.000  -2408913.8015   4698517.6439   3566015.6281   2  20   0.4272   0.6040   0.5133  -0.4144   0.3848  -0.3314   0.00    2.1
2188 433615.000  -2408913.9148   4698518.0679   3566015.4359   2  20   0.4272   0.6040   0.5133  -0.4144   0.3848  -0.3314   0.00    2.0
2188 433616.000  -2408914.2762   4698518.3159   3566015.7365   2  20   0.4272   0.6039   0.5133  -0.4143   0.3848  -0.3313   0.00    1.9
2188 433617.000  -2408913.8466   4698517.6722   3566015.2975   2  20   0.4272   0.6039   0.5133  -0.4143   0.3847  -0.3313   0.00    2.1
2188 433618.000  -2408914.0471   4698518.2248   3566015.8132   2  20   0.4271   0.6038   0.5133  -0.4143   0.3847  -0.3313   0.00    2.2
2188 433619.000  -2408914.0205   4698518.1102   3566015.6364   2  20   0.4271   0.6038   0.5134  -0.4142   0.3847  -0.3313   0.00    2.1
2188 433620.000  -2408914.0301   4698517.8997   3566015.8066   2  20   0.4271   0.6037   0.5134  -0.4142   0.3846  -0.3313   0.00    2.3
2188 433621.000  -2408914.0567   4698518.1662   3566015.4594   2  20   0.4271   0.6037   0.5134  -0.4142   0.3846  -0.3313   0.00    2.1
2188 433622.000  -2408913.9998   4698518.1932   3566015.1734   2  20   0.4271   0.6036   0.5134  -0.4141   0.3846  -0.3313   0.00    2.1
2188 433623.000  -2408914.0250   4698517.9595   3566015.5999   2  20   0.4271   0.6036   0.5134  -0.4141   0.3846  -0.3313   0.00    2.0
2188 433624.000  -2408914.1765   4698518.2460   3566015.5328   2  20   0.4270   0.6035   0.5134  -0.4141   0.3845  -0.3313   0.00    2.0
2188 433625.000  -2408914.0446   4698517.9872   3566015.3837   2  20   0.4270   0.6035   0.5134  -0.4140   0.3845  -0.3313   0.00    2.0
2188 433626.000  -2408913.9297   4698517.9648   3566015.3444   2  20   0.4270   0.6034   0.5135  -0.4140   0.3845  -0.3312   0.00    2.0
2188 433627.000  -2408913.8618   4698517.7210   3566015.5297   2  20   0.4270   0.6034   0.5135  -0.4140   0.3844  -0.3312   0.00    2.0
2188 433628.000  -2408914.0445   4698518.1176   3566015.6213   2  20   0.4270   0.6033   0.5135  -0.4139   0.3844  -0.3312   0.00    2.3
2188 433629.000  -2408913.7765   4698517.6703   3566015.5295   2  20   0.4270   0.6033   0.5135  -0.4139   0.3844  -0.3312   0.00    2.3
2188 433630.000  -2408913.6761   4698517.7953   3566015.3602   2  20   0.4270   0.6032   0.5135  -0.4139   0.3843  -0.3312   0.00    2.1
2188 433631.000  -2408914.1043   4698518.1617   3566015.6755   2  20   0.4269   0.6032   0.5135  -0.4138   0.3843  -0.3312   0.00    1.9
2188 433632.000  -2408913.8581   4698517.8027   3566015.4132   2  20   0.4269   0.6031   0.5135  -0.4138   0.3843  -0.3312   0.00    2.1
2188 433633.000  -2408913.8077   4698517.9434   3566015.4425   2  20   0.4269   0.6031   0.5135  -0.4138   0.3843  -0.3312   0.00    1.9
2188 433634.000  -2408913.7694   4698517.7801   3566015.2432   2  20   0.4269   0.6030   0.5136  -0.4137   0.3842  -0.3312   0.00    2.1
2188 433635.000  -2408913.9856   4698518.2722   3566015.6444   2  20   0.4269   0.6029   0.5136  -0.4137   0.3842  -0.3311   0.00    2.1
2188 433636.000  -2408914.0490   4698517.8599   3566015.4738   2  20   0.4269   0.6029   0.5136  -0.4137   0.3842  -0.3311   0.00    2.0
2188 433637.000  -2408913.8014   4698517.6165   3566015.5137   2  20   0.4268   0.6028   0.5136  -0.4136   0.3841  -0.3311   0.00    1.9
2188 433638.000  -2408913.9615   4698517.8544   3566015.2749   2  20   0.4268   0.6028   0.5136  -0.4136   0.3841  -0.3311   0.00    2.0
2188 433639.000  -2408913.9217   4698517.8184   3566015.1859   2  20   0.4268   0.6027   0.5136  -0.4136   0.3841  -0.3311   0.00    2.0
2188 433640.000  -2408914.0693   4698517.9574   3566015.4382   2  19   0.4755   0.6376   0.5424  -0.4632   0.4286  -0.3823   0.00    1.9
2188 433641.000  -2408913.8723   4698517.7309   3566015.0800   2  19   0.4755   0.6375   0.5424  -0.4632   0.4286  -0.3823   0.00    2.0
2188 433642.000  -2408913.8665   4698517.9615   3566015.2236   2  20   0.4268   0.6026   0.5137  -0.4135   0.3840  -0.3311   0.00    2.1
2188 433643.000  -2408913.5814   4698517.2355   3566014.9485   2  20   0.4268   0.6025   0.5137  -0.4134   0.3840  -0.3311   0.00    2.0
2188 433644.000  -2408913.9092   4698517.7256   3566015.1891   2  20   0.4267   0.6025   0.5137  -0.4134   0.3839  -0.3311   0.00    1.9
2188 433645.000  -2408913.5632   4698517.4692   3566014.8895   2  20   0.4267   0.6024   0.5137  -0.4134   0.3839  -0.3310   0.00    1.9
2188 433646.000  -2408913.7458   4698517.7399   3566015.2273   2  20   0.4267   0.6024   0.5137  -0.4133   0.3839  -0.3310   0.00    2.0
2188 433647.000  -2408913.7771   4698517.5756   3566015.2103   2  20   0.4267   0.6023   0.5137  -0.4133   0.3839  -0.3310   0.00    1.3
2188 433648.000  -2408913.9131   4698517.6893   3566015.2134   2  20   0.4267   0.6023   0.5138  -0.4133   0.3838  -0.3310   0.00    2.0
2188 433649.000  -2408913.8712   4698517.6845   3566015.3888   2  20   0.4267   0.6022   0.5138  -0.4132   0.3838  -0.3310   0.00    1.8
2188 433650.000  -2408913.8547   4698517.6262   3566015.2347   2  20   0.4266   0.6022   0.5138  -0.4132   0.3838  -0.3310   0.00    1.9
2188 433651.000  -2408913.9199   4698517.8885   3566015.6455   2  20   0.4266   0.6021   0.5138  -0.4132   0.3837  -0.3310   0.00    1.9
2188 433652.000  -2408913.9779   4698517.9739   3566015.6919   2  20   0.4266   0.6021   0.5138  -0.4131   0.3837  -0.3310   0.00    1.9
2188 433653.000  -2408913.9841   4698518.1313   3566015.3963   2  20   0.4266   0.6020   0.5138  -0.4131   0.3837  -0.3310   0.00    1.6
2188 433654.000  -2408913.7857   4698517.6852   3566015.4935   2  19   0.4752   0.6367   0.5426  -0.4626   0.4282  -0.3821   0.00    1.9
2188 433655.000  -2408913.8545   4698517.8424   3566015.3446   2  20   0.4266   0.6019   0.5139  -0.4130   0.3836  -0.3309   0.00    2.2
2188 433656.000  -2408913.8327   4698518.0167   3566015.4316   2  20   0.4266   0.6019   0.5139  -0.4130   0.3836  -0.3309   0.00    1.8
2188 433657.000  -2408914.0476   4698518.0127   3566015.5347   2  20   0.4265   0.6018   0.5139  -0.4130   0.3836  -0.3309   0.00    2.1
2188 433658.000  -2408913.7118   4698517.9143   3566015.6079   2  20   0.4265   0.6017   0.5139  -0.4129   0.3835  -0.3309   0.00    1.9
2188 433659.000  -2408913.5863   4698517.7643   3566015.2494   2  20   0.4265   0.6017   0.5139  -0.4129   0.3835  -0.3309   0.00    1.9
2188 433660.000  -2408913.6935   4698518.1583   3566015.3068   2  20   0.4265   0.6016   0.5139  -0.4128   0.3835  -0.3309   0.00    1.9
2188 433661.000  -2408913.4338   4698517.4404   3566015.3618   2  20   0.4265   0.6016   0.5139  -0.4128   0.3835  -0.3309   0.00    1.8
2188 433662.000  -2408913.6520   4698517.6772   3566015.4126   2  20   0.4265   0.6015   0.5139  -0.4128   0.3834  -0.3309   0.00    1.8
2188 433663.000  -2408913.4365   4698517.6117   3566015.3417   2  20   0.4265   0.6015   0.5140  -0.4127   0.3834  -0.3308   0.00    2.1
2188 433664.000  -2408913.8801   4698517.9854   3566015.4895   2  20   0.4264   0.6014   0.5140  -0.4127   0.3834  -0.3308   0.00    1.9
2188 433665.000  -2408913.8513   4698517.7888   3566015.6861   2  20   0.4264   0.6014   0.5140  -0.4127   0.3833  -0.3308   0.00    2.0
2188 433666.000  -2408913.4712   4698517.4124   3566015.2929   2  20   0.4264   0.6013   0.5140  -0.4126   0.3833  -0.3308   0.00    2.0
2188 433667.000  -2408914.0037   4698518.0603   3566015.7922   2  20   0.4264   0.6013   0.5140  -0.4126   0.3833  -0.3308   0.00    1.8
2188 433668.000  -2408913.8297   4698517.7742   3566015.5730   2  20   0.4264   0.6012   0.5140  -0.4126   0.3832  -0.3308   0.00    2.4
2188 433669.000  -2408914.0803   4698518.0474   3566015.5910   2  20   0.4264   0.6012   0.5140  -0.4125   0.3832  -0.3308   0.00    2.3
2188 433670.000  -2408914.0199   4698518.0583   3566015.6173   2  20   0.4263   0.6011   0.5141  -0.4125   0.3832  -0.3308   0.00    2.3
2188 433671.000  -2408913.7997   4698518.0716   3566015.4674   2  20   0.4263   0.6011   0.5141  -0.4125   0.3832  -0.3308   0.00    2.1
2188 433672.000  -2408913.7338   4698517.6222   3566015.1251   2  20   0.4263   0.6010   0.5141  -0.4124   0.3831  -0.3308   0.00    2.1
2188 433673.000  -2408914.0670   4698517.9483   3566015.5614   2  20   0.4263   0.6010   0.5141  -0.4124   0.3831  -0.3307   0.00    2.3
2188 433674.000  -2408914.3261   4698518.6078   3566016.1399   2  20   0.4263   0.6009   0.5141  -0.4124   0.3831  -0.3307   0.00    1.8
2188 433675.000  -2408913.8205   4698518.0984   3566015.5795   2  20   0.4263   0.6009   0.5141  -0.4123   0.3830  -0.3307   0.00    2.1
2188 433676.000  -2408914.0287   4698518.2576   3566015.5201   2  20   0.4263   0.6008   0.5141  -0.4123   0.3830  -0.3307   0.00    2.2
2188 433677.000  -2408913.8181   4698518.3349   3566015.5918   2  20   0.4262   0.6008   0.5142  -0.4123   0.3830  -0.3307   0.00    2.0
2188 433678.000  -2408914.0479   4698518.2185   3566015.7842   2  20   0.4262   0.6007   0.5142  -0.4122   0.3830  -0.3307   0.00    1.9
2188 433679.000  -2408913.9671   4698518.0462   3566015.4802   2  20   0.4262   0.6007   0.5142  -0.4122   0.3829  -0.3307   0.00    2.0
2188 433680.000  -2408913.7407   4698517.6328   3566015.4325   2  20   0.4262   0.6006   0.5142  -0.4122   0.3829  -0.3307   0.00    1.9
2188 433681.000  -2408913.9818   4698518.2805   3566015.7169   2  20   0.4262   0.6006   0.5142  -0.4121   0.3829  -0.3307   0.00    1.9
2188 433682.000  -2408913.7591   4698517.9867   3566015.6035   2  20   0.4262   0.6005   0.5142  -0.4121   0.3828  -0.3306   0.00    1.7
2188 433683.000  -2408913.8291   4698518.2542   3566015.7121   2  20   0.4261   0.6005   0.5142  -0.4121   0.3828  -0.3306   0.00    2.0
2188 433684.000  -2408913.7151   4698517.7684   3566015.6985   2  20   0.4261   0.6004   0.5142  -0.4120   0.3828  -0.3306   0.00    1.8
2188 433685.000  -2408914.0697   4698518.4349   3566015.9875   2  20   0.4261   0.6004   0.5143  -0.4120   0.3828  -0.3306   0.00    2.2
2188 433686.000  -2408913.9373   4698517.8403   3566015.8259   2  20   0.4261   0.6003   0.5143  -0.4120   0.3827  -0.3306   0.00    1.9
2188 433687.000  -2408913.9728   4698517.8387   3566015.6262   2  20   0.4261   0.6002   0.5143  -0.4119   0.3827  -0.3306   0.00    1.7
2188 433688.000  -2408913.8743   4698517.8087   3566015.3569   2  20   0.4261   0.6002   0.5143  -0.4119   0.3827  -0.3306   0.00    2.1
2188 433689.000  -2408914.1791   4698518.3772   3566015.6722   2  20   0.4261   0.6001   0.5143  -0.4119   0.3826  -0.3306   0.00    2.0
2188 433690.000  -2408914.1489   4698518.1351   3566015.7269   2  20   0.4260   0.6001   0.5143  -0.4118   0.3826  -0.3306   0.00    2.1
2188 433691.000  -2408914.3674   4698518.5774   3566015.9929   2  20   0.4260   0.6000   0.5143  -0.4118   0.3826  -0.3305   0.00    1.9
2188 433692.000  -2408914.0213   4698518.0999   3566015.6058   2  20   0.4260   0.6000   0.5144  -0.4118   0.3826  -0.3305   0.00    1.9
2188 433693.000  -2408913.9907   4698518.2193   3566015.6684   2  20   0.4260   0.5999   0.5144  -0.4117   0.3825  -0.3305   0.00    1.9
2188 433694.000  -2408913.8466   4698518.0297   3566015.7012   2  20   0.4260   0.5999   0.5144  -0.4117   0.3825  -0.3305   0.00    2.0
2188 433695.000  -2408914.0008   4698517.9453   3566015.5475   2  20   0.4260   0.5998   0.5144  -0.4117   0.3825  -0.3305   0.00    2.0
2188 433696.000  -2408914.1114   4698518.2843   3566015.7589   2  20   0.4260   0.5998   0.5144  -0.4116   0.3824  -0.3305   0.00    2.0
2188 433697.000  -2408914.3880   4698518.5733   3566015.8953   2  20   0.4259   0.5997   0.5144  -0.4116   0.3824  -0.3305   0.00    1.8
2188 433698.000  -2408914.2606   4698518.5066   3566015.4658   2  20   0.4259   0.5997   0.5144  -0.4116   0.3824  -0.3305   0.00    2.1
2188 433699.000  -2408914.1783   4698518.3311   3566015.4297   2  20   0.4259   0.5996   0.5145  -0.4115   0.3824  -0.3305   0.00    2.0
2188 433700.000  -2408914.3665   4698518.5829   3566015.8717   2  20   0.4259   0.5996   0.5145  -0.4115   0.3823  -0.3305   0.00    2.2
2188 433701.000  -2408914.1404   4698518.6357   3566015.7443   2  20   0.4259   0.5995   0.5145  -0.4115   0.3823  -0.3304   0.00    2.0
2188 433702.000  -2408914.5241   4698518.7100   3566016.0800   2  20   0.4259   0.5995   0.5145  -0.4114   0.3823  -0.3304   0.00    1.8
2188 433703.000  -2408914.0725   4698518.2085   3566015.3224   2  20   0.4258   0.5994   0.5145  -0.4114   0.3822  -0.3304   0.00    2.0
2188 433704.000  -2408914.1544   4698518.6546   3566015.7199   2  20   0.4258   0.5994   0.5145  -0.4114   0.3822  -0.3304   0.00    2.2
2188 433705.000  -2408914.1365   4698518.3092   3566015.4504   2  20   0.4258   0.5993   0.5145  -0.4113   0.3822  -0.3304   0.00    2.1
2188 433706.000  -2408914.2228   4698518.3137   3566015.3791   2  20   0.4258   0.5993   0.5145  -0.4113   0.3822  -0.3304   0.00    2.1
2188 433707.000  -2408914.1228   4698518.4301   3566015.6358   2  20   0.4258   0.5992   0.5146  -0.4113   0.3821  -0.3304   0.00    2.0
2188 433708.000  -2408914.1969   4698518.5647   3566015.7124   2  20   0.4258   0.5992   0.5146  -0.4112   0.3821  -0.3304   0.00    2.2
2188 433709.000  -2408914.2048   4698518.5958   3566015.7759   2  20   0.4258   0.5991   0.5146  -0.4112   0.3821  -0.3304   0.00    2.0
2188 433710.000  -2408914.2091   4698518.6987   3566015.5574   2  20   0.4257   0.5991   0.5146  -0.4112   0.3820  -0.3303   0.00    2.1
2188 433711.000  -2408914.3517   4698518.2660   3566015.8546   2  20   0.4257   0.5990   0.5146  -0.4111   0.3820  -0.3303   0.00    2.0
2188 433712.000  -2408914.1895   4698518.6833   3566015.7415   2  20   0.4257   0.5990   0.5146  -0.4111   0.3820  -0.3303   0.00    2.2
2188 433713.000  -2408913.9599   4698518.1148   3566015.5220   2  19   0.4740   0.6332   0.5433  -0.4602   0.4262  -0.3813   0.00    2.2
2188 433714.000  -2408913.8263   4698518.1422   3566015.7573   2  20   0.4257   0.5989   0.5147  -0.4110   0.3819  -0.3303   0.00    2.1
2188 433715.000  -2408914.2458   4698518.5702   3566015.8223   2  20   0.4257   0.5988   0.5147  -0.4110   0.3819  -0.3303   0.00    2.2
2188 433716.000  -2408913.7345   4698517.6627   3566015.4999   2  20   0.4256   0.5988   0.5147  -0.4110   0.3819  -0.3303   0.00    2.1
2188 433717.000  -2408914.2073   4698518.2143   3566015.5809   2  20   0.4256   0.5987   0.5147  -0.4109   0.3818  -0.3303   0.00    2.2
2188 433718.000  -2408913.7574   4698517.7771   3566015.4664   2  20   0.4256   0.5987   0.5147  -0.4109   0.3818  -0.3303   0.00    2.2
2188 433719.000  -2408913.9097   4698517.8197   3566015.3149   2  20   0.4256   0.5986   0.5147  -0.4109   0.3818  -0.3302   0.00    2.3
2188 433720.000  -2408914.0195   4698518.1971   3566015.6813   2  20   0.4256   0.5986   0.5147  -0.4108   0.3817  -0.3302   0.00    2.1
2188 433721.000  -2408914.2608   4698518.6026   3566015.7929   2  20   0.4256   0.5985   0.5148  -0.4108   0.3817  -0.3302   0.00    1.9
2188 433722.000  -2408914.0278   4698517.8861   3566016.0753   2  20   0.4256   0.5985   0.5148  -0.4108   0.3817  -0.3302   0.00    2.2
2188 433723.000  -2408914.2681   4698518.4870   3566015.9992   2  20   0.4255   0.5984   0.5148  -0.4107   0.3817  -0.3302   0.00    2.1
2188 433724.000  -2408914.0997   4698518.3406   3566015.4473   2  20   0.4255   0.5984   0.5148  -0.4107   0.3816  -0.3302   0.00    1.9
2188 433725.000  -2408914.2370   4698518.2408   3566015.7563   2  20   0.4255   0.5983   0.5148  -0.4107   0.3816  -0.3302   0.00    2.0
2188 433726.000  -2408913.8826   4698517.9366   3566015.7581   2  20   0.4255   0.5983   0.5148  -0.4106   0.3816  -0.3302   0.00    2.2
2188 433727.000  -2408914.2729   4698518.3444   3566015.7149   2  20   0.4255   0.5982   0.5148  -0.4106   0.3815  -0.3302   0.00    2.0
2188 433728.000  -2408914.1550   4698518.2948   3566015.5998   2  20   0.4255   0.5982   0.5148  -0.4106   0.3815  -0.3301   0.00    2.0
2188 433729.000  -2408914.1198   4698518.5476   3566015.7779   2  19   0.4737   0.6323   0.5435  -0.4596   0.4257  -0.3811   0.00    2.3
2188 433730.000  -2408914.0502   4698518.6252   3566015.8142   2  20   0.4254   0.5981   0.5149  -0.4105   0.3815  -0.3301   0.00    2.2
2188 433731.000  -2408914.0626   4698518.2022   3566015.3896   2  20   0.4254   0.5980   0.5149  -0.4105   0.3814  -0.3301   0.00    2.2
2188 433732.000  -2408914.0533   4698518.2134   3566015.5141   2  20   0.4254   0.5980   0.5149  -0.4104   0.3814  -0.3301   0.00    2.0
2188 433733.000  -2408914.1492   4698518.4869   3566015.4467   2  20   0.4254   0.5979   0.5149  -0.4104   0.3814  -0.3301   0.00    2.0
2188 433734.000  -2408914.3980   4698518.6898   3566016.0572   2  20   0.4254   0.5979   0.5149  -0.4104   0.3813  -0.3301   0.00    2.2
2188 433735.000  -2408914.2972   4698518.4918   3566015.7708   2  20   0.4254   0.5978   0.5149  -0.4103   0.3813  -0.3301   0.00    2.1
2188 433736.000  -2408914.2475   4698518.6430   3566015.6807   2  20   0.4253   0.5978   0.5150  -0.4103   0.3813  -0.3301   0.00    2.3
2188 433737.000  -2408914.5435   4698518.8881   3566015.8611   2  20   0.4253   0.5977   0.5150  -0.4103   0.3813  -0.3300   0.00    2.1
2188 433738.000  -2408913.8942   4698518.3674   3566015.4334   2  20   0.4253   0.5977   0.5150  -0.4102   0.3812  -0.3300   0.00    2.1
2188 433739.000  -2408914.3355   4698518.4842   3566015.8797   2  20   0.4253   0.5976   0.5150  -0.4102   0.3812  -0.3300   0.00    2.6
2188 433740.000  -2408914.2448   4698518.2456   3566015.5554   2  20   0.4253   0.5976   0.5150  -0.4102   0.3812  -0.3300   0.00    2.4
2188 433741.000  -2408914.1666   4698518.6006   3566015.9188   2  20   0.4253   0.5975   0.5150  -0.4101   0.3811  -0.3300   0.00    2.1
2188 433742.000  -2408914.0874   4698518.4213   3566015.7168   2  20   0.4253   0.5975   0.5150  -0.4101   0.3811  -0.3300   0.00    2.3
2188 433743.000  -2408914.2576   4698518.6024   3566015.7357   2  20   0.4252   0.5974   0.5150  -0.4101   0.3811  -0.3300   0.00    2.3
2188 433744.000  -2408914.2764   4698518.4123   3566015.9001   2  20   0.4252   0.5974   0.5151  -0.4100   0.3811  -0.3300   0.00    2.1
2188 433745.000  -2408914.0052   4698518.1007   3566015.6656   2  20   0.4252   0.5973   0.5151  -0.4100   0.3810  -0.3300   0.00    2.6
2188 433746.000  -2408914.4589   4698518.7003   3566015.9288   2  20   0.4252   0.5972   0.5151  -0.4100   0.3810  -0.3299   0.00    2.5
2188 433747.000  -2408914.2632   4698518.3928   3566015.6363   2  20   0.4252   0.5972   0.5151  -0.4099   0.3810  -0.3299   0.00    2.3
2188 433748.000  -2408914.0014   4698518.0958   3566015.7068   2  20   0.4252   0.5971   0.5151  -0.4099   0.3809  -0.3299   0.00    2.7
2188 433749.000  -2408914.1912   4698518.2291   3566015.6117   2  20   0.4252   0.5971   0.5151  -0.4099   0.3809  -0.3299   0.00    2.4
2188 433750.000  -2408914.1111   4698518.0068   3566015.7226   2  20   0.4251   0.5970   0.5151  -0.4098   0.3809  -0.3299   0.00    2.1
2188 433751.000  -2408914.1355   4698518.4268   3566015.4507   2  20   0.4251   0.5970   0.5152  -0.4098   0.3809  -0.3299   0.00    2.2
2188 433752.000  -2408914.0785   4698518.0773   3566015.6768   2  20   0.4251   0.5969   0.5152  -0.4098   0.3808  -0.3299   0.00    2.3
2188 433753.000  -2408914.2411   4698518.2635   3566015.6688   2  20   0.4251   0.5969   0.5152  -0.4097   0.3808  -0.3299   0.00    2.1
2188 433754.000  -2408914.2143   4698518.6612   3566015.7821   2  20   0.4251   0.5968   0.5152  -0.4097   0.3808  -0.3299   0.00    2.3
2188 433755.000  -2408914.0989   4698518.6086   3566015.6936   2  20   0.4251   0.5968   0.5152  -0.4097   0.3807  -0.3298   0.00    2.4
2188 433756.000  -2408914.0634   4698518.0176   3566015.3141   2  20   0.4250   0.5967   0.5152  -0.4096   0.3807  -0.3298   0.00    2.4
2188 433757.000  -2408914.3499   4698518.6089   3566015.7371   2  20   0.4250   0.5967   0.5152  -0.4096   0.3807  -0.3298   0.00    2.1
2188 433758.000  -2408914.2348   4698518.6602   3566015.8813   2  20   0.4250   0.5966   0.5152  -0.4096   0.3807  -0.3298   0.00    2.5
2188 433759.000  -2408914.1174   4698518.4511   3566015.7652   2  20   0.4250   0.5966   0.5153  -0.4095   0.3806  -0.3298   0.00    2.3
2188 433760.000  -2408914.2061   4698518.6458   3566015.8590   2  20   0.4250   0.5965   0.5153  -0.4095   0.3806  -0.3298   0.00    2.3
2188 433761.000  -2408914.0507   4698518.3311   3566015.7000   2  20   0.4250   0.5965   0.5153  -0.4095   0.3806  -0.3298   0.00    2.4
2188 433762.000  -2408914.1287   4698518.4695   3566016.1483   2  20   0.4250   0.5964   0.5153  -0.4094   0.3805  -0.3298   0.00    2.4
2188 433763.000  -2408913.9875   4698518.2001   3566015.7884   2  20   0.4249   0.5964   0.5153  -0.4094   0.3805  -0.3298   0.00    2.4
2188 433764.000  -2408914.0076   4698518.3007   3566015.6004   2  20   0.4249   0.5963   0.5153  -0.4094   0.3805  -0.3297   0.00    2.2
2188 433765.000  -2408914.1225   4698518.3165   3566015.9746   2  20   0.4249   0.5963   0.5153  -0.4093   0.3804  -0.3297   0.00    2.3
2188 433766.000  -2408914.1289   4698518.0398   3566015.5417   2  20   0.4249   0.5962   0.5154  -0.4093   0.3804  -0.3297   0.00    2.5
2188 433767.000  -2408914.1829   4698518.4604   3566015.6930   2  20   0.4249   0.5962   0.5154  -0.4093   0.3804  -0.3297   0.00    2.5
2188 433768.000  -2408914.2336   4698518.5739   3566015.6419   2  20   0.4249   0.5961   0.5154  -0.4092   0.3804  -0.3297   0.00    2.5
2188 433769.000  -2408914.1080   4698518.7247   3566015.7140   2  20   0.4249   0.5961   0.5154  -0.4092   0.3803  -0.3297   0.00    2.6
2188 433770.000  -2408913.9963   4698518.1898   3566015.6312   2  20   0.4248   0.5960   0.5154  -0.4092   0.3803  -0.3297   0.00    2.7
2188 433771.000  -2408914.1415   4698518.1553   3566015.3466   2  20   0.4248   0.5960   0.5154  -0.4091   0.3803  -0.3297   0.00    2.5
2188 433772.000  -2408914.1163   4698518.4238   3566015.7714   2  20   0.4248   0.5959   0.5154  -0.4091   0.3802  -0.3297   0.00    2.2
2188 433773.000  -2408913.9960   4698518.3669   3566015.5243   2  20   0.4248   0.5959   0.5154  -0.4091   0.3802  -0.3296   0.00    2.3
2188 433774.000  -2408913.9531   4698518.1632   3566015.6149   2  20   0.4248   0.5958   0.5155  -0.4090   0.3802  -0.3296   0.00    2.9
2188 433775.000  -2408914.2621   4698518.6815   3566015.9995   2  20   0.4248   0.5958   0.5155  -0.4090   0.3802  -0.3296   0.00    2.9
2188 433776.000  -2408913.8924   4698518.1431   3566015.3728   2  20   0.4247   0.5957   0.5155  -0.4090   0.3801  -0.3296   0.00    2.7
2188 433777.000  -2408914.0396   4698518.1188   3566015.7915   2  20   0.4247   0.5957   0.5155  -0.4089   0.3801  -0.3296   0.00    2.7
2188 433778.000  -2408913.8484   4698518.1076   3566015.4981   2  20   0.4247   0.5957   0.5155  -0.4089   0.3801  -0.3296   0.00    2.7
2188 433779.000  -2408913.9765   4698518.4004   3566015.6313   2  20   0.4247   0.5956   0.5155  -0.4089   0.3800  -0.3296   0.00    2.2
2188 433780.000  -2408914.2184   4698518.4309   3566015.7732   2  20   0.4247   0.5956   0.5155  -0.4088   0.3800  -0.3296   0.00    2.6
2188 433781.000  -2408914.1225   4698518.5118   3566015.7812   2  20   0.4247   0.5955   0.5156  -0.4088   0.3800  -0.3296   0.00    2.6
2188 433782.000  -2408913.8644   4698518.0523   3566015.4723   2  20   0.4247   0.5955   0.5156  -0.4088   0.3800  -0.3295   0.00    2.6
2188 433783.000  -2408914.0948   4698518.4430   3566015.6589   2  20   0.4246   0.5954   0.5156  -0.4087   0.3799  -0.3295   0.00    2.6
2188 433784.000  -2408913.8967   4698518.2433   3566015.5402   2  20   0.4246   0.5954   0.5156  -0.4087   0.3799  -0.3295   0.00    2.8
2188 433785.000  -2408913.9637   4698518.1590   3566015.9322   2  20   0.4246   0.5953   0.5156  -0.4087   0.3799  -0.3295   0.00    2.5
2188 433786.000  -2408913.7791   4698518.1450   3566015.7733   2  20   0.4246   0.5953   0.5156  -0.4086   0.3798  -0.3295   0.00    2.6
2188 433787.000  -2408914.0493   4698518.2237   3566015.8194   2  20   0.4246   0.5952   0.5156  -0.4086   0.3798  -0.3295   0.00    2.8
2188 433788.000  -2408914.2176   4698518.5649   3566015.9998   2  20   0.4246   0.5952   0.5156  -0.4086   0.3798  -0.3295   0.00    2.7
2188 433789.000  -2408914.0953   4698518.0642   3566015.5792   2  20   0.4246   0.5951   0.5157  -0.4086   0.3798  -0.3295   0.00    2.6
2188 433790.000  -2408914.0465   4698518.4070   3566015.9976   2  20   0.4245   0.5951   0.5157  -0.4085   0.3797  -0.3295   0.00    2.5
2188 433791.000  -2408914.1639   4698517.8988   3566015.8918   2  20   0.4245   0.5950   0.5157  -0.4085   0.3797  -0.3294   0.00    2.5
2188 433792.000  -2408914.0172   4698517.9613   3566015.5333   2  20   0.4245   0.5950   0.5157  -0.4085   0.3797  -0.3294   0.00    2.5
2188 433793.000  -2408913.8501   4698518.3569   3566015.5994   2  20   0.4245   0.5949   0.5157  -0.4084   0.3796  -0.3294   0.00    2.6
2188 433794.000  -2408914.2179   4698518.7321   3566016.0803   2  20   0.4245   0.5949   0.5157  -0.4084   0.3796  -0.3294   0.00    2.6
2188 433795.000  -2408914.1119   4698518.6214   3566015.7960   2  20   0.4245   0.5948   0.5157  -0.4084   0.3796  -0.3294   0.00    2.6
2188 433796.000  -2408913.9776   4698518.8168   3566015.5856   2  20   0.4244   0.5948   0.5158  -0.4083   0.3796  -0.3294   0.00    2.5
2188 433797.000  -2408913.8741   4698518.4341   3566015.7497   2  20   0.4244   0.5947   0.5158  -0.4083   0.3795  -0.3294   0.00    2.4
2188 433798.000  -2408913.7627   4698518.1249   3566015.6781   2  20   0.4244   0.5947   0.5158  -0.4083   0.3795  -0.3294   0.00    2.5
2188 433799.000  -2408913.7193   4698518.1795   3566015.6706   2  20   0.4244   0.5946   0.5158  -0.4082   0.3795  -0.3294   0.00    2.7
2188 433800.000  -2408913.8122   4698518.0822   3566015.7146   2  20   0.4244   0.5946   0.5158  -0.4082   0.3794  -0.3293   0.00    3.0
2188 433801.000  -2408914.0317   4698518.2745   3566016.0880   2  20   0.4244   0.5945   0.5158  -0.4082   0.3794  -0.3293   0.00    2.7
2188 433802.000  -2408913.8386   4698517.9918   3566015.8621   2  20   0.4244   0.5945   0.5158  -0.4081   0.3794  -0.3293   0.00    2.5
2188 433803.000  -2408914.0360   4698518.3606   3566015.7901   2  20   0.4243   0.5944   0.5158  -0.4081   0.3794  -0.3293   0.00    2.8
2188 433804.000  -2408913.7291   4698518.1682   3566015.7109   2  20   0.4243   0.5944   0.5159  -0.4081   0.3793  -0.3293   0.00    2.7
2188 433805.000  -2408913.8321   4698517.7797   3566015.5877   2  20   0.4243   0.5943   0.5159  -0.4080   0.3793  -0.3293   0.00    2.8
2188 433806.000  -2408914.0012   4698518.1885   3566015.8256   2  20   0.4243   0.5943   0.5159  -0.4080   0.3793  -0.3293   0.00    2.7
2188 433807.000  -2408914.0083   4698518.1474   3566015.7372   2  20   0.4243   0.5942   0.5159  -0.4080   0.3792  -0.3293   0.00    2.5
2188 433808.000  -2408913.9411   4698518.3290   3566015.8267   2  19   0.4721   0.6277   0.5445  -0.4564   0.4231  -0.3801   0.00    2.7
2188 433809.000  -2408913.8577   4698518.0299   3566015.6002   2  19   0.4721   0.6277   0.5445  -0.4564   0.4231  -0.3800   0.00    2.8
2188 433810.000  -2408913.7367   4698517.9590   3566015.5194   2  20   0.4242   0.5941   0.5159  -0.4079   0.3792  -0.3292   0.00    2.5
2188 433811.000  -2408913.9523   4698517.9834   3566016.0722   2  20   0.4242   0.5940   0.5159  -0.4078   0.3791  -0.3292   0.00    2.4
2188 433812.000  -2408913.9720   4698518.3531   3566016.0679   2  20   0.4242   0.5940   0.5160  -0.4078   0.3791  -0.3292   0.00    2.6
2188 433813.000  -2408913.9128   4698518.0098   3566016.0437   2  20   0.4242   0.5939   0.5160  -0.4078   0.3791  -0.3292   0.00    2.5
2188 433814.000  -2408913.7953   4698517.8610   3566015.6193   2  20   0.4242   0.5939   0.5160  -0.4077   0.3790  -0.3292   0.00    2.7
2188 433815.000  -2408914.1209   4698518.0251   3566015.6590   2  20   0.4242   0.5938   0.5160  -0.4077   0.3790  -0.3292   0.00    2.8
2188 433816.000  -2408913.9030   4698517.9469   3566015.4843   2  20   0.4242   0.5938   0.5160  -0.4077   0.3790  -0.3292   0.00    2.8
2188 433817.000  -2408914.0987   4698518.4359   3566015.7937   2  20   0.4241   0.5937   0.5160  -0.4076   0.3790  -0.3291   0.00    2.3
2188 433818.000  -2408914.2744   4698518.2163   3566016.0597   2  20   0.4241   0.5937   0.5160  -0.4076   0.3789  -0.3291   0.00    2.9
2188 433819.000  -2408914.2431   4698518.2131   3566015.7679   2  20   0.4241   0.5936   0.5161  -0.4076   0.3789  -0.3291   0.00    2.7
2188 433820.000  -2408913.9126   4698517.5279   3566015.3406   2  20   0.4241   0.5936   0.5161  -0.4075   0.3789  -0.3291   0.00    2.6
2188 433821.000  -2408914.2245   4698518.0632   3566015.6289   2  20   0.4241   0.5935   0.5161  -0.4075   0.3788  -0.3291   0.00    2.6
2188 433822.000  -2408914.0684   4698518.1925   3566015.6306   2  20   0.4241   0.5935   0.5161  -0.4075   0.3788  -0.3291   0.00    2.7
2188 433823.000  -2408914.2754   4698518.3136   3566015.5767   2  20   0.4240   0.5934   0.5161  -0.4074   0.3788  -0.3291   0.00    2.5
2188 433824.000  -2408914.2165   4698518.0598   3566015.3877   2  20   0.4240   0.5934   0.5161  -0.4074   0.3788  -0.3291   0.00    2.4
2188 433825.000  -2408914.1019   4698517.9069   3566015.4568   2  20   0.4240   0.5933   0.5161  -0.4074   0.3787  -0.3291   0.00    2.4
2188 433826.000  -2408914.0953   4698518.1356   3566015.5880   2  20   0.4240   0.5933   0.5161  -0.4073   0.3787  -0.3290   0.00    2.8
2188 433827.000  -2408914.1997   4698518.4897   3566015.5248   2  20   0.4240   0.5932   0.5162  -0.4073   0.3787  -0.3290   0.00    2.6
2188 433828.000  -2408914.1052   4698518.3339   3566015.7322   2  20   0.4240   0.5932   0.5162  -0.4073   0.3786  -0.3290   0.00    2.5
2188 433829.000  -2408914.1757   4698518.5240   3566015.5651   2  20   0.4240   0.5931   0.5162  -0.4072   0.3786  -0.3290   0.00    2.9
2188 433830.000  -2408914.1731   4698518.5310   3566016.0434   2  20   0.4239   0.5931   0.5162  -0.4072   0.3786  -0.3290   0.00    2.7
2188 433831.000  -2408914.1533   4698518.3895   3566015.7007   2  20   0.4239   0.5930   0.5162  -0.4072   0.3786  -0.3290   0.00    2.4
2188 433832.000  -2408914.2139   4698518.2013   3566015.5087   2  20   0.4239   0.5930   0.5162  -0.4071   0.3785  -0.3290   0.00    2.5
2188 433833.000  -2408914.0832   4698518.1480   3566015.5066   2  20   0.4239   0.5929   0.5162  -0.4071   0.3785  -0.3290   0.00    2.6
2188 433834.000  -2408914.0629   4698518.5723   3566015.8727   2  20   0.4239   0.5929   0.5163  -0.4071   0.3785  -0.3290   0.00    2.9
2188 433835.000  -2408914.3678   4698518.6622   3566015.7374   2  20   0.4239   0.5929   0.5163  -0.4070   0.3784  -0.3289   0.00    2.9
2188 433836.000  -2408914.3748   4698518.5876   3566015.6829   2  20   0.4239   0.5928   0.5163  -0.4070   0.3784  -0.3289   0.00    3.0
2188 433837.000  -2408914.0282   4698518.1030   3566015.4588   2  20   0.4238   0.5928   0.5163  -0.4070   0.3784  -0.3289   0.00    2.8
2188 433838.000  -2408914.1281   4698518.5246   3566015.2834   2  20   0.4238   0.5927   0.5163  -0.4070   0.3784  -0.3289   0.00    2.8
2188 433839.000  -2408914.3278   4698518.7701   3566015.8734   2  20   0.4238   0.5927   0.5163  -0.4069   0.3783  -0.3289   0.00    2.8
2188 433840.000  -2408914.3861   4698518.7473   3566015.9155   2  20   0.4238   0.5926   0.5163  -0.4069   0.3783  -0.3289   0.00    2.4
2188 433841.000  -2408914.2477   4698518.4758   3566015.5511   2  20   0.4238   0.5926   0.5163  -0.4069   0.3783  -0.3289   0.00    2.7
2188 433842.000  -2408913.9159   4698518.4361   3566015.3931   2  20   0.4238   0.5925   0.5164  -0.4068   0.3782  -0.3289   0.00    2.6
2188 433843.000  -2408913.9887   4698518.3153   3566015.4927   2  20   0.4238   0.5925   0.5164  -0.4068   0.3782  -0.3288   0.00    2.6
2188 433844.000  -2408914.0601   4698518.3861   3566015.2749   2  20   0.4237   0.5924   0.5164  -0.4068   0.3782  -0.3288   0.00    2.6
2188 433845.000  -2408914.3787   4698518.1864   3566015.3689   2  20   0.4237   0.5924   0.5164  -0.4067   0.3782  -0.3288   0.00    2.5
2188 433846.000  -2408913.9830   4698518.1024   3566015.5603   1  20   0.0043   0.0060   0.0052  -0.0041   0.0038  -0.0033   0.00    3.0
2188 433847.000  -2408913.8999   4698518.2229   3566015.3527   2  20   0.4237   0.5923   0.5164  -0.4067   0.3781  -0.3288   0.00    2.6
2188 433848.000  -2408914.2606   4698518.5040   3566015.6068   2  20   0.4237   0.5922   0.5164  -0.4066   0.3781  -0.3288   0.00    2.8
2188 433849.000  -2408914.4393   4698518.6391   3566016.1119   2  20   0.4237   0.5922   0.5164  -0.4066   0.3780  -0.3288   0.00    2.7
2188 433850.000  -2408914.1471   4698518.3155   3566015.5545   2  19   0.4713   0.6254   0.5450  -0.4547   0.4218  -0.3795   0.00    2.6
2188 433851.000  -2408914.1055   4698518.3214   3566015.7073   2  20   0.4236   0.5921   0.5165  -0.4065   0.3780  -0.3288   0.00    2.6
2188 433852.000  -2408914.0444   4698518.3038   3566015.3920   2  20   0.4236   0.5920   0.5165  -0.4065   0.3779  -0.3287   0.00    2.6
2188 433853.000  -2408913.5882   4698517.8324   3566015.7127   2  19   0.4712   0.6252   0.5450  -0.4546   0.4217  -0.3794   0.00    2.5
2188 433854.000  -2408914.0667   4698518.3098   3566015.7781   2  20   0.4236   0.5919   0.5165  -0.4064   0.3779  -0.3287   0.00    2.1
2188 433855.000  -2408913.8877   4698518.2475   3566015.4533   2  20   0.4236   0.5919   0.5165  -0.4064   0.3779  -0.3287   0.00    2.6
2188 433856.000  -2408913.9084   4698517.8692   3566015.6618   2  20   0.4236   0.5918   0.5165  -0.4064   0.3778  -0.3287   0.00    2.8
2188 433857.000  -2408913.8663   4698518.0113   3566015.1806   2  20   0.4235   0.5918   0.5165  -0.4063   0.3778  -0.3287   0.00    2.4
2188 433858.000  -2408913.8577   4698518.0744   3566015.4743   2  20   0.4235   0.5917   0.5166  -0.4063   0.3778  -0.3287   0.00    2.6
2188 433859.000  -2408913.9103   4698518.2404   3566015.6381   2  20   0.4235   0.5917   0.5166  -0.4063   0.3777  -0.3287   0.00    2.8
2188 433860.000  -2408914.2193   4698518.4855   3566015.8212   2  20   0.4235   0.5916   0.5166  -0.4062   0.3777  -0.3287   0.00    2.4
2188 433861.000  -2408913.8056   4698518.2230   3566015.3420   2  20   0.4235   0.5916   0.5166  -0.4062   0.3777  -0.3286   0.00    2.5
2188 433862.000  -2408913.6925   4698517.8152   3566015.5269   2  20   0.4235   0.5915   0.5166  -0.4062   0.3777  -0.3286   0.00    2.5
2188 433863.000  -2408914.0643   4698518.4108   3566016.0517   2  20   0.4235   0.5915   0.5166  -0.4061   0.3776  -0.3286   0.00    2.6
2188 433864.000  -2408913.8608   4698518.0974   3566015.5349   2  20   0.4234   0.5915   0.5166  -0.4061   0.3776  -0.3286   0.00    2.4
2188 433865.000  -2408913.8900   4698518.1108   3566015.5641   2  20   0.4234   0.5914   0.5167  -0.4061   0.3776  -0.3286   0.00    2.5
2188 433866.000  -2408913.9316   4698518.2846   3566015.6421   2  20   0.4234   0.5914   0.5167  -0.4060   0.3775  -0.3286   0.00    2.6
2188 433867.000  -2408913.8529   4698518.6245   3566015.6256   2  19   0.4709   0.6244   0.5452  -0.4541   0.4212  -0.3793   0.00    2.8
2188 433868.000  -2408913.8777   4698518.0656   3566015.7174   2  20   0.4234   0.5913   0.5167  -0.4060   0.3775  -0.3286   0.00    3.0
2188 433869.000  -2408913.7639   4698517.9106   3566015.8578   2  20   0.4234   0.5912   0.5167  -0.4059   0.3775  -0.3285   0.00    2.2
2188 433870.000  -2408913.9344   4698518.0557   3566015.4781   2  20   0.4234   0.5912   0.5167  -0.4059   0.3774  -0.3285   0.00    2.6
2188 433871.000  -2408914.0589   4698518.5421   3566015.7276   2  20   0.4233   0.5911   0.5167  -0.4059   0.3774  -0.3285   0.00    2.6
2188 433872.000  -2408913.9822   4698518.1031   3566015.5584   1  20   0.0043   0.0060   0.0052  -0.0041   0.0038  -0.0033   0.00    3.0
2188 433873.000  -2408914.0289   4698518.2543   3566015.4381   2  20   0.4233   0.5910   0.5168  -0.4058   0.3773  -0.3285   0.00    2.9
2188 433874.000  -2408913.9337   4698518.2712   3566015.5168   2  20   0.4233   0.5910   0.5168  -0.4058   0.3773  -0.3285   0.00    2.6
2188 433875.000  -2408914.1109   4698518.1572   3566015.6244   2  20   0.4233   0.5909   0.5168  -0.4058   0.3773  -0.3285   0.00    3.0
2188 433876.000  -2408913.7568   4698518.0162   3566015.4485   2  20   0.4233   0.5909   0.5168  -0.4057   0.3773  -0.3285   0.00    2.7
2188 433877.000  -2408914.3280   4698518.5281   3566016.0787   2  20   0.4233   0.5908   0.5168  -0.4057   0.3772  -0.3285   0.00    2.7
2188 433878.000  -2408914.2274   4698518.3307   3566015.8887   2  20   0.4232   0.5908   0.5168  -0.4057   0.3772  -0.3284   0.00    2.6
2188 433879.000  -2408914.0260   4698518.2047   3566015.8225   2  20   0.4232   0.5907   0.5168  -0.4056   0.3772  -0.3284   0.00    2.7
2188 433880.000  -2408913.9766   4698518.0371   3566015.6021   2  20   0.4232   0.5907   0.5168  -0.4056   0.3771  -0.3284   0.00    2.7
2188 433881.000  -2408913.7758   4698518.2095   3566015.7782   2  20   0.4232   0.5906   0.5169  -0.4056   0.3771  -0.3284   0.00    2.4
2188 433882.000  -2408914.0186   4698518.2026   3566015.5208   2  20   0.4232   0.5906   0.5169  -0.4055   0.3771  -0.3284   0.00    2.4
2188 433883.000  -2408914.1407   4698518.3549   3566015.8029   2  20   0.4232   0.5905   0.5169  -0.4055   0.3771  -0.3284   0.00    2.6
2188 433884.000  -2408914.1500   4698518.4499   3566015.7661   2  20   0.4232   0.5905   0.5169  -0.4055   0.3770  -0.3284   0.00    2.6
2188 433885.000  -2408914.2439   4698518.6677   3566016.1012   2  20   0.4231   0.5904   0.5169  -0.4054   0.3770  -0.3284   0.00    2.5
2188 433886.000  -2408914.2428   4698518.8676   3566015.5873   2  20   0.4231   0.5904   0.5169  -0.4054   0.3770  -0.3283   0.00    2.6
2188 433887.000  -2408913.9869   4698518.2611   3566015.7975   2  20   0.4231   0.5904   0.5169  -0.4054   0.3769  -0.3283   0.00    2.3
2188 433888.000  -2408914.1399   4698518.3937   3566015.8220   2  20   0.4231   0.5903   0.5169  -0.4053   0.3769  -0.3283   0.00    2.4
2188 433889.000  -2408914.0025   4698518.4317   3566015.8411   2  20   0.4231   0.5903   0.5170  -0.4053   0.3769  -0.3283   0.00    2.7
2188 433890.000  -2408914.1126   4698518.4907   3566015.9669   2  20   0.4231   0.5902   0.5170  -0.4053   0.3769  -0.3283   0.00    2.6
2188 433891.000  -2408914.2050   4698518.5943   3566015.9400   2  20   0.4231   0.5902   0.5170  -0.4052   0.3768  -0.3283   0.00    2.8
2188 433892.000  -2408914.2318   4698518.5477   3566015.8277   2  20   0.4230   0.5901   0.5170  -0.4052   0.3768  -0.3283   0.00    2.5
2188 433893.000  -2408914.2655   4698518.7877   3566015.5662   2  20   0.4230   0.5901   0.5170  -0.4052   0.3768  -0.3283   0.00    2.5
2188 433894.000  -2408914.0614   4698518.6743   3566015.6348   2  20   0.4230   0.5900   0.5170  -0.4051   0.3768  -0.3283   0.00    2.6
2188 433895.000  -2408914.1778   4698518.3064   3566015.8914   2  20   0.4230   0.5900   0.5170  -0.4051   0.3767  -0.3282   0.00    2.6
2188 433896.000  -2408914.2373   4698518.6734   3566015.6521   2  20   0.4230   0.5899   0.5171  -0.4051   0.3767  -0.3282   0.00    2.6
2188 433897.000  -2408914.2770   4698518.6413   3566015.7323   2  20   0.4230   0.5899   0.5171  -0.4051   0.3767  -0.3282   0.00    2.6
2188 433898.000  -2408913.9403   4698518.5215   3566015.8564   2  20   0.4230   0.5898   0.5171  -0.4050   0.3766  -0.3282   0.00    2.3
2188 433899.000  -2408914.1758   4698518.8692   3566015.9075   2  20   0.4229   0.5898   0.5171  -0.4050   0.3766  -0.3282   0.00    2.4
2188 433900.000  -2408914.1523   4698518.3856   3566015.7035   2  20   0.4229   0.5897   0.5171  -0.4050   0.3766  -0.3282   0.00    2.6
2188 433901.000  -2408914.2804   4698519.0739   3566015.7934   2  20   0.4229   0.5897   0.5171  -0.4049   0.3766  -0.3282   0.00    2.5
2188 433902.000  -2408914.2531   4698518.7029   3566015.7916   2  20   0.4229   0.5896   0.5171  -0.4049   0.3765  -0.3282   0.00    2.4
2188 433903.000  -2408914.2489   4698518.7396   3566015.9233   2  20   0.4229   0.5896   0.5171  -0.4049   0.3765  -0.3282   0.00    2.5
2188 433904.000  -2408914.2205   4698518.6796   3566015.8165   2  20   0.4229   0.5895   0.5172  -0.4048   0.3765  -0.3281   0.00    2.4
2188 433905.000  -2408914.2434   4698518.6298   3566015.6070   2  20   0.4228   0.5895   0.5172  -0.4048   0.3764  -0.3281   0.00    2.7
2188 433906.000  -2408914.0383   4698517.9853   3566015.9076   2  20   0.4228   0.5895   0.5172  -0.4048   0.3764  -0.3281   0.00    2.6
2188 433907.000  -2408913.9825   4698518.1560   3566015.4101   2  20   0.4228   0.5894   0.5172  -0.4047   0.3764  -0.3281   0.00    2.5
2188 433908.000  -2408914.0689   4698518.5253   3566015.6360   2  20   0.4228   0.5894   0.5172  -0.4047   0.3764  -0.3281   0.00    2.6
2188 433909.000  -2408914.1225   4698518.4896   3566015.5845   2  20   0.4228   0.5893   0.5172  -0.4047   0.3763  -0.3281   0.00    2.5
2188 433910.000  -2408914.2556   4698518.3040   3566015.4022   2  20   0.4228   0.5893   0.5172  -0.4046   0.3763  -0.3281   0.00    2.6
2188 433911.000  -2408914.1858   4698518.3976   3566015.8518   2  20   0.4228   0.5892   0.5172  -0.4046   0.3763  -0.3281   0.00    2.7
2188 433912.000  -2408914.1619   4698518.3403   3566015.4209   2  20   0.4227   0.5892   0.5173  -0.4046   0.3762  -0.3280   0.00    2.8
2188 433913.000  -2408914.2615   4698518.8015   3566015.4109   2  20   0.4227   0.5891   0.5173  -0.4045   0.3762  -0.3280   0.00    2.7
2188 433914.000  -2408914.3262   4698518.6333   3566015.5003   2  20   0.4227   0.5891   0.5173  -0.4045   0.3762  -0.3280   0.00    2.4
2188 433915.000  -2408914.4763   4698518.9203   3566015.8299   2  20   0.4227   0.5890   0.5173  -0.4045   0.3762  -0.3280   0.00    2.6
2188 433916.000  -2408913.9632   4698518.1920   3566015.3330   2  20   0.4227   0.5890   0.5173  -0.4044   0.3761  -0.3280   0.00    2.7
2188 433917.000  -2408914.0112   4698518.2531   3566015.5739   2  20   0.4227   0.5889   0.5173  -0.4044   0.3761  -0.3280   0.00    2.5
2188 433918.000  -2408914.1775   4698518.5548   3566015.5151   2  20   0.4227   0.5889   0.5173  -0.4044   0.3761  -0.3280   0.00    2.5
2188 433919.000  -2408914.2783   4698518.2777   3566015.6144   2  20   0.4226   0.5888   0.5173  -0.4044   0.3760  -0.3280   0.00    2.7
